gps_time,utc_time,heading,pitch,roll,heading_radians,pitch_radians,roll_radians,gyroX,gyroY,gyroZ,accX,accY,accZ,latitude,longitude,altitude,utm_x_position,utm_y_position,local_x,local_y,east_speed,north_speed,vertical_speed,vehicle_lat_speed,vehicle_lon_speed,position_type,GNSS_info1,GNSS_info2
1670234922530.0,2022-12-05 18:08:42:577090,202.17,-0.48,0.13,3.5285321187703524,-0.00837758033837745,0.0022689280083105596,-0.01173,-0.013500000000000002,0.01557,0.0234122,0.08162420000000001,9.778743799999999,31.030662707,121.44334952300001,16.069,351431.65427879756,3434040.676416972,175.57427879754687,261.2664169720374,0.0,0.0,0.0,0.0,-0.0,50,5,188
1670234922550.0,2022-12-05 18:08:42:589850,202.17,-0.48,0.13,3.5285321187703524,-0.00837758033837745,0.0022689280083105596,-0.007970000000000001,0.010220000000000002,-0.02068,0.0216188,0.0794682,9.7842122,31.030662707,121.443349522,16.069,351431.6541833438,3434040.676418309,175.57418334379327,261.26641830895096,0.0,0.0,0.0,0.0,-0.0,50,5,188
1670234922570.0,2022-12-05 18:08:42:609860,202.17,-0.48,0.13,3.5285321187703524,-0.00837758033837745,0.0022689280083105596,-0.019430000000000003,0.026080000000000002,0.014390000000000002,0.022736000000000003,0.0770672,9.7797042,31.030662707,121.443349522,16.069,351431.6541833438,3434040.676418309,175.57418334379327,261.26641830895096,0.0,0.0,0.0,0.0,-0.0,50,5,188
1670234922590.0,2022-12-05 18:08:42:629898,202.17,-0.49,0.13,3.5285321187703524,-0.008552113262093647,0.0022689280083105596,-0.01974,-0.01451,-0.022600000000000002,0.022726200000000002,0.07701820000000001,9.7842122,31.030662707,121.443349521,16.069,351431.6540878925,3434040.676419646,175.57408789248439,261.2664196458645,0.0,0.0,0.0,0.0,-0.0,50,5,188
1670234922610.0,2022-12-05 18:08:42:649767,202.17,-0.49,0.13,3.5285321187703524,-0.008552113262093647,0.0022689280083105596,-0.06058,-0.041740000000000006,0.00097,0.021658,0.0789586,9.79804,31.030662705,121.44334952400001,16.069,351431.6543711433,3434040.676193944,175.57437114330241,261.2661939440295,0.0,0.0,0.0,0.0,-0.0,50,5,188
1670234922630.0,2022-12-05 18:08:42:669812,202.17,-0.49,0.13,3.5285321187703524,-0.008552113262093647,0.0022689280083105596,-0.05101000000000001,-0.0043300000000000005,-0.00067,0.0217168,0.08108520000000001,9.7963152,31.030662706,121.44334952300001,16.069,351431.6542772448,3434040.6763061266,175.5742772447993,261.26630612649024,0.0,0.0,0.0,0.0,-0.0,50,5,188
1670234922650.0,2022-12-05 18:08:42:689865,202.17,-0.49,0.12,3.5285321187703524,-0.008552113262093647,0.0020943950845943625,-0.04181000000000001,-0.027750000000000004,-0.00038,0.0209034,0.081242,9.79461,31.030662706,121.44334952300001,16.069,351431.6542772448,3434040.6763061266,175.5742772447993,261.26630612649024,0.0,0.0,0.0,0.0,-0.0,50,5,188
1670234922670.0,2022-12-05 18:08:42:709929,202.17,-0.49,0.12,3.5285321187703524,-0.008552113262093647,0.0020943950845943625,-0.00419,-0.005860000000000001,-0.00786,0.0217952,0.083594,9.7872208,31.030662706,121.443349522,16.069,351431.65418179106,3434040.6763074636,175.5741817910457,261.2663074634038,0.0,0.0,0.0,0.0,-0.0,50,5,188
1670234922690.0,2022-12-05 18:08:42:729413,202.17,-0.49,0.12,3.5285321187703524,-0.008552113262093647,0.0020943950845943625,-0.00462,0.00657,-0.013240000000000002,0.0215698,0.0856324,9.788289,31.030662707,121.443349522,16.069,351431.6541833438,3434040.676418309,175.57418334379327,261.26641830895096,0.0,0.0,0.0,0.0,-0.0,50,5,188
1670234922710.0,2022-12-05 18:08:42:749872,202.17,-0.49,0.12,3.5285321187703524,-0.008552113262093647,0.0020943950845943625,-0.08046,-0.03155,0.023280000000000002,0.0198842,0.08918000000000001,9.7921698,31.030662707,121.443349521,16.069,351431.6540878925,3434040.676419646,175.57408789248439,261.2664196458645,0.0,0.0,0.0,0.0,-0.0,50,5,188
1670234922730.0,2022-12-05 18:08:42:769491,202.17,-0.49,0.12,3.5285321187703524,-0.008552113262093647,0.0020943950845943625,-0.022260000000000002,0.0125,0.012530000000000001,0.0212072,0.0882392,9.7980106,31.030662707,121.44334952000001,16.069,351431.6539924412,3434040.676420983,175.5739924411755,261.2664209827781,0.0,0.0,0.0,0.0,-0.0,50,5,188
1670234922750.0,2022-12-05 18:08:42:789887,202.17,-0.49,0.12,3.5285321187703524,-0.008552113262093647,0.0020943950845943625,-0.02414,-0.007320000000000001,-0.01501,0.021020999999999998,0.0860636,9.798187,31.030662707,121.44334952000001,16.069,351431.6539924412,3434040.676420983,175.5739924411755,261.2664209827781,0.0,0.0,0.0,0.0,-0.0,50,5,188
1670234922770.0,2022-12-05 18:08:42:809911,202.17,-0.49,0.12,3.5285321187703524,-0.008552113262093647,0.0020943950845943625,-0.00638,-0.03003,0.006350000000000001,0.020139,0.0858088,9.798481,31.030662708,121.44334951900001,16.069,351431.65389854007,3434040.6765331654,175.57389854005305,261.2665331652388,0.0,0.0,0.0,0.0,-0.0,50,5,188
1670234922790.0,2022-12-05 18:08:42:829826,202.17,-0.49,0.12,3.5285321187703524,-0.008552113262093647,0.0020943950845943625,0.01527,0.012100000000000001,-0.023520000000000003,0.0166894,0.08401539999999999,9.7974618,31.030662708,121.443349518,16.069,351431.6538030888,3434040.6765345023,175.57380308880238,261.26653450215235,0.0,0.0,0.0,0.0,-0.0,50,5,188
1670234922810.0,2022-12-05 18:08:42:849841,202.17,-0.49,0.12,3.5285321187703524,-0.008552113262093647,0.0020943950845943625,0.06051000000000001,0.021,0.01564,0.014435400000000001,0.08510319999999999,9.789768800000001,31.030662708,121.443349518,16.069,351431.6538030888,3434040.6765345023,175.57380308880238,261.26653450215235,0.0,0.0,0.0,0.0,-0.0,50,5,188
1670234922830.0,2022-12-05 18:08:42:869868,202.17,-0.49,0.13,3.5285321187703524,-0.008552113262093647,0.0022689280083105596,0.00485,0.050890000000000005,-0.00851,0.0176204,0.08326080000000001,9.7834184,31.030662706,121.443349521,16.069,351431.65408633964,3434040.676308801,175.5740863396204,261.266308800783,0.0,0.0,0.0,0.0,-0.0,50,5,188
1670234922850.0,2022-12-05 18:08:42:889989,202.17,-0.49,0.13,3.5285321187703524,-0.008552113262093647,0.0022689280083105596,-0.043530000000000006,0.00519,0.02069,0.0172578,0.08231020000000001,9.7763722,31.030662706,121.44334952000001,16.069,351431.6539908884,3434040.676310138,175.57399088836974,261.26631013769656,0.0,0.0,0.0,0.0,-0.0,50,5,188
1670234922870.0,2022-12-05 18:08:42:909936,202.17,-0.49,0.13,3.5285321187703524,-0.008552113262093647,0.0022689280083105596,0.01631,-0.0119,0.018340000000000002,0.0173852,0.08274139999999999,9.7801452,31.030662707,121.44334951900001,16.069,351431.6538969874,3434040.6764223203,175.5738969873637,261.2664223201573,0.0,0.0,0.0,0.0,-0.0,50,5,188
1670234922890.0,2022-12-05 18:08:42:929808,202.17,-0.49,0.12,3.5285321187703524,-0.008552113262093647,0.0020943950845943625,-0.0176,-0.028820000000000002,0.038360000000000005,0.0186592,0.0835254,9.787044400000001,31.030662707,121.44334951900001,16.069,351431.6538969874,3434040.6764223203,175.5738969873637,261.2664223201573,0.0,0.0,0.0,0.0,-0.0,50,5,188
1670234922910.0,2022-12-05 18:08:42:949914,202.17,-0.49,0.12,3.5285321187703524,-0.008552113262093647,0.0020943950845943625,0.0069700000000000005,-0.00054,0.02,0.0243334,0.08127140000000001,9.7826442,31.030662707,121.443349518,16.069,351431.653801536,3434040.676423657,175.5738015359966,261.26642365707085,0.0,0.0,0.0,0.0,-0.0,50,5,188
1670234922930.0,2022-12-05 18:08:42:969827,202.17,-0.49,0.12,3.5285321187703524,-0.008552113262093647,0.0020943950845943625,0.02578,-0.03508,-0.01609,0.0272734,0.08028160000000001,9.7894062,31.030662708,121.443349517,16.069,351431.653707635,3434040.6765358397,175.57370763499057,261.26653583953157,0.0,0.0,0.0,0.0,-0.0,50,5,188
1670234922950.0,2022-12-05 18:08:42:989895,202.17,-0.49,0.12,3.5285321187703524,-0.008552113262093647,0.0020943950845943625,0.0029000000000000002,0.02458,0.01691,0.0256956,0.07987980000000001,9.794404199999999,31.030662708,121.443349517,16.069,351431.653707635,3434040.6765358397,175.57370763499057,261.26653583953157,0.0,0.0,0.0,0.0,-0.0,50,5,188
1670234922970.0,2022-12-05 18:08:43:009869,202.17,-0.49,0.12,3.5285321187703524,-0.008552113262093647,0.0020943950845943625,0.014980000000000002,-0.02823,0.00923,0.027636,0.0806148,9.800421400000001,31.030662708,121.44334951600001,16.069,351431.65361218614,3434040.676537176,175.5736121861264,261.26653717597947,0.0,0.0,0.0,0.0,-0.0,50,5,188
1670234922990.0,2022-12-05 18:08:43:029952,202.17,-0.49,0.12,3.5285321187703524,-0.008552113262093647,0.0020943950845943625,-0.052230000000000006,0.006920000000000001,0.02102,0.027097,0.0806736,9.801666,31.030662709,121.44334951600001,16.069,351431.65361373895,3434040.6766480217,175.57361373893218,261.26664802152663,0.0,0.0,0.0,0.0,-0.0,50,5,188
1670234923010.0,2022-12-05 18:08:43:049842,202.17,-0.49,0.12,3.5285321187703524,-0.008552113262093647,0.0020943950845943625,0.02671,-0.004410000000000001,0.00265,0.0267148,0.0806932,9.793512400000001,31.030662709,121.44334951500001,16.069,351431.65351828514,3434040.6766493586,175.57351828512037,261.2666493584402,0.0,0.0,0.0,0.0,-0.0,50,5,188
1670234923030.0,2022-12-05 18:08:43:069951,202.17,-0.49,0.12,3.5285321187703524,-0.008552113262093647,0.0020943950845943625,0.04395,-0.025050000000000003,0.00532,0.0264012,0.0817124,9.7923462,31.030662706,121.44334951900001,16.069,351431.6538954346,3434040.6763114748,175.57389543455793,261.2663114746101,0.0,0.0,0.0,0.0,-0.0,50,5,188
1670234923050.0,2022-12-05 18:08:43:089845,202.17,-0.49,0.12,3.5285321187703524,-0.008552113262093647,0.0020943950845943625,0.009130000000000001,0.01678,-0.032150000000000005,0.0211386,0.0850542,9.794619800000001,31.030662707,121.443349518,16.069,351431.653801536,3434040.676423657,175.5738015359966,261.26642365707085,0.0,0.0,0.0,0.0,-0.0,50,5,188
1670234923070.0,2022-12-05 18:08:43:109874,202.17,-0.49,0.12,3.5285321187703524,-0.008552113262093647,0.0020943950845943625,-0.00108,-0.04462000000000001,-0.007070000000000001,0.019208,0.0868868,9.7854862,31.030662707,121.443349518,16.069,351431.653801536,3434040.676423657,175.5738015359966,261.26642365707085,0.0,0.0,0.0,0.0,-0.0,50,5,188
1670234923090.0,2022-12-05 18:08:43:129944,202.17,-0.49,0.12,3.5285321187703524,-0.008552113262093647,0.0020943950845943625,-0.00979,0.01305,-0.024380000000000002,0.0196686,0.0864654,9.7806744,31.030662707,121.443349517,16.069,351431.65370608226,3434040.676424994,175.573706082243,261.2664249939844,0.0,0.0,0.0,0.0,-0.0,50,5,188
1670234923110.0,2022-12-05 18:08:43:149909,202.17,-0.49,0.12,3.5285321187703524,-0.008552113262093647,0.0020943950845943625,-0.031030000000000002,-0.0069500000000000004,0.03203,0.018571,0.0874454,9.7861428,31.030662707,121.443349517,16.069,351431.65370608226,3434040.676424994,175.573706082243,261.2664249939844,0.0,0.0,0.0,0.0,-0.0,50,5,188
1670234923130.0,2022-12-05 18:08:43:169921,202.17,-0.49,0.12,3.5285321187703524,-0.008552113262093647,0.0020943950845943625,0.02917,-0.042,-0.00322,0.0174832,0.09010119999999999,9.7899844,31.030662708,121.44334951600001,16.069,351431.65361218614,3434040.676537176,175.5736121861264,261.26653717597947,0.0,0.0,0.0,0.0,-0.0,50,5,188
1670234923150.0,2022-12-05 18:08:43:189783,202.17,-0.49,0.12,3.5285321187703524,-0.008552113262093647,0.0020943950845943625,0.0009800000000000002,0.014820000000000002,-0.0089,0.0189924,0.087073,9.7916602,31.030662708,121.44334951500001,16.069,351431.6535167323,3434040.676538513,175.5735167322564,261.266538512893,0.0,0.0,0.0,0.0,-0.0,50,5,188
1670234923170.0,2022-12-05 18:08:43:209884,202.16,-0.49,0.12,3.5283575858466363,-0.008552113262093647,0.0020943950845943625,0.013750000000000002,-0.016050000000000002,-0.0204,0.0196294,0.0852306,9.7891906,31.030662708,121.44334951500001,16.069,351431.6535167323,3434040.676538513,175.5735167322564,261.266538512893,0.0,0.0,0.0,0.0,-0.0,50,5,188
1670234923190.0,2022-12-05 18:08:43:229401,202.17,-0.49,0.12,3.5285321187703524,-0.008552113262093647,0.0020943950845943625,-0.00559,-0.00792,0.01924,0.0231084,0.083055,9.7868288,31.030662709,121.443349514,16.069,351431.6534228338,3434040.6766506955,175.5734228338115,261.26665069535375,0.0,0.0,0.0,0.0,-0.0,50,5,188
1670234923210.0,2022-12-05 18:08:43:249796,202.16,-0.49,0.12,3.5283575858466363,-0.008552113262093647,0.0020943950845943625,0.03225,0.006470000000000001,-0.03309,0.021805,0.07999740000000001,9.795991800000001,31.030662705,121.44334951900001,16.069,351431.6538938817,3434040.676200629,175.57389388169395,261.26620062906295,0.0,0.0,0.0,0.0,-0.0,50,5,188
1670234923230.0,2022-12-05 18:08:43:269428,202.16,-0.49,0.12,3.5283575858466363,-0.008552113262093647,0.0020943950845943625,-0.011970000000000001,-0.01259,-0.00436,0.021422800000000002,0.07890960000000001,9.7957272,31.030662705,121.44334951900001,16.069,351431.6538938817,3434040.676200629,175.57389388169395,261.26620062906295,0.0,0.0,0.0,0.0,-0.0,50,5,188
1670234923250.0,2022-12-05 18:08:43:289909,202.16,-0.49,0.12,3.5283575858466363,-0.008552113262093647,0.0020943950845943625,-0.00318,-0.01162,0.0022700000000000003,0.023030000000000002,0.07826280000000001,9.7865936,31.030662705,121.443349518,16.069,351431.65379843046,3434040.676201966,175.57379843044328,261.2662019659765,0.0,0.0,0.0,0.0,-0.0,50,5,188
1670234923270.0,2022-12-05 18:08:43:309967,202.16,-0.49,0.12,3.5283575858466363,-0.008552113262093647,0.0020943950845943625,-0.03867,0.009760000000000001,-0.013560000000000001,0.0243236,0.07742980000000001,9.7847414,31.030662706,121.443349518,16.069,351431.6537999832,3434040.6763128126,175.57379998319084,261.266312812455,0.0,0.0,0.0,0.0,-0.0,50,5,188
1670234923290.0,2022-12-05 18:08:43:329545,202.16,-0.49,0.12,3.5283575858466363,-0.008552113262093647,0.0020943950845943625,0.03097,0.00495,-0.013600000000000001,0.022001000000000003,0.0763518,9.7858782,31.030662706,121.443349517,16.069,351431.6537045294,3434040.6763141495,175.57370452937903,261.26631414936855,0.0,0.0,0.0,0.0,-0.0,50,5,188
1670234923310.0,2022-12-05 18:08:43:349824,202.16,-0.49,0.12,3.5283575858466363,-0.008552113262093647,0.0020943950845943625,0.004350000000000001,-0.010530000000000001,-0.015530000000000002,0.0224714,0.07775320000000001,9.7860546,31.030662706,121.443349517,16.069,351431.6537045294,3434040.6763141495,175.57370452937903,261.26631414936855,0.0,0.0,0.0,0.0,-0.0,50,5,188
1670234923330.0,2022-12-05 18:08:43:369890,202.16,-0.49,0.12,3.5283575858466363,-0.008552113262093647,0.0020943950845943625,0.0166,-0.004390000000000001,0.010910000000000001,0.0213738,0.0796348,9.7858782,31.030662707,121.44334951600001,16.069,351431.65361063334,3434040.676426332,175.57361063332064,261.2664263318293,0.0,0.0,0.0,0.0,-0.0,50,5,188
1670234923350.0,2022-12-05 18:08:43:389955,202.16,-0.49,0.12,3.5283575858466363,-0.008552113262093647,0.0020943950845943625,-0.039490000000000004,-0.007930000000000001,-0.014900000000000002,0.022726200000000002,0.0798504,9.7840848,31.030662707,121.44334951600001,16.069,351431.65361063334,3434040.676426332,175.57361063332064,261.2664263318293,0.0,0.0,0.0,0.0,-0.0,50,5,188
1670234923370.0,2022-12-05 18:08:43:409902,202.16,-0.49,0.12,3.5283575858466363,-0.008552113262093647,0.0020943950845943625,0.03667,-0.016380000000000002,-0.00871,0.0211778,0.08448580000000001,9.7875834,31.030662707,121.44334951500001,16.069,351431.6535151795,3434040.676427669,175.57351517950883,261.26642766874284,0.0,0.0,0.0,0.0,-0.0,50,5,188
1670234923390.0,2022-12-05 18:08:43:429428,202.16,-0.49,0.12,3.5283575858466363,-0.008552113262093647,0.0020943950845943625,-0.0415,-0.016190000000000003,0.028690000000000004,0.019894000000000002,0.0864752,9.7995296,31.030662707,121.44334951500001,16.069,351431.6535151795,3434040.676427669,175.57351517950883,261.26642766874284,0.0,0.0,0.0,0.0,-0.0,50,5,188
1670234923410.0,2022-12-05 18:08:43:449885,202.16,-0.49,0.12,3.5283575858466363,-0.008552113262093647,0.0020943950845943625,-0.0651,0.0154,0.00527,0.0182084,0.08727879999999999,9.7944238,31.030662704,121.44334952000001,16.069,351431.6539877827,3434040.6760884477,175.5739877827,261.26608844753355,0.0,0.0,0.0,0.0,-0.0,50,5,188
1670234923430.0,2022-12-05 18:08:43:469859,202.16,-0.49,0.12,3.5283575858466363,-0.008552113262093647,0.0020943950845943625,-0.00642,-0.0046700000000000005,-0.015070000000000002,0.0211778,0.08742580000000001,9.7925912,31.030662705,121.44334951900001,16.069,351431.6538938817,3434040.676200629,175.57389388169395,261.26620062906295,0.0,0.0,0.0,0.0,-0.0,50,5,188
1670234923450.0,2022-12-05 18:08:43:489817,202.16,-0.49,0.12,3.5283575858466363,-0.008552113262093647,0.0020943950845943625,0.01165,0.00515,0.019430000000000003,0.020727,0.0874846,9.7940514,31.030662705,121.44334951900001,16.069,351431.6538938817,3434040.676200629,175.57389388169395,261.26620062906295,0.0,0.0,0.0,0.0,-0.0,50,5,188
1670234923470.0,2022-12-05 18:08:43:509859,202.16,-0.49,0.12,3.5283575858466363,-0.008552113262093647,0.0020943950845943625,-0.032330000000000005,-0.01712,0.00642,0.0190512,0.0904148,9.7962956,31.030662705,121.443349518,16.069,351431.65379843046,3434040.676201966,175.57379843044328,261.2662019659765,0.0,0.0,0.0,0.0,-0.0,50,5,188
1670234923490.0,2022-12-05 18:08:43:529905,202.16,-0.49,0.12,3.5283575858466363,-0.008552113262093647,0.0020943950845943625,0.025030000000000004,0.02901,-0.026410000000000003,0.0186886,0.0885038,9.792748,31.030662705,121.443349518,16.069,351431.65379843046,3434040.676201966,175.57379843044328,261.2662019659765,0.0,0.0,0.0,0.0,-0.0,50,5,188
1670234923510.0,2022-12-05 18:08:43:549876,202.16,-0.49,0.12,3.5283575858466363,-0.008552113262093647,0.0020943950845943625,-0.01281,-0.002,0.008150000000000001,0.0182868,0.08710240000000001,9.787857800000001,31.030662706,121.443349517,16.069,351431.6537045294,3434040.6763141495,175.57370452937903,261.26631414936855,0.0,0.0,0.0,0.0,-0.0,50,5,188
1670234923530.0,2022-12-05 18:08:43:569853,202.16,-0.49,0.12,3.5283575858466363,-0.008552113262093647,0.0020943950845943625,0.05339000000000001,-0.013260000000000001,0.0123,0.0178262,0.083594,9.78677,31.030662706,121.443349517,16.069,351431.6537045294,3434040.6763141495,175.57370452937903,261.26631414936855,0.0,0.0,0.0,0.0,-0.0,50,5,188
1670234923550.0,2022-12-05 18:08:43:589898,202.16,-0.49,0.12,3.5283575858466363,-0.008552113262093647,0.0020943950845943625,0.029470000000000003,-0.00102,-0.016970000000000002,0.0167286,0.0825258,9.7941396,31.030662706,121.44334951600001,16.069,351431.6536090806,3434040.6763154855,175.57360908057308,261.2663154853508,0.0,0.0,0.0,0.0,-0.0,50,5,188
1670234923570.0,2022-12-05 18:08:43:609873,202.16,-0.48,0.12,3.5283575858466363,-0.00837758033837745,0.0020943950845943625,0.029620000000000004,-0.004350000000000001,-0.015680000000000003,0.018541600000000002,0.0809872,9.789749200000001,31.030662707,121.44334951600001,16.069,351431.65361063334,3434040.676426332,175.57361063332064,261.2664263318293,0.0,0.0,0.0,0.0,-0.0,50,5,188
1670234923590.0,2022-12-05 18:08:43:629860,202.16,-0.48,0.12,3.5283575858466363,-0.00837758033837745,0.0020943950845943625,0.01635,-0.00734,-0.01828,0.020776,0.0773024,9.786760200000002,31.030662707,121.44334951500001,16.069,351431.6535151795,3434040.676427669,175.57351517950883,261.26642766874284,0.0,0.0,0.0,0.0,-0.0,50,5,188
1670234923610.0,2022-12-05 18:08:43:649863,202.16,-0.48,0.12,3.5283575858466363,-0.00837758033837745,0.0020943950845943625,-0.00059,-0.0031000000000000003,-0.008190000000000001,0.0217952,0.0766262,9.7864662,31.030662704,121.44334952000001,16.069,351431.6539877827,3434040.6760884477,175.5739877827,261.26608844753355,0.0,0.0,0.0,0.0,-0.0,50,5,188
1670234923630.0,2022-12-05 18:08:43:669859,202.16,-0.49,0.12,3.5283575858466363,-0.008552113262093647,0.0020943950845943625,-0.07490000000000001,0.02153,0.0029700000000000004,0.0241472,0.07884100000000001,9.7883674,31.030662704,121.44334951900001,16.069,351431.65389232896,3434040.676089785,175.57389232894639,261.26608978491277,0.0,0.0,0.0,0.0,-0.0,50,5,188
1670234923650.0,2022-12-05 18:08:43:689885,202.16,-0.49,0.12,3.5283575858466363,-0.008552113262093647,0.0020943950845943625,-0.09240000000000001,-0.01094,-0.00867,0.022491,0.0782726,9.7897394,31.030662705,121.44334951900001,16.069,351431.6538938817,3434040.676200629,175.57389388169395,261.26620062906295,0.0,0.0,0.0,0.0,-0.0,50,5,188
1670234923670.0,2022-12-05 18:08:43:709900,202.16,-0.49,0.12,3.5283575858466363,-0.008552113262093647,0.0020943950845943625,0.0015,0.012650000000000002,-0.009710000000000002,0.0251566,0.08166340000000001,9.7869366,31.030662705,121.44334951900001,16.069,351431.6538938817,3434040.676200629,175.57389388169395,261.26620062906295,0.0,0.0,0.0,0.0,-0.0,50,5,188
1670234923690.0,2022-12-05 18:08:43:729854,202.16,-0.49,0.12,3.5283575858466363,-0.008552113262093647,0.0020943950845943625,-0.020280000000000003,0.01788,-0.02611,0.0254604,0.08241799999999999,9.785153000000001,31.030662705,121.443349518,16.069,351431.65379843046,3434040.676201966,175.57379843044328,261.2662019659765,0.0,0.0,0.0,0.0,-0.0,50,5,188
1670234923710.0,2022-12-05 18:08:43:749778,202.16,-0.49,0.12,3.5283575858466363,-0.008552113262093647,0.0020943950845943625,0.041030000000000004,0.02179,0.006180000000000001,0.024843,0.08525020000000001,9.7913172,31.030662706,121.443349518,16.069,351431.6537999832,3434040.6763128126,175.57379998319084,261.266312812455,0.0,0.0,0.0,0.0,-0.0,50,5,188
1670234923730.0,2022-12-05 18:08:43:769863,202.16,-0.49,0.12,3.5283575858466363,-0.008552113262093647,0.0020943950845943625,-0.01597,-0.0049700000000000005,-0.00834,0.025872000000000003,0.0877884,9.7965602,31.030662706,121.443349517,16.069,351431.6537045294,3434040.6763141495,175.57370452937903,261.26631414936855,0.0,0.0,0.0,0.0,-0.0,50,5,188
1670234923750.0,2022-12-05 18:08:43:789831,202.16,-0.49,0.12,3.5283575858466363,-0.008552113262093647,0.0020943950845943625,-0.00152,-0.022920000000000003,0.01701,0.027694800000000002,0.0897582,9.7920326,31.030662706,121.443349517,16.069,351431.6537045294,3434040.6763141495,175.57370452937903,261.26631414936855,0.0,0.0,0.0,0.0,-0.0,50,5,188
1670234923770.0,2022-12-05 18:08:43:809437,202.16,-0.49,0.12,3.5283575858466363,-0.008552113262093647,0.0020943950845943625,-0.041850000000000005,0.00067,-0.008230000000000001,0.0265286,0.08916040000000001,9.791131,31.030662706,121.443349517,16.069,351431.6537045294,3434040.6763141495,175.57370452937903,261.26631414936855,0.0,0.0,0.0,0.0,-0.0,50,5,188
1670234923790.0,2022-12-05 18:08:43:829839,202.16,-0.49,0.12,3.5283575858466363,-0.008552113262093647,0.0020943950845943625,-0.010950000000000001,0.007110000000000001,-0.03529,0.0267736,0.08916040000000001,9.7921698,31.030662706,121.44334951600001,16.069,351431.6536090806,3434040.6763154855,175.57360908057308,261.2663154853508,0.0,0.0,0.0,0.0,-0.0,50,5,188
1670234923810.0,2022-12-05 18:08:43:849440,202.16,-0.49,0.12,3.5283575858466363,-0.008552113262093647,0.0020943950845943625,0.011330000000000002,0.01471,0.01847,0.025166400000000002,0.0852208,9.7968738,31.030662704,121.44334952000001,16.069,351431.6539877827,3434040.6760884477,175.5739877827,261.26608844753355,0.0,0.0,0.0,0.0,-0.0,50,5,188
1670234923830.0,2022-12-05 18:08:43:869805,202.16,-0.49,0.12,3.5283575858466363,-0.008552113262093647,0.0020943950845943625,-0.00786,-0.0439,-0.008190000000000001,0.024549,0.0837312,9.790837,31.030662704,121.44334951900001,16.069,351431.65389232896,3434040.676089785,175.57389232894639,261.26608978491277,0.0,0.0,0.0,0.0,-0.0,50,5,188
1670234923850.0,2022-12-05 18:08:43:889359,202.16,-0.49,0.12,3.5283575858466363,-0.008552113262093647,0.0020943950845943625,-0.027160000000000004,-0.019270000000000002,0.00898,0.0242158,0.0797818,9.787103199999999,31.030662704,121.44334951900001,16.069,351431.65389232896,3434040.676089785,175.57389232894639,261.26608978491277,0.0,0.0,0.0,0.0,-0.0,50,5,188
1670234923870.0,2022-12-05 18:08:43:909340,202.16,-0.49,0.12,3.5283575858466363,-0.008552113262093647,0.0020943950845943625,0.02017,0.007450000000000001,-0.007730000000000001,0.020825,0.0814184,9.781527,31.030662704,121.44334951900001,16.069,351431.65389232896,3434040.676089785,175.57389232894639,261.26608978491277,0.0,0.0,0.0,0.0,-0.0,50,5,188
