gps_time,utc_time,heading,pitch,roll,heading_radians,pitch_radians,roll_radians,gyroX,gyroY,gyroZ,accX,accY,accZ,latitude,longitude,altitude,utm_x_position,utm_y_position,local_x,local_y,east_speed,north_speed,vertical_speed,vehicle_lat_speed,vehicle_lon_speed,position_type,GNSS_info1,GNSS_info2
1670235419630.0,2022-12-05 18:16:59:648340,202.67,-0.45,0.03,3.5372587649561624,-0.00785398156722886,0.0005235987711485906,-0.01026,0.019940000000000003,0.02493,0.0006174,0.07717500000000001,9.793238,31.030677402000002,121.44338856600001,16.138,351435.40383423236,3434042.253076911,179.3238342323457,262.8430769108236,0.0,0.0,0.0,0.0,-0.0,50,5,188
1670235419650.0,2022-12-05 18:16:59:667548,202.67,-0.46,0.03,3.5372587649561624,-0.008028514490945058,0.0005235987711485906,-0.021410000000000002,0.006030000000000001,0.009380000000000001,-9.800000000000001e-06,0.080262,9.7940514,31.030677403000002,121.44338856600001,16.138,351435.4038357851,3434042.253187756,179.32383578509325,262.8431877559051,0.0,0.0,0.0,0.0,-0.0,50,5,188
1670235419670.0,2022-12-05 18:16:59:687576,202.67,-0.45,0.03,3.5372587649561624,-0.00785398156722886,0.0005235987711485906,0.010320000000000001,-0.02204,0.022570000000000003,-0.0009408000000000001,0.085652,9.7930518,31.030677404000002,121.443388565,16.138,351435.4037418866,3434042.2532999385,179.32374188659014,262.8432999383658,0.0,0.0,0.0,0.0,-0.0,50,5,188
1670235419690.0,2022-12-05 18:16:59:707451,202.67,-0.45,0.03,3.5372587649561624,-0.00785398156722886,0.0005235987711485906,-0.0035700000000000003,0.02321,0.0024500000000000004,0.0014406,0.0867398,9.7855744,31.030677404000002,121.443388565,16.138,351435.4037418866,3434042.2532999385,179.32374188659014,262.8432999383658,0.0,0.0,0.0,0.0,-0.0,50,5,188
1670235419710.0,2022-12-05 18:16:59:727485,202.67,-0.46,0.03,3.5372587649561624,-0.008028514490945058,0.0005235987711485906,-0.03771,-0.01695,0.00502,0.0034104,0.0847504,9.7863976,31.030677405000002,121.443388565,16.138,351435.40374343935,3434042.253410784,179.3237434393377,262.843410783913,0.0,0.0,0.0,0.0,-0.0,50,5,188
1670235419730.0,2022-12-05 18:16:59:747482,202.67,-0.45,0.03,3.5372587649561624,-0.00785398156722886,0.0005235987711485906,0.03962,0.00873,-0.00067,0.0006468,0.08501500000000001,9.7940808,31.030677405000002,121.443388564,16.139,351435.40364798805,3434042.2534121214,179.32364798802882,262.8434121212922,0.0,0.0,0.0,0.0,-0.0,50,5,188
1670235419750.0,2022-12-05 18:16:59:767580,202.67,-0.45,0.03,3.5372587649561624,-0.00785398156722886,0.0005235987711485906,-0.00076,-0.013670000000000002,0.0018200000000000002,-0.000343,0.08300600000000001,9.7941102,31.030677406000002,121.443388564,16.139,351435.40364954085,3434042.2535229656,179.3236495408346,262.8435229654424,0.0,0.0,0.0,0.0,-0.0,50,5,188
1670235419770.0,2022-12-05 18:16:59:787587,202.67,-0.45,0.03,3.5372587649561624,-0.00785398156722886,0.0005235987711485906,-0.01072,0.021400000000000002,0.02245,0.0017346,0.0806246,9.7898276,31.030677406000002,121.44338856300001,16.139,351435.4035540895,3434042.253524302,179.3235540894675,262.8435243018903,0.0,0.0,0.0,0.0,-0.0,50,5,188
1670235419790.0,2022-12-05 18:16:59:807175,202.67,-0.45,0.03,3.5372587649561624,-0.00785398156722886,0.0005235987711485906,0.038720000000000004,0.00534,0.014410000000000001,0.0026264,0.0763616,9.7869366,31.030677407000002,121.44338856300001,16.139,351435.40355564223,3434042.2536351467,179.32355564221507,262.84363514650613,0.0,0.0,0.0,0.0,-0.0,50,5,188
1670235419810.0,2022-12-05 18:16:59:827602,202.67,-0.45,0.03,3.5372587649561624,-0.00785398156722886,0.0005235987711485906,0.019010000000000003,-0.037160000000000006,-0.013710000000000002,0.0045178,0.07138320000000001,9.7884654,31.030677405000002,121.443388561,16.139,351435.40336163156,3434042.253416132,179.32336163154105,262.84341613203287,0.0,0.0,0.0,0.0,-0.0,50,5,188
1670235419830.0,2022-12-05 18:16:59:847547,202.67,-0.45,0.03,3.5372587649561624,-0.00785398156722886,0.0005235987711485906,0.04755,0.005600000000000001,0.007110000000000001,0.0032830000000000003,0.0686882,9.791278,31.030677405000002,121.44338856,16.139,351435.40326617786,3434042.253417469,179.32326617784565,262.8434174689464,0.0,0.0,0.0,0.0,-0.0,50,5,188
1670235419850.0,2022-12-05 18:16:59:867646,202.67,-0.45,0.03,3.5372587649561624,-0.00785398156722886,0.0005235987711485906,0.01818,-0.012100000000000001,-0.0049700000000000005,0.0029595999999999997,0.0688352,9.7911702,31.030677406000002,121.44338856,16.139,351435.4032677306,3434042.253528314,179.32326773059322,262.84352831402794,0.0,0.0,0.0,0.0,-0.0,50,5,188
1670235419870.0,2022-12-05 18:16:59:887610,202.67,-0.45,0.03,3.5372587649561624,-0.00785398156722886,0.0005235987711485906,0.00067,-0.017900000000000003,-0.008950000000000001,0.005635,0.067179,9.7831244,31.030677407000002,121.44338855900001,16.139,351435.40317383205,3434042.2536404957,179.3231738320319,262.84364049555734,0.0,0.0,0.0,0.0,-0.0,50,5,188
1670235419890.0,2022-12-05 18:16:59:907567,202.67,-0.45,0.03,3.5372587649561624,-0.00785398156722886,0.0005235987711485906,0.023010000000000003,-0.0313,0.029280000000000004,0.0073304,0.068404,9.781870000000001,31.030677407000002,121.44338855900001,16.139,351435.40317383205,3434042.2536404957,179.3231738320319,262.84364049555734,0.0,0.0,0.0,0.0,-0.0,50,5,188
1670235419910.0,2022-12-05 18:16:59:927619,202.67,-0.45,0.03,3.5372587649561624,-0.00785398156722886,0.0005235987711485906,-0.03264,-0.015320000000000002,0.026010000000000002,0.0039298,0.0700994,9.7886614,31.030677408000003,121.44338855900001,16.139,351435.4031753848,3434042.2537513413,179.32317538477946,262.8437513411045,0.0,0.0,0.0,0.0,-0.0,50,5,188
1670235419930.0,2022-12-05 18:16:59:947561,202.67,-0.45,0.03,3.5372587649561624,-0.00785398156722886,0.0005235987711485906,-0.02195,-0.03037,-0.00447,0.0026460000000000003,0.0732452,9.7852608,31.030677408000003,121.44338855800001,16.139,351435.4030799335,3434042.253752678,179.32307993347058,262.84375267801806,0.0,0.0,0.0,0.0,-0.0,50,5,188
1670235419950.0,2022-12-05 18:16:59:967598,202.67,-0.45,0.03,3.5372587649561624,-0.00785398156722886,0.0005235987711485906,-0.020620000000000003,-0.03429,-0.025210000000000003,0.0038710000000000003,0.0755188,9.7816936,31.030677409000003,121.44338855800001,16.139,351435.40308148623,3434042.2538635232,179.32308148621814,262.84386352309957,0.0,0.0,0.0,0.0,-0.0,50,5,188
1670235419970.0,2022-12-05 18:16:59:987625,202.67,-0.45,0.03,3.5372587649561624,-0.00785398156722886,0.0005235987711485906,-0.050690000000000006,-0.013170000000000001,-0.006960000000000001,0.0038122,0.07712600000000001,9.785055,31.030677409000003,121.443388557,16.139,351435.4029860325,3434042.253864859,179.32298603246454,262.8438648590818,0.0,0.0,0.0,0.0,-0.0,50,5,188
1670235419990.0,2022-12-05 18:17:00:007572,202.67,-0.45,0.03,3.5372587649561624,-0.00785398156722886,0.0005235987711485906,-0.006980000000000001,0.026320000000000003,-0.010790000000000001,0.0009506,0.0788018,9.7865642,31.030677410000003,121.443388557,16.139,351435.4029875853,3434042.253975705,179.3229875852703,262.843975704629,0.0,0.0,0.0,0.0,-0.0,50,5,188
1670235420010.0,2022-12-05 18:17:00:027555,202.67,-0.45,0.03,3.5372587649561624,-0.00785398156722886,0.0005235987711485906,-0.01136,-0.00909,-0.023000000000000003,-0.0015777999999999999,0.0818104,9.79412,31.030677411000003,121.443388557,16.139,351435.40298913803,3434042.2540865503,179.32298913801787,262.84408655017614,0.0,0.0,0.0,0.0,-0.0,50,5,188
1670235420030.0,2022-12-05 18:17:00:047561,202.67,-0.45,0.03,3.5372587649561624,-0.00785398156722886,0.0005235987711485906,-0.02161,-0.03399,0.05043,-0.0022246,0.08427019999999999,9.7933556,31.030677408000003,121.443388556,16.139,351435.40288902837,3434042.253755352,179.3228890283499,262.8437553518452,0.0,0.0,0.0,0.0,-0.0,50,5,188
1670235420050.0,2022-12-05 18:17:00:067557,202.67,-0.45,0.03,3.5372587649561624,-0.00785398156722886,0.0005235987711485906,0.01793,-0.01997,0.01965,0.0010486,0.084476,9.7936986,31.030677409000003,121.44338855500001,16.139,351435.40279512986,3434042.253867534,179.32279512984678,262.84386753384024,0.0,0.0,0.0,0.0,-0.0,50,5,188
1670235420070.0,2022-12-05 18:17:00:087239,202.67,-0.45,0.03,3.5372587649561624,-0.00785398156722886,0.0005235987711485906,0.0018200000000000002,-0.00051,-0.008960000000000001,-0.0005782000000000001,0.0828296,9.790915400000001,31.030677410000003,121.44338855500001,16.139,351435.40279668255,3434042.253978379,179.32279668253614,262.84397837892175,0.0,0.0,0.0,0.0,-0.0,50,5,188
1670235420090.0,2022-12-05 18:17:00:107557,202.67,-0.45,0.03,3.5372587649561624,-0.00785398156722886,0.0005235987711485906,-0.00491,-0.00019,0.0045000000000000005,-0.0001372,0.080948,9.7966092,31.030677410000003,121.44338855400001,16.139,351435.4027012312,3434042.2539797164,179.32270123116905,262.84397971630096,0.0,0.0,0.0,0.0,-0.0,50,5,188
1670235420110.0,2022-12-05 18:17:00:127249,202.67,-0.45,0.03,3.5372587649561624,-0.00785398156722886,0.0005235987711485906,-0.0061200000000000004,0.027120000000000002,0.013800000000000002,-0.002107,0.08187900000000001,9.7936986,31.030677411000003,121.44338855400001,16.139,351435.40270278405,3434042.254090562,179.32270278403303,262.84409056184813,0.0,0.0,0.0,0.0,-0.0,50,5,188
1670235420130.0,2022-12-05 18:17:00:147691,202.67,-0.45,0.03,3.5372587649561624,-0.00785398156722886,0.0005235987711485906,-0.01752,0.006280000000000001,-0.0022,0.0001274,0.0808108,9.786299600000001,31.030677411000003,121.443388553,16.139,351435.4026073303,3434042.254091899,179.32260733027942,262.8440918987617,0.0,0.0,0.0,0.0,-0.0,50,5,188
1670235420150.0,2022-12-05 18:17:00:167224,202.67,-0.45,0.03,3.5372587649561624,-0.00785398156722886,0.0005235987711485906,-0.0246,0.021570000000000002,-0.013590000000000001,0.0006272000000000001,0.07697899999999999,9.7826834,31.030677412000003,121.443388552,16.139,351435.40251343173,3434042.254204081,179.3225134317181,262.84420408075675,0.0,0.0,0.0,0.0,-0.0,50,5,188
1670235420170.0,2022-12-05 18:17:00:187290,202.67,-0.45,0.03,3.5372587649561624,-0.00785398156722886,0.0005235987711485906,0.006840000000000001,-0.029810000000000003,-0.01254,-0.000294,0.073892,9.7810958,31.030677412000003,121.443388552,16.139,351435.40251343173,3434042.254204081,179.3225134317181,262.84420408075675,0.0,0.0,0.0,0.0,-0.0,50,5,188
1670235420190.0,2022-12-05 18:17:00:207203,202.67,-0.45,0.03,3.5372587649561624,-0.00785398156722886,0.0005235987711485906,0.0308,0.021720000000000003,0.00957,-0.0006664,0.0739312,9.787309,31.030677413000003,121.44338855100001,16.139,351435.4024195331,3434042.2543162624,179.32241953309858,262.84431626228616,0.0,0.0,0.0,0.0,-0.0,50,5,188
1670235420210.0,2022-12-05 18:17:00:227500,202.67,-0.45,0.03,3.5372587649561624,-0.00785398156722886,0.0005235987711485906,-0.042910000000000004,-0.01606,-0.00617,0.0006566,0.0694526,9.788387,31.030677410000003,121.443388552,16.139,351435.4025103262,3434042.2539823903,179.32251032616477,262.8439823901281,0.0,0.0,0.0,0.0,-0.0,50,5,188
1670235420230.0,2022-12-05 18:17:00:247547,202.67,-0.45,0.03,3.5372587649561624,-0.00785398156722886,0.0005235987711485906,0.00252,-0.006010000000000001,-0.04596,0.0034888000000000002,0.0665616,9.7809096,31.030677410000003,121.44338855100001,16.139,351435.40241487476,3434042.253983727,179.32241487473948,262.84398372704163,0.0,0.0,0.0,0.0,-0.0,50,5,188
1670235420250.0,2022-12-05 18:17:00:267135,202.67,-0.45,0.03,3.5372587649561624,-0.00785398156722886,0.0005235987711485906,0.04048,0.034780000000000005,-0.00268,0.0048216,0.0648662,9.78873,31.030677411000003,121.44338855000001,16.139,351435.40232097387,3434042.2540959097,179.32232097384986,262.84409590950236,0.0,0.0,0.0,0.0,-0.0,50,5,188
1670235420270.0,2022-12-05 18:17:00:287622,202.67,-0.45,0.03,3.5372587649561624,-0.00785398156722886,0.0005235987711485906,-0.02295,0.018510000000000002,0.00101,0.0032830000000000003,0.0642684,9.791964,31.030677412000003,121.44338855000001,16.139,351435.40232252656,3434042.2542067547,179.3223225265392,262.84420675458387,0.0,0.0,0.0,0.0,-0.0,50,5,188
1670235420290.0,2022-12-05 18:17:00:307542,202.67,-0.45,0.03,3.5372587649561624,-0.00785398156722886,0.0005235987711485906,-0.008280000000000001,0.03398,-0.00134,0.004165,0.0698544,9.7908468,31.030677412000003,121.443388549,16.139,351435.4022270753,3434042.2542080916,179.32222707528854,262.8442080914974,0.0,0.0,0.0,0.0,-0.0,50,5,188
1670235420310.0,2022-12-05 18:17:00:327168,202.67,-0.45,0.03,3.5372587649561624,-0.00785398156722886,0.0005235987711485906,-0.010100000000000001,0.02136,0.013330000000000002,0.0037044,0.0755482,9.7908566,31.030677413000003,121.443388549,16.139,351435.40222862805,3434042.2543189363,179.3222286280361,262.84431893611327,0.0,0.0,0.0,0.0,-0.0,50,5,188
1670235420330.0,2022-12-05 18:17:00:347249,202.67,-0.45,0.03,3.5372587649561624,-0.00785398156722886,0.0005235987711485906,-9e-05,-0.01695,-0.005410000000000001,0.0034300000000000003,0.08100679999999999,9.7800472,31.030677413000003,121.443388548,16.139,351435.4021331743,3434042.254320273,179.3221331742825,262.8443202730268,0.0,0.0,0.0,0.0,-0.0,50,5,188
1670235420350.0,2022-12-05 18:17:00:367159,202.67,-0.45,0.03,3.5372587649561624,-0.00785398156722886,0.0005235987711485906,-0.005900000000000001,-0.0019100000000000002,-0.00030000000000000003,0.0039886,0.08531880000000001,9.782997,31.030677414000003,121.443388548,16.139,351435.4021347271,3434042.2544311187,179.32213472708827,262.844431118574,0.0,0.0,0.0,0.0,-0.0,50,5,188
1670235420370.0,2022-12-05 18:17:00:387246,202.67,-0.45,0.03,3.5372587649561624,-0.00785398156722886,0.0005235987711485906,-0.050620000000000005,-0.041990000000000006,0.005200000000000001,0.0014602,0.0896994,9.7908076,31.030677415000003,121.44338854700001,16.139,351435.4020408285,3434042.254543302,179.32204082846874,262.84454330196604,0.0,0.0,0.0,0.0,-0.0,50,5,188
1670235420390.0,2022-12-05 18:17:00:407567,202.67,-0.45,0.03,3.5372587649561624,-0.00785398156722886,0.0005235987711485906,-0.04893,0.031310000000000004,0.009760000000000001,0.0028518,0.0898758,9.7890534,31.030677415000003,121.44338854700001,16.139,351435.4020408285,3434042.254543302,179.32204082846874,262.84454330196604,0.0,0.0,0.0,0.0,-0.0,50,5,188
1670235420410.0,2022-12-05 18:17:00:427251,202.67,-0.45,0.03,3.5372587649561624,-0.00785398156722886,0.0005235987711485906,0.00034,-0.0021300000000000004,0.03311,0.0047628,0.08428000000000001,9.7911212,31.030677411000003,121.44338854600001,16.139,351435.40193916607,3434042.2541012587,179.3219391660532,262.84410125855356,0.0,0.0,0.0,0.0,-0.0,50,5,188
1670235420430.0,2022-12-05 18:17:00:447465,202.67,-0.45,0.03,3.5372587649561624,-0.00785398156722886,0.0005235987711485906,-0.007280000000000001,-0.0035800000000000003,0.013000000000000001,0.0050666,0.08122240000000001,9.7948648,31.030677411000003,121.44338854600001,16.139,351435.40193916607,3434042.2541012587,179.3219391660532,262.84410125855356,0.0,0.0,0.0,0.0,-0.0,50,5,188
1670235420450.0,2022-12-05 18:17:00:467566,202.67,-0.45,0.03,3.5372587649561624,-0.00785398156722886,0.0005235987711485906,0.019780000000000002,-0.03522,-0.007180000000000001,0.0043218,0.0779492,9.801176,31.030677412000003,121.443388545,16.139,351435.4018452675,3434042.2542134398,179.32184526749188,262.8442134396173,0.0,0.0,0.0,0.0,-0.0,50,5,188
1670235420470.0,2022-12-05 18:17:00:487457,202.67,-0.45,0.03,3.5372587649561624,-0.00785398156722886,0.0005235987711485906,0.011130000000000001,-0.00481,-0.012440000000000001,0.0002842,0.0762538,9.801372,31.030677412000003,121.443388545,16.139,351435.4018452675,3434042.2542134398,179.32184526749188,262.8442134396173,0.0,0.0,0.0,0.0,-0.0,50,5,188
1670235420490.0,2022-12-05 18:17:00:507562,202.67,-0.45,0.03,3.5372587649561624,-0.00785398156722886,0.0005235987711485906,-0.00854,0.019880000000000002,0.01327,0.001127,0.0745682,9.7957958,31.030677413000003,121.443388544,16.139,351435.4017513665,3434042.2543256218,179.32175136648584,262.84432562161237,0.0,0.0,0.0,0.0,-0.0,50,5,188
1670235420510.0,2022-12-05 18:17:00:527509,202.67,-0.45,0.03,3.5372587649561624,-0.00785398156722886,0.0005235987711485906,0.00788,-0.060230000000000006,-0.02211,0.0014896,0.0713244,9.7842318,31.030677413000003,121.44338854300001,16.139,351435.4016559152,3434042.254326959,179.32165591517696,262.8443269589916,0.0,0.0,0.0,0.0,-0.0,50,5,188
1670235420530.0,2022-12-05 18:17:00:547444,202.67,-0.45,0.03,3.5372587649561624,-0.00785398156722886,0.0005235987711485906,0.032060000000000005,-0.03545,0.0211,-0.0004802,0.0706286,9.782487399999999,31.030677414000003,121.44338854300001,16.139,351435.40165746794,3434042.2544378047,179.32165746792452,262.84443780453876,0.0,0.0,0.0,0.0,-0.0,50,5,188
1670235420550.0,2022-12-05 18:17:00:567554,202.67,-0.45,0.03,3.5372587649561624,-0.00785398156722886,0.0005235987711485906,0.01463,0.021550000000000003,-0.0017100000000000001,-0.002009,0.0727552,9.7811546,31.030677414000003,121.44338854200001,16.139,351435.40156201663,3434042.2544391416,179.32156201661564,262.8444391414523,0.0,0.0,0.0,0.0,-0.0,50,5,188
1670235420570.0,2022-12-05 18:17:00:587428,202.67,-0.45,0.03,3.5372587649561624,-0.00785398156722886,0.0005235987711485906,0.020210000000000002,-0.0014800000000000002,0.027790000000000002,-0.003969,0.0728238,9.7777344,31.030677415000003,121.44338854200001,16.139,351435.40156356944,3434042.254549987,179.32156356942141,262.8445499869995,0.0,0.0,0.0,0.0,-0.0,50,5,188
1670235420590.0,2022-12-05 18:17:00:607437,202.67,-0.45,0.03,3.5372587649561624,-0.00785398156722886,0.0005235987711485906,0.00429,-0.0029300000000000003,-6.000000000000001e-05,-0.0016170000000000002,0.0728924,9.7742848,31.030677415000003,121.443388541,16.139,351435.4014681156,3434042.254551325,179.3214681156096,262.84455132484436,0.0,0.0,0.0,0.0,-0.0,50,5,188
1670235420610.0,2022-12-05 18:17:00:627537,202.67,-0.45,0.03,3.5372587649561624,-0.00785398156722886,0.0005235987711485906,-0.044410000000000005,-0.019260000000000003,-0.01361,-0.0129752,0.066248,9.7778128,31.030677411000003,121.443388541,16.139,351435.4014619045,3434042.2541079447,179.32146190450294,262.8441079445183,0.0,0.0,0.0,0.0,-0.0,50,5,188
1670235420630.0,2022-12-05 18:17:00:647071,202.67,-0.45,0.03,3.5372587649561624,-0.00785398156722886,0.0005235987711485906,-0.00088,-0.0032600000000000003,-0.017900000000000003,0.0011466,0.060809,9.7878382,31.030677411000003,121.44338854,16.139,351435.4013664532,3434042.254109281,179.32136645319406,262.8441092809662,0.0,0.0,0.0,0.0,-0.0,50,5,188
1670235420650.0,2022-12-05 18:17:00:667540,202.67,-0.45,0.03,3.5372587649561624,-0.00785398156722886,0.0005235987711485906,0.00404,0.01025,0.016980000000000002,-0.01029,0.0775474,9.8004018,31.030677412000003,121.44338854,16.139,351435.40136800596,3434042.2542201257,179.32136800594162,262.84422012558207,0.0,0.0,0.0,0.0,-0.0,50,5,188
1670235420670.0,2022-12-05 18:17:00:687240,202.67,-0.45,0.03,3.5372587649561624,-0.00785398156722886,0.0005235987711485906,-0.006880000000000001,-0.00107,0.04465,0.000392,0.071932,9.7967954,31.030677413000003,121.44338853900001,16.139,351435.4012741074,3434042.2543323077,179.3212741073803,262.84433230757713,0.0,0.0,0.0,0.0,-0.0,50,5,188
1670235420690.0,2022-12-05 18:17:00:707515,202.67,-0.45,0.03,3.5372587649561624,-0.00785398156722886,0.0005235987711485906,-0.05122,-0.00585,0.005180000000000001,-0.0006468,0.08382919999999999,9.8013132,31.030677413000003,121.44338853900001,16.139,351435.4012741074,3434042.2543323077,179.3212741073803,262.84433230757713,0.0,0.0,0.0,0.0,-0.0,50,5,188
1670235420710.0,2022-12-05 18:17:00:727537,202.67,-0.45,0.03,3.5372587649561624,-0.00785398156722886,0.0005235987711485906,0.020380000000000002,-0.045630000000000004,0.031330000000000004,0.0072324,0.084721,9.782928400000001,31.030677414000003,121.44338853800001,16.139,351435.40118020645,3434042.25444449,179.32118020643247,262.84444449003786,0.0,0.0,0.0,0.0,-0.0,50,5,188
1670235420730.0,2022-12-05 18:17:00:747513,202.67,-0.45,0.03,3.5372587649561624,-0.00785398156722886,0.0005235987711485906,0.00837,-0.006240000000000001,0.007350000000000001,0.011661999999999999,0.0893172,9.8001176,31.030677414000003,121.443388537,16.139,351435.4010847551,3434042.254445827,179.32108475506539,262.8444458269514,0.0,0.0,0.0,0.0,-0.0,50,5,188
1670235420750.0,2022-12-05 18:17:00:767484,202.67,-0.45,0.03,3.5372587649561624,-0.00785398156722886,0.0005235987711485906,0.009630000000000001,0.019850000000000003,-0.0069500000000000004,0.009672600000000002,0.08624,9.784261200000001,31.030677415000003,121.443388537,16.139,351435.40108630783,3434042.2545566736,179.32108630781295,262.8445566734299,0.0,0.0,0.0,0.0,-0.0,50,5,188
1670235420770.0,2022-12-05 18:17:00:787421,202.67,-0.45,0.03,3.5372587649561624,-0.00785398156722886,0.0005235987711485906,-0.02585,0.027160000000000004,0.02466,0.0180712,0.0880824,9.7855646,31.030677415000003,121.443388536,16.139,351435.40099085413,3434042.2545580105,179.32099085411755,262.84455801034346,0.0,0.0,0.0,0.0,-0.0,50,5,188
1670235420790.0,2022-12-05 18:17:00:807549,202.67,-0.45,0.03,3.5372587649561624,-0.00785398156722886,0.0005235987711485906,0.02262,0.03493,-0.047400000000000005,0.0127106,0.0853972,9.7842808,31.030677416000003,121.44338853500001,16.139,351435.40089695796,3434042.254670193,179.32089695794275,262.8446701928042,0.0,0.0,0.0,0.0,-0.0,50,5,188
1670235420810.0,2022-12-05 18:17:00:827541,202.67,-0.45,0.03,3.5372587649561624,-0.00785398156722886,0.0005235987711485906,0.013200000000000002,0.026760000000000003,-0.004560000000000001,0.0049588,0.0838194,9.7855548,31.030677410000003,121.44338853500001,16.139,351435.40088764136,3434042.2540051225,179.32088764134096,262.84400512231514,0.0,0.0,0.0,0.0,-0.0,50,5,188
1670235420830.0,2022-12-05 18:17:00:847496,202.67,-0.45,0.03,3.5372587649561624,-0.00785398156722886,0.0005235987711485906,-0.01651,-0.020630000000000003,-0.01665,-0.0025675999999999997,0.0814674,9.7965406,31.030677411000003,121.44338853500001,16.139,351435.4008891941,3434042.254115968,179.32088919408852,262.8441159678623,0.0,0.0,0.0,0.0,-0.0,50,5,188
1670235420850.0,2022-12-05 18:17:00:867561,202.67,-0.45,0.03,3.5372587649561624,-0.00785398156722886,0.0005235987711485906,0.00027,0.005070000000000001,0.00638,-0.0056644,0.075068,9.7898864,31.030677411000003,121.44338853400001,16.139,351435.4007937404,3434042.254117304,179.32079374039313,262.84411730384454,0.0,0.0,0.0,0.0,-0.0,50,5,188
1670235420870.0,2022-12-05 18:17:00:887510,202.67,-0.45,0.03,3.5372587649561624,-0.00785398156722886,0.0005235987711485906,-0.02749,0.023160000000000004,0.037770000000000005,-0.0046648,0.0694918,9.79118,31.030677412000003,121.443388533,16.139,351435.4006998418,3434042.2542294865,179.3206998417736,262.84422948630527,0.0,0.0,0.0,0.0,-0.0,50,5,188
1670235420890.0,2022-12-05 18:17:00:907204,202.67,-0.45,0.03,3.5372587649561624,-0.00785398156722886,0.0005235987711485906,-0.0037600000000000003,-0.025410000000000002,0.00867,-0.0018914000000000001,0.0684432,9.795394,31.030677412000003,121.443388533,16.139,351435.4006998418,3434042.2542294865,179.3206998417736,262.84422948630527,0.0,0.0,0.0,0.0,-0.0,50,5,188
1670235420910.0,2022-12-05 18:17:00:927570,202.67,-0.45,0.03,3.5372587649561624,-0.00785398156722886,0.0005235987711485906,0.013900000000000001,-0.02239,-0.006960000000000001,0.0039494000000000005,0.0698348,9.795237199999999,31.030677413000003,121.44338853200001,16.139,351435.40060594317,3434042.2543416675,179.32060594315408,262.844341667369,0.0,0.0,0.0,0.0,-0.0,50,5,188
1670235420930.0,2022-12-05 18:17:00:947203,202.67,-0.45,0.03,3.5372587649561624,-0.00785398156722886,0.0005235987711485906,-0.015220000000000001,-0.007620000000000001,-0.030900000000000004,0.0047432,0.0662088,9.7930518,31.030677413000003,121.44338853100001,16.139,351435.4005104895,3434042.2543430054,179.32051048945868,262.8443430052139,0.0,0.0,0.0,0.0,-0.0,50,5,188
1670235420950.0,2022-12-05 18:17:00:967257,202.67,-0.45,0.03,3.5372587649561624,-0.00785398156722886,0.0005235987711485906,-0.01566,-0.006300000000000001,0.00723,0.0119168,0.06205360000000001,9.7851432,31.030677413000003,121.44338853100001,16.139,351435.4005104895,3434042.2543430054,179.32051048945868,262.8443430052139,0.0,0.0,0.0,0.0,-0.0,50,5,188
1670235420970.0,2022-12-05 18:17:00:987532,202.67,-0.45,0.03,3.5372587649561624,-0.00785398156722886,0.0005235987711485906,-0.036820000000000006,-0.0268,-0.01081,0.0089474,0.060956,9.7786752,31.030677414000003,121.44338853000001,16.139,351435.40041659086,3434042.254455188,179.32041659083916,262.8444551876746,0.0,0.0,0.0,0.0,-0.0,50,5,188
1670235420990.0,2022-12-05 18:17:01:007519,202.67,-0.45,0.03,3.5372587649561624,-0.00785398156722886,0.0005235987711485906,0.02926,0.00693,-0.004410000000000001,0.0039592,0.063602,9.775068800000001,31.030677414000003,121.443388529,16.139,351435.40032113716,3434042.254456525,179.32032113714376,262.84445652505383,0.0,0.0,0.0,0.0,-0.0,50,5,188
1670235421010.0,2022-12-05 18:17:01:027433,202.67,-0.45,0.03,3.5372587649561624,-0.00785398156722886,0.0005235987711485906,-0.00042,-0.019530000000000002,0.060360000000000004,0.0005096,0.0700504,9.7775972,31.030677415000003,121.443388529,16.139,351435.4003226899,3434042.2545673703,179.32032268989133,262.84456737013534,0.0,0.0,0.0,0.0,-0.0,50,5,188
1670235421030.0,2022-12-05 18:17:01:047506,202.67,-0.45,0.03,3.5372587649561624,-0.00785398156722886,0.0005235987711485906,-0.04691000000000001,-0.00014000000000000001,0.0064800000000000005,-0.0107898,0.078498,9.777146400000001,31.030677410000003,121.44338853000001,16.139,351435.4004103798,3434042.2540118075,179.3204103797907,262.8440118073486,0.0,0.0,0.0,0.0,-0.0,50,5,188
1670235421050.0,2022-12-05 18:17:01:067216,202.67,-0.45,0.03,3.5372587649561624,-0.00785398156722886,0.0005235987711485906,-0.025050000000000003,-0.03003,-0.029960000000000004,-0.005684000000000001,0.0828688,9.7804196,31.030677410000003,121.443388529,16.139,351435.40031492605,3434042.2540131444,179.3203149260371,262.84401314426214,0.0,0.0,0.0,0.0,-0.0,50,5,188
1670235421070.0,2022-12-05 18:17:01:087494,202.67,-0.45,0.03,3.5372587649561624,-0.00785398156722886,0.0005235987711485906,0.00774,-0.04179,-0.012730000000000002,-0.0121226,0.08919959999999999,9.793434,31.030677411000003,121.443388529,16.139,351435.4003164788,3434042.2541239895,179.32031647878466,262.84412398934364,0.0,0.0,0.0,0.0,-0.0,50,5,188
1670235421090.0,2022-12-05 18:17:01:107423,202.67,-0.45,0.02,3.5372587649561624,-0.00785398156722886,0.0003490658474323938,-0.10802,-0.01089,0.02307,-0.0080164,0.0916006,9.802303,31.030677411000003,121.44338852800001,16.139,351435.40022102743,3434042.2541253264,179.32022102741757,262.8441253262572,0.0,0.0,0.0,0.0,-0.0,50,5,188
1670235421110.0,2022-12-05 18:17:01:127554,202.67,-0.46,0.02,3.5372587649561624,-0.008028514490945058,0.0003490658474323938,-0.013200000000000002,-0.05256,-0.015250000000000001,-0.005194,0.0925218,9.8075754,31.030677412000003,121.44338852700001,16.139,351435.40012712893,3434042.254237509,179.32012712891446,262.8442375087179,0.0,0.0,0.0,0.0,-0.0,50,5,188
1670235421130.0,2022-12-05 18:17:01:147523,202.67,-0.46,0.02,3.5372587649561624,-0.008028514490945058,0.0003490658474323938,-0.006240000000000001,-0.00796,0.00508,-0.0050568,0.088935,9.803038,31.030677412000003,121.44338852700001,16.139,351435.40012712893,3434042.254237509,179.32012712891446,262.8442375087179,0.0,0.0,0.0,0.0,-0.0,50,5,188
1670235421150.0,2022-12-05 18:17:01:167476,202.67,-0.45,0.02,3.5372587649561624,-0.00785398156722886,0.0003490658474323938,0.045630000000000004,-0.0012900000000000001,-0.02434,0.0023716,0.0833686,9.798971,31.030677413000003,121.443388526,16.139,351435.40003323037,3434042.2543496913,179.32003323035315,262.84434969117865,0.0,0.0,0.0,0.0,-0.0,50,5,188
1670235421170.0,2022-12-05 18:17:01:187472,202.67,-0.45,0.02,3.5372587649561624,-0.00785398156722886,0.0003490658474323938,0.014980000000000002,0.034260000000000006,-0.0193,0.0007056,0.0798896,9.795786,31.030677413000003,121.443388525,16.139,351435.3999377766,3434042.2543510282,179.31993777659955,262.8443510280922,0.0,0.0,0.0,0.0,-0.0,50,5,188
1670235421190.0,2022-12-05 18:17:01:207508,202.67,-0.45,0.03,3.5372587649561624,-0.00785398156722886,0.0005235987711485906,0.03237,0.06563000000000001,0.019700000000000002,0.0014406,0.0780864,9.7894062,31.030677414000003,121.44338852400001,16.139,351435.39984387805,3434042.2544632107,179.31984387803823,262.84446321055293,0.0,0.0,0.0,0.0,-0.0,50,5,188
1670235421210.0,2022-12-05 18:17:01:227561,202.67,-0.45,0.03,3.5372587649561624,-0.00785398156722886,0.0005235987711485906,0.01149,0.03382,0.053320000000000006,0.0042042,0.078449,9.781409400000001,31.030677409000003,121.443388525,16.139,351435.3999315655,3434042.253907649,179.31993156549288,262.8439076486975,0.0,0.0,0.0,0.0,-0.0,50,5,188
1670235421230.0,2022-12-05 18:17:01:247624,202.67,-0.45,0.03,3.5372587649561624,-0.00785398156722886,0.0005235987711485906,0.00911,0.03472,-0.00353,0.00588,0.0882392,9.771090000000001,31.030677409000003,121.44338852400001,16.139,351435.3998361142,3434042.2539089858,179.319836114184,262.84390898561105,0.0,0.0,0.0,0.0,-0.0,50,5,188
1670235421250.0,2022-12-05 18:17:01:267596,202.67,-0.45,0.03,3.5372587649561624,-0.00785398156722886,0.0005235987711485906,0.032240000000000005,0.0034500000000000004,-0.007370000000000001,0.008232,0.10123399999999999,9.7569192,31.030677410000003,121.44338852300001,16.139,351435.39974221564,3434042.254021167,179.31974221562268,262.8440211666748,0.0,0.0,0.0,0.0,-0.0,50,5,188
1670235421270.0,2022-12-05 18:17:01:287566,202.67,-0.45,0.03,3.5372587649561624,-0.00785398156722886,0.0005235987711485906,-0.05399,-0.019600000000000003,-0.007600000000000001,0.008281,0.1073786,9.7580658,31.030677410000003,121.44338852300001,16.139,351435.39974221564,3434042.254021167,179.31974221562268,262.8440211666748,0.0,0.0,0.0,0.0,-0.0,50,5,188
1670235421290.0,2022-12-05 18:17:01:307549,202.67,-0.45,0.03,3.5372587649561624,-0.00785398156722886,0.0005235987711485906,-0.02961,-0.03703,-0.025990000000000003,0.0081438,0.09604979999999999,9.779557200000001,31.030677410000003,121.443388522,16.139,351435.3996467618,3434042.254022504,179.31964676181087,262.844022504054,0.0,0.0,0.0,0.0,-0.0,50,5,188
1670235421310.0,2022-12-05 18:17:01:327562,202.67,-0.45,0.03,3.5372587649561624,-0.00785398156722886,0.0005235987711485906,-0.063,0.0008600000000000001,0.031200000000000002,0.013475,0.06814920000000001,9.792081600000001,31.030677410000003,121.443388521,16.139,351435.3995513105,3434042.254023841,179.319551310502,262.84402384096757,0.0,0.0,0.0,0.0,-0.0,50,5,188
1670235421330.0,2022-12-05 18:17:01:347186,202.67,-0.45,0.03,3.5372587649561624,-0.00785398156722886,0.0005235987711485906,-0.004920000000000001,0.0048000000000000004,0.008270000000000001,0.0094472,0.051499,9.8053312,31.030677411000003,121.44338852000001,16.139,351435.39945741196,3434042.2541360236,179.31945741194068,262.8441360234283,0.0,0.0,0.0,0.0,-0.0,50,5,188
1670235421350.0,2022-12-05 18:17:01:367536,202.67,-0.45,0.03,3.5372587649561624,-0.00785398156722886,0.0005235987711485906,-0.01105,-0.0024100000000000002,-0.00702,0.0083986,0.0532532,9.8038416,31.030677411000003,121.44338851900001,16.139,351435.39936195815,3434042.2541373614,179.31936195812887,262.84413736127317,0.0,0.0,0.0,0.0,-0.0,50,5,188
1670235421370.0,2022-12-05 18:17:01:387550,202.67,-0.46,0.03,3.5372587649561624,-0.008028514490945058,0.0005235987711485906,-0.049530000000000005,-0.00651,-0.03501,-0.0076342,0.0708344,9.7937182,31.030677411000003,121.443388518,16.139,351435.3992665069,3434042.2541386974,179.3192665068782,262.8441386972554,0.0,0.0,0.0,0.0,-0.0,50,5,188
1670235421390.0,2022-12-05 18:17:01:407470,202.67,-0.46,0.03,3.5372587649561624,-0.008028514490945058,0.0005235987711485906,-0.037320000000000006,0.016030000000000003,0.012230000000000001,-0.0191002,0.0903854,9.7691202,31.030677412000003,121.443388517,16.139,351435.39917260583,3434042.25425088,179.31917260581395,262.8442508797161,0.0,0.0,0.0,0.0,-0.0,50,5,188
1670235421410.0,2022-12-05 18:17:01:427561,202.67,-0.46,0.03,3.5372587649561624,-0.008028514490945058,0.0005235987711485906,-0.039810000000000005,-0.01641,0.021740000000000002,-0.02548,0.12396019999999999,9.743757800000001,31.030677408000003,121.443388518,16.139,351435.39926184854,3434042.2538061636,179.3192618485191,262.84380616340786,0.0,0.0,0.0,0.0,-0.0,50,5,188
1670235421430.0,2022-12-05 18:17:01:447521,202.67,-0.46,0.03,3.5372587649561624,-0.008028514490945058,0.0005235987711485906,-0.07339000000000001,0.009770000000000001,0.05074000000000001,-0.0346822,0.15268400000000001,9.7279798,31.030677408000003,121.443388517,16.139,351435.3991663948,3434042.2538075005,179.3191663947655,262.8438075003214,0.0,0.0,0.0,0.0,-0.0,50,5,188
1670235421450.0,2022-12-05 18:17:01:467431,202.67,-0.46,0.03,3.5372587649561624,-0.008028514490945058,0.0005235987711485906,-0.11495000000000001,0.00285,0.0753,-0.0239806,0.1682758,9.7307336,31.030677408000003,121.44338851600001,16.139,351435.39907094586,3434042.2538088383,179.31907094584312,262.8438088381663,0.0,0.0,0.0,0.0,-0.0,50,5,188
1670235421470.0,2022-12-05 18:17:01:487538,202.67,-0.46,0.03,3.5372587649561624,-0.008028514490945058,0.0005235987711485906,-0.09860000000000001,-0.005900000000000001,0.08916,-0.0078694,0.155232,9.7338794,31.030677409000003,121.443388514,16.139,351435.39888159354,3434042.253922357,179.3188815935282,262.8439223570749,-0.01,0.0,0.0,-0.0038542292189488983,0.009227400345048467,50,5,188
1670235421490.0,2022-12-05 18:17:01:507083,202.68,-0.47000000000000003,0.03,3.537433297879879,-0.008203047414661255,0.0005235987711485906,-0.17164000000000001,-0.0006000000000000001,0.08888,0.0089866,0.14359940000000002,9.7568016,31.030677409000003,121.44338851200001,16.139,351435.3986906884,3434042.2539250315,179.31869068840751,262.8439250313677,-0.01,0.0,0.0,-0.003855839645397979,0.009226727514616284,50,5,188
1670235421510.0,2022-12-05 18:17:01:527483,202.68,-0.47000000000000003,0.03,3.537433297879879,-0.008203047414661255,0.0005235987711485906,-0.19705,0.056600000000000004,0.08337000000000001,0.025676,0.1951376,9.6921608,31.030677409000003,121.443388509,16.139,351435.398404332,3434042.253929043,179.31840433197794,262.8439290430397,-0.01,0.0,0.0,-0.003855839645397979,0.009226727514616284,50,5,188
1670235421530.0,2022-12-05 18:17:01:547571,202.68,-0.47000000000000003,0.03,3.537433297879879,-0.008203047414661255,0.0005235987711485906,-0.20073000000000002,0.02128,0.01111,0.0354858,0.2616796,9.698962,31.030677409000003,121.443388506,16.139,351435.39811797556,3434042.253933054,179.31811797554838,262.84393305378035,-0.01,0.0,0.0,-0.003855839645397979,0.009226727514616284,50,5,188
1670235421550.0,2022-12-05 18:17:01:567486,202.68,-0.48,0.03,3.537433297879879,-0.00837758033837745,0.0005235987711485906,-0.28271,0.05074000000000001,0.02262,0.032193,0.2919028,9.679548200000001,31.030677409000003,121.443388501,16.138,351435.3976407141,3434042.25393974,179.31764071405632,262.8439397397451,-0.02,0.0,-0.01,-0.007711679290795958,0.01845345502923257,50,5,188
1670235421570.0,2022-12-05 18:17:01:587510,202.68,-0.49,0.03,3.537433297879879,-0.008552113262093647,0.0005235987711485906,-0.31888000000000005,0.07897000000000001,-0.039360000000000006,0.0345156,0.2855622,9.72552,31.030677408000003,121.443388497,16.138,351435.3972573535,3434042.2538342434,179.3172573535121,262.84383424324915,-0.02,0.0,-0.01,-0.007711679290795958,0.01845345502923257,50,5,188
1670235421590.0,2022-12-05 18:17:01:607548,202.68,-0.49,0.03,3.537433297879879,-0.008552113262093647,0.0005235987711485906,-0.36575,0.05541000000000001,-0.022140000000000003,0.0209328,0.3238312,9.7277544,31.030677406000002,121.44338849100001,16.138,351435.3966815351,3434042.2536205766,179.31668153509963,262.8436205764301,-0.02,0.0,-0.01,-0.007711679290795958,0.01845345502923257,50,5,188
1670235421610.0,2022-12-05 18:17:01:627496,202.68,-0.5,0.03,3.537433297879879,-0.008726646185809844,0.0005235987711485906,-0.36278000000000005,0.031630000000000005,-0.07984000000000001,-0.0020384,0.3398934,9.7710704,31.030677401000002,121.443388487,16.138,351435.39629196347,3434042.2530717,179.31629196344875,262.8430717000738,-0.03,-0.01,-0.01,-0.002340791421577653,0.03153602218924683,50,5,188
1670235421630.0,2022-12-05 18:17:01:647565,202.67,-0.51,0.03,3.5372587649561624,-0.008901179109526041,0.0005235987711485906,-0.33806,0.025630000000000003,-0.08856000000000001,-0.0135338,0.303996,9.8210602,31.030677396,121.44338848000001,16.137,351435.39561603544,3434042.2525268355,179.3156160354265,262.84252683538944,-0.03,-0.01,-0.01,-0.0023352873117982263,0.0315364302540943,50,5,188
1670235421650.0,2022-12-05 18:17:01:667535,202.67,-0.51,0.03,3.5372587649561624,-0.008901179109526041,0.0005235987711485906,-0.30091,-0.00736,-0.10154,-0.013229999999999999,0.3145898,9.8597604,31.030677394,121.44338847200001,16.137,351435.3948493119,3434042.2523158425,179.31484931189334,262.8423158423975,-0.04,-0.01,-0.01,-0.006189516530747126,0.04076383059914277,50,5,188
1670235421670.0,2022-12-05 18:17:01:687587,202.67,-0.52,0.03,3.5372587649561624,-0.009075712033242238,0.0005235987711485906,-0.20619,0.011810000000000001,-0.04311,-0.030184,0.285572,9.884564200000002,31.030677392,121.443388462,16.136,351435.39389168576,3434042.2521075243,179.31389168574242,262.842107524164,-0.04,-0.01,-0.01,-0.006189516530747126,0.04076383059914277,50,5,188
1670235421690.0,2022-12-05 18:17:01:707554,202.67,-0.52,0.03,3.5372587649561624,-0.009075712033242238,0.0005235987711485906,-0.17489000000000002,0.01212,-0.02824,-0.0269206,0.31850000000000006,9.8780864,31.030677389,121.44338845200001,16.136,351435.39293250686,3434042.2517883605,179.31293250684394,262.84178836038336,-0.05,-0.01,0.0,-0.010043745749696026,0.04999123094419124,50,5,188
1670235421710.0,2022-12-05 18:17:01:727558,202.67,-0.52,0.03,3.5372587649561624,-0.009075712033242238,0.0005235987711485906,-0.17017000000000002,-0.05399,-0.00966,-0.017885,0.4299162,9.8147196,31.030677386,121.44338844100001,16.136,351435.3918778741,3434042.251470534,179.31187787407544,262.8414705339819,-0.05,-0.01,0.0,-0.010043745749696026,0.04999123094419124,50,5,188
1670235421730.0,2022-12-05 18:17:01:747553,202.67,-0.53,0.03,3.5372587649561624,-0.009250244956958436,0.0005235987711485906,-0.13461,-0.009260000000000001,-0.011040000000000001,-0.018629800000000002,0.4432834,9.829547,31.030677382,121.443388428,16.136,351435.39063078596,3434042.2510445374,179.3106307859416,262.8410445372574,-0.06,-0.02,0.0,-0.0046705746235964525,0.0630728605081886,50,5,188
1670235421750.0,2022-12-05 18:17:01:767475,202.67,-0.53,0.03,3.5372587649561624,-0.009250244956958436,0.0005235987711485906,-0.17217000000000002,-0.013000000000000001,0.032130000000000006,-0.012563600000000001,0.40947340000000004,9.8607404,31.030677378000004,121.44338841400001,16.136,351435.3892882465,3434042.250619878,179.3092882464989,262.8406198779121,-0.06,-0.02,0.0,-0.0046705746235964525,0.0630728605081886,50,5,188
1670235421770.0,2022-12-05 18:17:01:787466,202.67,-0.53,0.03,3.5372587649561624,-0.009250244956958436,0.0005235987711485906,-0.16084,-0.019280000000000002,0.05117000000000001,-0.0039984,0.4187638,9.8701288,31.030677374000003,121.44338839900001,16.136,351435.38785025326,3434042.250196555,179.3078502532444,262.8401965550147,-0.07,-0.02,0.0,-0.008524803842545354,0.07230026085323707,50,5,188
1670235421790.0,2022-12-05 18:17:01:807153,202.67,-0.53,0.03,3.5372587649561624,-0.009250244956958436,0.0005235987711485906,-0.07064000000000001,-0.03398,0.07507000000000001,0.0049588,0.4088952,9.895030599999998,31.030677369000003,121.44338838300001,16.136,351435.3863152559,3434042.249663726,179.30631525587523,262.839663725812,-0.08,-0.02,0.0,-0.012379033061494252,0.08152766119828554,50,5,188
1670235421810.0,2022-12-05 18:17:01:827415,202.67,-0.54,0.03,3.5372587649561624,-0.009424777880674633,0.0005235987711485906,-0.13472,-0.00856,0.04621,0.012632200000000001,0.41701940000000004,9.887808,31.030677360000002,121.443388368,16.136,351435.3848694988,3434042.2486861767,179.3048694987665,262.8386861765757,-0.08,-0.03,0.0,-0.0031516327164457895,0.08538189041723443,50,5,188
1670235421830.0,2022-12-05 18:17:01:847468,202.67,-0.54,0.03,3.5372587649561624,-0.009424777880674633,0.0005235987711485906,-0.056100000000000004,-0.031490000000000004,0.050170000000000006,0.009966599999999999,0.5014660000000001,9.8169932,31.030677352,121.44338835,16.136,351435.383138938,3434042.2478234866,179.30313893797575,262.83782348642126,-0.09,-0.03,0.0,-0.0070058619353946805,0.09460929076228289,50,5,188
1670235421850.0,2022-12-05 18:17:01:867482,202.67,-0.54,0.03,3.5372587649561624,-0.009424777880674633,0.0005235987711485906,0.029290000000000004,-0.060820000000000006,0.030420000000000003,0.0210798,0.471576,9.849293999999999,31.030677345,121.44338833,16.136,351435.38121902733,3434042.247074314,179.3012190273148,262.83707431377843,-0.1,-0.03,0.0,-0.010860091154343589,0.10383669110733136,50,5,188
1670235421870.0,2022-12-05 18:17:01:887492,202.68,-0.54,0.03,3.537433297879879,-0.009424777880674633,0.0005235987711485906,0.01564,-0.06019000000000001,0.043120000000000006,0.0204232,0.4188716,9.800686,31.030677338,121.44338830800001,16.136,351435.3791082116,3434042.2463278165,179.29910821159137,262.8363278163597,-0.1,-0.04,0.0,-0.0016514863955146564,0.10769063372775475,50,5,188
1670235421890.0,2022-12-05 18:17:01:907409,202.68,-0.54,0.02,3.537433297879879,-0.009424777880674633,0.0003490658474323938,-0.00043000000000000004,-0.08656000000000001,0.03375,0.014729400000000002,0.45308339999999997,9.8315168,31.030677330000003,121.44338828400001,16.136,351435.37680493796,3434042.2454731483,179.2968049379415,262.83547314815223,-0.11,-0.04,0.0,-0.005507326040912634,0.11691736124237104,50,5,188
1670235421910.0,2022-12-05 18:17:01:927493,202.68,-0.53,0.02,3.537433297879879,-0.009250244956958436,0.0003490658474323938,0.08903000000000001,-0.08191000000000001,0.02125,0.0087416,0.4659704,9.7598592,31.030677322000003,121.44338826,16.136,351435.3745016643,3434042.2446184796,179.2945016642916,262.8346184794791,-0.12,-0.04,0.0,-0.009363165686310612,0.12614408875698732,50,5,188
1670235421930.0,2022-12-05 18:17:01:947557,202.68,-0.53,0.02,3.537433297879879,-0.009250244956958436,0.0003490658474323938,0.06966,-0.10176,-0.02001,0.0026656,0.4492124,9.772609000000001,31.030677313,121.44338823400001,16.136,351435.3720059353,3434042.2436556416,179.2920059352764,262.8336556414142,-0.12,-0.05,0.0,-0.00013643817169432804,0.1299999284023853,50,5,188
1670235421950.0,2022-12-05 18:17:01:967374,202.68,-0.53,0.02,3.537433297879879,-0.009250244956958436,0.0003490658474323938,0.048810000000000006,-0.1274,-0.015940000000000003,-0.0167188,0.43776600000000004,9.7455806,31.030677304,121.44338820600001,16.136,351435.3693193011,3434042.242695477,179.2893193010823,262.8326954767108,-0.13,-0.05,0.0,-0.003992277817092313,0.1392266559170016,50,5,188
1670235421970.0,2022-12-05 18:17:01:987494,202.68,-0.53,0.02,3.537433297879879,-0.009250244956958436,0.0003490658474323938,0.029560000000000003,-0.09798000000000001,-0.0027300000000000002,-0.0200508,0.47193860000000004,9.734144,31.030677294,121.443388177,16.136,351435.36653566035,3434042.2416258045,179.2865356603288,262.8316258043051,-0.14,-0.05,0.0,-0.007848117462490298,0.14845338343161787,50,5,188
1670235421990.0,2022-12-05 18:17:02:007510,202.68,-0.53,0.01,3.537433297879879,-0.009250244956958436,0.0001745329237161969,-0.00657,-0.07661000000000001,-0.015380000000000001,-0.0330162,0.4872168,9.7228446,31.030677284000003,121.44338814700001,16.136,351435.3636565707,3434042.2405574694,179.28365657071117,262.8305574692786,-0.14,-0.05,0.0,-0.007848117462490298,0.14845338343161787,50,5,188
1670235422010.0,2022-12-05 18:17:02:027487,202.67,-0.53,0.01,3.5372587649561624,-0.009250244956958436,0.0001745329237161969,-0.00952,-0.07007000000000001,-0.010690000000000002,-0.0435414,0.4864034,9.722629,31.030677273000002,121.443388115,16.136,351435.36058502324,3434042.2393809627,179.28058502322529,262.829380962532,-0.15,-0.06,0.0,-0.002449036213942671,0.16153638048942037,50,5,188
1670235422030.0,2022-12-05 18:17:02:047398,202.67,-0.53,0.01,3.5372587649561624,-0.009250244956958436,0.0001745329237161969,-0.055240000000000004,-0.013450000000000002,0.01573,-0.044982,0.5317578000000001,9.7197282,31.030677256,121.44338808500001,16.136,351435.3576950618,3434042.237536712,179.27769506175537,262.82753671193495,-0.16,-0.06,0.0,-0.006303265432891579,0.17076378083446886,50,5,188
1670235422050.0,2022-12-05 18:17:02:067388,202.67,-0.53,0.01,3.5372587649561624,-0.009250244956958436,0.0001745329237161969,-0.08347,0.00952,0.0069500000000000004,-0.0509404,0.5178124,9.7245204,31.030677244000003,121.443388049,16.136,351435.35424015136,3434042.2362547107,179.27424015133874,262.8262547105551,-0.17,-0.06,0.0,-0.010157494651840474,0.17999118117951732,50,5,188
1670235422070.0,2022-12-05 18:17:02:087453,202.68,-0.54,0.01,3.537433297879879,-0.009424777880674633,0.0001745329237161969,-0.10431000000000001,0.042100000000000005,0.058850000000000006,-0.051420600000000004,0.5403426,9.7479718,31.030677232000002,121.44338801800001,16.136,351435.3512625048,3434042.234966023,179.2712625048007,262.8249660227448,-0.18,-0.06,0.0,-0.014044748529465925,0.189216133135481,50,5,188
1670235422090.0,2022-12-05 18:17:02:107393,202.68,-0.54,0.01,3.537433297879879,-0.009424777880674633,0.0001745329237161969,-0.21413000000000001,0.08853000000000001,0.033280000000000004,-0.0538118,0.5910086,9.7311452,31.03067722,121.443387982,16.136,351435.3478075944,3434042.233684019,179.26780759438407,262.8236840190366,-0.19,-0.07,0.0,-0.008673860660247612,0.20229870029549527,50,5,188
1670235422110.0,2022-12-05 18:17:02:127392,202.68,-0.54,0.02,3.537433297879879,-0.009424777880674633,0.0003490658474323938,-0.15573,0.08939000000000001,0.09013,-0.051038400000000005,0.5858048,9.7403866,31.030677207000004,121.44338794100001,16.136,351435.3438738721,3434042.232297859,179.26387387205614,262.82229785900563,-0.2,-0.07,0.0,-0.012529700305645597,0.21152542781011155,50,5,188
1670235422130.0,2022-12-05 18:17:02:147146,202.68,-0.55,0.02,3.537433297879879,-0.00959931080439083,0.0003490658474323938,-0.20941,0.11076000000000001,0.06944,-0.0432376,0.605689,9.770217800000001,31.030677193000002,121.44338789800001,16.136,351435.3397476919,3434042.230803527,179.25974769185996,262.82080352678895,-0.21,-0.07,0.0,-0.016385539951043568,0.22075215532472783,50,5,188
1670235422150.0,2022-12-05 18:17:02:167498,202.68,-0.55,0.02,3.537433297879879,-0.00959931080439083,0.0003490658474323938,-0.23492000000000002,0.10445000000000002,0.12923,-0.0293706,0.6319628,9.7726384,31.030677179,121.443387853,16.136,351435.33543060656,3434042.229311869,179.2554306065431,262.81931186886504,-0.22,-0.08,0.0,-0.011014652081825269,0.23383472248474207,50,5,188
1670235422170.0,2022-12-05 18:17:02:187452,202.68,-0.55,0.02,3.537433297879879,-0.00959931080439083,0.0003490658474323938,-0.17644,0.02977,0.10902,-0.0054586,0.6142444,9.839170600000001,31.030677164000004,121.443387806,16.136,351435.33092106576,3434042.22771204,179.25092106574448,262.81771203968674,-0.23,-0.08,0.0,-0.014870491727223253,0.24306144999935836,50,5,188
1670235422190.0,2022-12-05 18:17:02:207121,202.69,-0.56,0.02,3.5376078308035948,-0.009773843728107027,0.0003490658474323938,-0.21119000000000002,0.038990000000000004,0.09594000000000001,0.0077714,0.6232898,9.831222799999999,31.030677148000002,121.443387756,16.136,351435.3261236159,3434042.2260053777,179.24612361588515,262.8160053775646,-0.23,-0.09,0.0,-0.005686859322906412,0.24691630086132726,50,5,188
1670235422210.0,2022-12-05 18:17:02:227506,202.69,-0.56,0.02,3.5376078308035948,-0.009773843728107027,0.0003490658474323938,-0.14993,0.05471,0.055900000000000005,0.022481200000000003,0.6382348000000001,9.831997,31.030677127,121.443387709,16.135,351435.32160475844,3434042.2237404794,179.24160475842655,262.8137404792942,-0.24,-0.09,0.0,-0.009544309277297866,0.2561423552644491,50,5,188
1670235422230.0,2022-12-05 18:17:02:247569,202.69,-0.56,0.02,3.5376078308035948,-0.009773843728107027,0.0003490658474323938,-0.10250000000000001,0.029130000000000003,0.058350000000000006,0.037289,0.6340012,9.826528600000001,31.030677113000003,121.44338766300001,16.136,351435.31719222426,3434042.2222501575,179.23719222424552,262.81225015735254,-0.25,-0.1,0.0,-0.004175704828567411,0.26922585962196255,50,5,188
1670235422250.0,2022-12-05 18:17:02:267600,202.69,-0.5700000000000001,0.02,3.5376078308035948,-0.009948376651823224,0.0003490658474323938,-0.10049000000000001,0.05178000000000001,0.028100000000000003,0.0416108,0.656061,9.793434,31.030677095,121.443387607,16.136,351435.3118189559,3434042.2203298286,179.2318189558573,262.81032982841134,-0.26,-0.1,0.0,-0.008033154782958879,0.27845191402508446,50,5,188
1670235422270.0,2022-12-05 18:17:02:287553,202.69,-0.5700000000000001,0.02,3.5376078308035948,-0.009948376651823224,0.0003490658474323938,-0.09077,-0.023940000000000003,-0.009930000000000001,0.039542999999999995,0.6848044,9.765994,31.030677075000003,121.44338755000001,16.136,351435.3063471306,3434042.2181891473,179.22634713060688,262.808189147152,-0.27,-0.11,0.0,-0.0026645503342284382,0.29153541838259783,50,5,188
1670235422290.0,2022-12-05 18:17:02:307404,202.69,-0.5700000000000001,0.02,3.5376078308035948,-0.009948376651823224,0.0003490658474323938,-0.12798,-0.06623000000000001,-0.03728,0.0407778,0.7012488,9.7236874,31.030677055,121.44338749,16.136,351435.3005889465,3434042.2160524777,179.22058894648217,262.80605247756466,-0.28,-0.11,0.0,-0.006522000288619906,0.30076147278571974,50,5,188
1670235422310.0,2022-12-05 18:17:02:327502,202.69,-0.5700000000000001,0.02,3.5376078308035948,-0.009948376651823224,0.0003490658474323938,-0.21273000000000003,-0.17880000000000001,-0.041960000000000004,0.039200000000000006,0.7356664,9.6839288,31.030677034000004,121.44338742800001,16.135,351435.294638307,3434042.213807635,179.21463830699213,262.8038076348603,-0.3,-0.12,0.0,-0.005010845794280905,0.323071031546355,50,5,188
1670235422330.0,2022-12-05 18:17:02:347155,202.69,-0.58,0.01,3.5376078308035948,-0.01012290957553942,0.0001745329237161969,-0.23531000000000002,-0.23719,-0.06369000000000001,0.039327400000000005,0.7556878,9.6835466,31.030677011,121.443387364,16.135,351435.28849365923,3434042.2113437783,179.20849365921458,262.8013437781483,-0.31,-0.12,0.0,-0.008868295748672372,0.33229708594947693,50,5,188
1670235422350.0,2022-12-05 18:17:02:367565,202.68,-0.59,0.01,3.537433297879879,-0.010297442499255616,0.0001745329237161969,-0.34436000000000005,-0.32275000000000004,-0.11380000000000001,0.040268200000000004,0.7709855999999999,9.693425,31.030676987000003,121.443387297,16.135,351435.2820610998,3434042.208773089,179.20206109975697,262.7987730889581,-0.32,-0.13,0.0,-0.0034394109627236408,0.34538119585789484,50,5,188
1670235422370.0,2022-12-05 18:17:02:387559,202.68,-0.59,0.0,3.537433297879879,-0.010297442499255616,0.0,-0.36050000000000004,-0.3679,-0.12413,0.0437374,0.7823438,9.7606628,31.030676963,121.443387227,16.135,351435.27534218633,3434042.2062064093,179.19534218631452,262.7962064091116,-0.33,-0.14,-0.01,0.0019314769064946447,0.3584637630179091,50,5,188
1670235422390.0,2022-12-05 18:17:02:407449,202.68,-0.6,0.0,3.537433297879879,-0.010471975422971814,0.0,-0.33994,-0.34138,-0.09489,0.025519200000000002,0.7788354000000001,9.8180516,31.030676937000003,121.44338715500001,16.135,351435.2684292622,3434042.203420715,179.18842926219804,262.79342071479186,-0.34,-0.14,0.0,-0.0019243627389033402,0.3676904905325254,50,5,188
1670235422410.0,2022-12-05 18:17:02:427422,202.68,-0.61,0.0,3.537433297879879,-0.01064650834668801,0.0,-0.27898,-0.30147,-0.15462,-0.0093492,0.8021496,9.836113000000001,31.030676906000004,121.44338708400001,16.134,351435.2616040256,3434042.2000794588,179.18160402559442,262.7900794586167,-0.36,-0.15,0.0,-0.000409314515082998,0.38999978520715595,50,5,188
1670235422430.0,2022-12-05 18:17:02:447632,202.67,-0.61,-0.01,3.5372587649561624,-0.01064650834668801,-0.0001745329237161969,-0.24121,-0.23234000000000002,-0.08011,-0.0371028,0.8438976,9.813082999999999,31.030676878,121.443387008,16.134,351435.2543061859,3434042.1970774224,179.17430618585786,262.7870774222538,-0.37,-0.15,0.0,-0.004195475925382219,0.39922725105102674,50,5,188
1670235422450.0,2022-12-05 18:17:02:467558,202.67,-0.61,-0.01,3.5372587649561624,-0.01064650834668801,-0.0001745329237161969,-0.21853000000000003,-0.18444000000000002,-0.045040000000000004,-0.0696388,0.8310204,9.824382400000001,31.030676849000002,121.44338692800001,16.134,351435.2466249879,3434042.193969891,179.16662498790538,262.7839698907919,-0.38,-0.16,0.0,0.001177695200717338,0.4123088806150241,50,5,188
1670235422470.0,2022-12-05 18:17:02:487563,202.67,-0.62,-0.01,3.5372587649561624,-0.010821041270404208,-0.0001745329237161969,-0.12413,-0.10065,-0.01581,-0.09413880000000001,0.7685356,9.827391,31.030676819000004,121.443386844,16.134,351435.238560427,3434042.1907568625,179.15856042696396,262.78075686236843,-0.4,-0.16,0.0,-0.006530763237180465,0.43076368130512105,50,5,188
1670235422490.0,2022-12-05 18:17:02:507112,202.67,-0.62,-0.01,3.5372587649561624,-0.010821041270404208,-0.0001745329237161969,-0.06725,-0.0302,0.052770000000000004,-0.1024982,0.7188888,9.8465598,31.030676789,121.443386759,16.134,351435.2304004148,3434042.1875451705,179.15040041477187,262.77754517039284,-0.41000000000000003,-0.16,0.0,-0.010384992456129366,0.43999108165016954,50,5,188
1670235422510.0,2022-12-05 18:17:02:527074,202.68,-0.62,-0.01,3.537433297879879,-0.010821041270404208,-0.0001745329237161969,-0.07172,0.029480000000000003,0.09504000000000001,-0.10716300000000001,0.7040026,9.857163400000001,31.030676758000002,121.44338667000001,16.134,351435.2218570395,3434042.1842279825,179.14185703947442,262.77422798238695,-0.42,-0.17,0.0,-0.005090897358238283,0.4530718295856496,50,5,188
1670235422530.0,2022-12-05 18:17:02:547560,202.68,-0.62,-0.01,3.537433297879879,-0.010821041270404208,-0.0001745329237161969,-0.07106000000000001,0.042260000000000006,0.11057000000000002,-0.1177176,0.7259938,9.834319599999999,31.030676727000003,121.44338658000001,16.134,351435.21321821294,3434042.1809121314,179.1332182129263,262.7709121312946,-0.43,-0.17,0.0,-0.008946737003636268,0.4622985571002659,50,5,188
1670235422550.0,2022-12-05 18:17:02:567561,202.68,-0.62,-0.01,3.537433297879879,-0.010821041270404208,-0.0001745329237161969,-0.07198,0.08266000000000001,0.13192,-0.1120826,0.7539042,9.7952666,31.030676695,121.44338648600001,16.134,351435.2041960258,3434042.177490784,179.12419602577575,262.7674907837063,-0.45,-0.17,0.0,-0.016658416294432238,0.4807520121294985,50,5,188
1670235422570.0,2022-12-05 18:17:02:587557,202.68,-0.62,-0.01,3.537433297879879,-0.010821041270404208,-0.0001745329237161969,-0.0261,-0.0014900000000000002,0.1451,-0.0994504,0.7453488,9.7553512,31.030676663,121.44338639,16.134,351435.1949829336,3434042.174072112,179.11498293356271,262.76407211180776,-0.46,-0.18,0.0,-0.011287528425213939,0.4938345792895127,50,5,188
1670235422590.0,2022-12-05 18:17:02:607546,202.69,-0.62,-0.01,3.5376078308035948,-0.010821041270404208,-0.0001745329237161969,-0.10567000000000001,-0.05965,0.17439000000000002,-0.08869980000000001,0.7096866000000001,9.7507648,31.030676629000002,121.44338629100001,16.134,351435.1854803818,3434042.1704357616,179.1054803818115,262.7604357614182,-0.47000000000000003,-0.18,0.0,-0.015231168600204292,0.5030586561257764,50,5,188
1670235422610.0,2022-12-05 18:17:02:627559,202.69,-0.63,-0.02,3.5376078308035948,-0.010995574194120405,-0.0003490658474323938,-0.06083,-0.18191000000000002,0.12725,-0.0677866,0.6688402,9.7544692,31.030676595000003,121.44338621600001,16.133,351435.1782686766,3434042.166767317,179.0982686766074,262.7567673167214,-0.48,-0.18,0.0,-0.019088618554595732,0.5122847105288982,50,5,188
1670235422630.0,2022-12-05 18:17:02:647052,202.69,-0.63,-0.02,3.5376078308035948,-0.010995574194120405,-0.0003490658474323938,-0.11838000000000001,-0.20342000000000002,0.14018,-0.0308798,0.668605,9.7737654,31.030676557000003,121.44338611600001,16.133,351435.1686644624,3434042.1626889245,179.08866446238244,262.7526889243163,-0.49,-0.19,0.0,-0.013720014105865291,0.5253682148864117,50,5,188
1670235422650.0,2022-12-05 18:17:02:667125,202.7,-0.63,-0.02,3.537782363727311,-0.010995574194120405,-0.0003490658474323938,-0.12510000000000002,-0.15342,0.12189000000000001,0.0289296,0.7115290000000001,9.7852314,31.030676522,121.443386011,16.133,351435.15858764015,3434042.1589497505,179.07858764013508,262.7489497503266,-0.5,-0.19,0.0,-0.017670768092883954,0.534591193301019,50,5,188
1670235422670.0,2022-12-05 18:17:02:687469,202.7,-0.63,-0.02,3.537782363727311,-0.010995574194120405,-0.0003490658474323938,-0.07125000000000001,-0.08905,0.08016000000000001,0.0692664,0.7252196000000001,9.789318,31.030676485,121.443385903,16.133,351435.1482213607,3434042.1549928994,179.06822136067785,262.7449928992428,-0.51,-0.2,0.0,-0.012304447228178389,0.5476756344574852,50,5,188
1670235422690.0,2022-12-05 18:17:02:707458,202.7,-0.63,-0.02,3.537782363727311,-0.010995574194120405,-0.0003490658474323938,-0.0159,0.06652000000000001,0.00222,0.0744212,0.670369,9.8310072,31.030676448,121.443385793,16.133,351435.1376641761,3434042.1510387203,179.05766417609993,262.74103872012347,-0.52,-0.21,0.0,-0.006938126363472852,0.5607600756139514,50,5,188
1670235422710.0,2022-12-05 18:17:02:727499,202.7,-0.63,-0.02,3.537782363727311,-0.010995574194120405,-0.0003490658474323938,0.051460000000000006,0.15623,-0.032490000000000005,0.0836332,0.6519254,9.844590000000002,31.030676409,121.44338568200001,16.133,351435.1270084323,3434042.1468641907,179.0470084322733,262.73686419054866,-0.53,-0.21,0.0,-0.010797186509353185,0.5699854566245373,50,5,188
1670235422730.0,2022-12-05 18:17:02:747508,202.69,-0.63,-0.01,3.5376078308035948,-0.010995574194120405,-0.0001745329237161969,0.16398000000000001,0.29058,-0.05378,0.060857999999999995,0.6860980000000001,9.814278600000002,31.030676370000002,121.44338556800001,16.133,351435.1160663343,3434042.142693672,179.03606633428717,262.7326936717145,-0.54,-0.22,0.0,-0.0053291006684568765,0.5830708367651957,50,5,188
1670235422750.0,2022-12-05 18:17:02:767089,202.69,-0.63,-0.01,3.5376078308035948,-0.010995574194120405,-0.0001745329237161969,0.09203,0.4035,-0.10883000000000001,0.0333102,0.7164682,9.7634558,31.030676329000002,121.443385452,16.133,351435.1049302234,3434042.138304138,179.02493022335693,262.72830413794145,-0.55,-0.22,0.0,-0.009186550622848344,0.5922968911683176,50,5,188
1670235422770.0,2022-12-05 18:17:02:787431,202.69,-0.63,0.0,3.5376078308035948,-0.010995574194120405,0.0,0.056510000000000005,0.40745000000000003,-0.15228,-0.0159446,0.7098042,9.7606922,31.030676287000002,121.44338533400001,16.133,351435.0936016594,3434042.133806433,179.01360165938968,262.723806432914,-0.56,-0.23,0.0,-0.0038179461741178755,0.605380395525831,50,5,188
1670235422790.0,2022-12-05 18:17:02:807457,202.69,-0.62,0.0,3.5376078308035948,-0.010821041270404208,0.0,0.042300000000000004,0.32630000000000003,-0.16482000000000002,-0.053410000000000006,0.7023758,9.7624268,31.030676245000002,121.443385214,16.133,351435.0820821879,3434042.129311403,179.002082187857,262.71931140264496,-0.5700000000000001,-0.23,0.0,-0.007675396128509343,0.614606449928953,50,5,188
1670235422810.0,2022-12-05 18:17:02:827559,202.68,-0.62,0.0,3.537433297879879,-0.010821041270404208,0.0,0.01017,0.21842000000000003,-0.14413,-0.0796936,0.7372638,9.7375936,31.030676198000002,121.443385093,16.133,351435.07045950106,3434042.1242634836,178.99045950104482,262.7142634834163,-0.59,-0.24,0.0,-0.006053078727689953,0.6369170748519123,50,5,188
1670235422830.0,2022-12-05 18:17:02:847542,202.68,-0.63,0.0,3.537433297879879,-0.010995574194120405,0.0,-0.01085,0.058600000000000006,-0.12914,-0.094423,0.7729652,9.724598799999999,31.030676158000002,121.44338499400001,16.133,351435.0609476326,3434042.119962062,178.9809476325754,262.709962062072,-0.6,-0.24,0.0,-0.009908918373087938,0.6461438023665286,50,5,188
