gps_time,utc_time,heading,pitch,roll,heading_radians,pitch_radians,roll_radians,gyroX,gyroY,gyroZ,accX,accY,accZ,latitude,longitude,altitude,utm_x_position,utm_y_position,local_x,local_y,east_speed,north_speed,vertical_speed,vehicle_lat_speed,vehicle_lon_speed,position_type,GNSS_info1,GNSS_info2
1672223587745.0,2022-12-28 18:33:07:681122,203.23,-0.46,0.2,3.5470326086842694,-0.008028514490945058,0.003490658474323938,-0.0026200000000000004,-0.034140000000000004,0.022570000000000003,0.037485000000000004,0.0739606,9.7851236,31.030714260000003,121.443510575,16.154,351447.10707860393,3434046.1754632327,191.0270786039182,266.7654632325284,0.0,0.0,0.0,0.0,-0.0,50,5,188
1672223587765.0,2022-12-28 18:33:07:701177,203.23,-0.45,0.2,3.5470326086842694,-0.00785398156722886,0.003490658474323938,0.02671,-0.009810000000000001,-0.005,0.0346528,0.0752052,9.7812134,31.030714260000003,121.44351057600001,16.154,351447.10717405763,3434046.1754618953,191.0271740576136,266.7654618951492,0.0,0.0,0.0,0.0,-0.0,50,5,188
1672223587785.0,2022-12-28 18:33:07:721172,203.23999999999998,-0.45,0.2,3.5472071416079856,-0.00785398156722886,0.003490658474323938,0.024730000000000002,0.01111,0.03631,0.031183600000000002,0.0752052,9.7857998,31.030714260000003,121.44351057700001,16.154,351447.107269509,3434046.1754605584,191.02726950898068,266.76546055823565,0.0,0.0,0.0,0.0,-0.0,50,5,188
1672223587805.0,2022-12-28 18:33:07:741196,203.23,-0.45,0.2,3.5470326086842694,-0.00785398156722886,0.003490658474323938,0.01701,-0.025820000000000003,-0.025240000000000002,0.0302722,0.07672419999999999,9.7907194,31.030714261000004,121.443510578,16.154,351447.1073665129,3434046.1755700656,191.0273665128625,266.7655700654723,0.0,0.0,0.0,0.0,-0.0,50,5,188
1672223587825.0,2022-12-28 18:33:07:761081,203.23,-0.45,0.2,3.5470326086842694,-0.00785398156722886,0.003490658474323938,-0.04215000000000001,-0.035160000000000004,-0.00792,0.0298508,0.075411,9.7930518,31.030714260000003,121.443510574,16.154,351447.10698315257,3434046.1754645696,191.0269831525511,266.765464569442,0.0,0.0,0.0,0.0,-0.0,50,5,188
1672223587845.0,2022-12-28 18:33:07:781136,203.23,-0.45,0.2,3.5470326086842694,-0.00785398156722886,0.003490658474323938,-0.00151,-0.055310000000000005,0.02261,0.031752,0.07355880000000001,9.7898668,31.030714261000004,121.443510575,16.154,351447.10708015657,3434046.175574077,191.02708015654935,266.7655740766786,0.0,0.0,0.0,0.0,-0.0,50,5,188
1672223587865.0,2022-12-28 18:33:07:801140,203.23999999999998,-0.45,0.2,3.5472071416079856,-0.00785398156722886,0.003490658474323938,0.036800000000000006,-0.016880000000000003,0.010520000000000002,0.0307622,0.071785,9.794316,31.030714261000004,121.44351057600001,16.154,351447.10717561026,3434046.1755727404,191.02717561024474,266.7655727402307,0.0,0.0,0.0,0.0,-0.0,50,5,188
1672223587885.0,2022-12-28 18:33:07:821179,203.23,-0.45,0.2,3.5470326086842694,-0.00785398156722886,0.003490658474323938,0.01212,-0.02908,-0.025150000000000002,0.031556,0.0720692,9.796717,31.030714261000004,121.44351057700001,16.154,351447.1072710616,3434046.1755714035,191.02727106161183,266.76557140331715,0.0,0.0,0.0,0.0,-0.0,50,5,188
1672223587905.0,2022-12-28 18:33:07:841217,203.23,-0.45,0.2,3.5470326086842694,-0.00785398156722886,0.003490658474323938,0.01754,0.019850000000000003,-0.022010000000000002,0.0341726,0.0712754,9.7998236,31.030714262000004,121.443510578,16.154,351447.1073680655,3434046.175680912,191.02736806549365,266.76568091195077,0.0,0.0,0.0,0.0,-0.0,50,5,188
1672223587925.0,2022-12-28 18:33:07:861145,203.23,-0.45,0.2,3.5470326086842694,-0.00785398156722886,0.003490658474323938,0.02593,-0.01626,-0.022670000000000003,0.034839,0.071589,9.799108200000001,31.030714262000004,121.443510579,16.154,351447.1074635169,3434046.175679574,191.02746351686073,266.7656795736402,0.0,0.0,0.0,0.0,-0.0,50,5,188
1672223587945.0,2022-12-28 18:33:07:881238,203.23,-0.45,0.2,3.5470326086842694,-0.00785398156722886,0.003490658474323938,0.01196,0.03506,0.009460000000000001,0.0373968,0.0707854,9.7911114,31.030714263000004,121.44351058000001,16.154,351447.1075605232,3434046.1757890824,191.02756052318728,266.76578908227384,0.0,0.0,0.0,0.0,-0.0,50,5,188
1672223587965.0,2022-12-28 18:33:07:900734,203.23,-0.45,0.2,3.5470326086842694,-0.00785398156722886,0.003490658474323938,-0.00351,0.00285,-0.02416,0.0362698,0.07580300000000001,9.7952862,31.030714263000004,121.44351058100001,16.154,351447.10765597457,3434046.175787746,191.02765597455436,266.76578774582595,0.0,0.0,0.0,0.0,-0.0,50,5,188
1672223587985.0,2022-12-28 18:33:07:921164,203.23,-0.45,0.2,3.5470326086842694,-0.00785398156722886,0.003490658474323938,0.013760000000000001,-0.01305,-0.014980000000000002,0.034937,0.07560700000000001,9.7949628,31.030714264,121.443510582,16.154,351447.10775297845,3434046.175897253,191.02775297843618,266.7658972530626,0.0,0.0,0.0,0.0,-0.0,50,5,188
1672223588005.0,2022-12-28 18:33:07:941343,203.23,-0.45,0.2,3.5470326086842694,-0.00785398156722886,0.003490658474323938,-0.00634,0.03291,-0.02074,0.0332514,0.075215,9.792503,31.030714264,121.443510583,16.154,351447.1078484322,3434046.1758959163,191.02784843218978,266.765895916149,0.0,0.0,0.0,0.0,-0.0,50,5,188
1672223588025.0,2022-12-28 18:33:07:961157,203.23,-0.45,0.2,3.5470326086842694,-0.00785398156722886,0.003490658474323938,-0.042050000000000004,0.014860000000000002,0.0009800000000000002,0.0320166,0.074186,9.7902098,31.030714264,121.44351058000001,16.154,351447.1075620759,3434046.1758999266,191.02756207587663,266.765899926424,0.0,0.0,0.0,0.0,-0.0,50,5,188
1672223588045.0,2022-12-28 18:33:07:981207,203.23,-0.45,0.2,3.5470326086842694,-0.00785398156722886,0.003490658474323938,-0.009380000000000001,0.013970000000000002,0.008440000000000001,0.0329182,0.0724416,9.7828794,31.030714265,121.44351058000001,16.154,351447.1075636285,3434046.176010772,191.02756362850778,266.7660107719712,0.0,0.0,0.0,0.0,-0.0,50,5,188
1672223588065.0,2022-12-28 18:33:08:001106,203.23,-0.45,0.2,3.5470326086842694,-0.00785398156722886,0.003490658474323938,-0.0066500000000000005,-0.00489,0.01709,0.0323204,0.0700014,9.7847512,31.030714265,121.44351058100001,16.154,351447.10765907983,3434046.176009435,191.02765907981666,266.76600943505764,0.0,0.0,0.0,0.0,-0.0,50,5,188
1672223588085.0,2022-12-28 18:33:08:021158,203.23,-0.45,0.2,3.5470326086842694,-0.00785398156722886,0.003490658474323938,0.015260000000000001,0.0006900000000000001,-0.021490000000000002,0.0339374,0.0696486,9.7898276,31.030714266,121.443510582,16.154,351447.1077560837,3434046.1761189424,191.02775608369848,266.76611894229427,0.0,0.0,0.0,0.0,-0.0,50,5,188
1672223588105.0,2022-12-28 18:33:08:041349,203.23,-0.45,0.2,3.5470326086842694,-0.00785398156722886,0.003490658474323938,-0.01754,-0.008480000000000001,0.00223,0.0375732,0.0691978,9.78579,31.030714266,121.443510583,16.154,351447.1078515375,3434046.1761176055,191.0278515375103,266.7661176053807,0.0,0.0,0.0,0.0,-0.0,50,5,188
1672223588125.0,2022-12-28 18:33:08:061188,203.23,-0.45,0.2,3.5470326086842694,-0.00785398156722886,0.003490658474323938,-0.047150000000000004,0.03547,-0.02722,0.0402094,0.0704326,9.7882204,31.030714266,121.44351058500001,16.154,351447.1080424425,3434046.176114931,191.02804244245635,266.7661149306223,0.0,0.0,0.0,0.0,-0.0,50,5,188
1672223588145.0,2022-12-28 18:33:08:081210,203.23,-0.45,0.2,3.5470326086842694,-0.00785398156722886,0.003490658474323938,-0.013560000000000001,-0.01454,-0.015780000000000002,0.040395600000000004,0.07221620000000001,9.789367,31.030714267,121.443510586,16.154,351447.10813944647,3434046.1762244394,191.0281394464546,266.7662244392559,0.0,0.0,0.0,0.0,-0.0,50,5,188
1672223588165.0,2022-12-28 18:33:08:100776,203.23,-0.45,0.2,3.5470326086842694,-0.00785398156722886,0.003490658474323938,0.01608,0.04161,0.005600000000000001,0.0396704,0.0749798,9.7910036,31.030714267,121.443510587,16.154,351447.1082348977,3434046.176223102,191.02823489770526,266.7662231018767,0.0,0.0,0.0,0.0,-0.0,50,5,188
1672223588185.0,2022-12-28 18:33:08:121173,203.23,-0.45,0.2,3.5470326086842694,-0.00785398156722886,0.003490658474323938,0.004520000000000001,-0.00901,0.0461,0.0389158,0.07909580000000001,9.800627200000001,31.030714268,121.44351058800001,16.154,351447.10833190416,3434046.1763326107,191.02833190414822,266.7663326105103,0.0,0.0,0.0,0.0,-0.0,50,5,188
1672223588205.0,2022-12-28 18:33:08:141111,203.23,-0.45,0.2,3.5470326086842694,-0.00785398156722886,0.003490658474323938,-0.022520000000000002,0.01803,-0.0027900000000000004,0.0359072,0.07836080000000001,9.796178000000001,31.030714268,121.44351058900001,16.154,351447.1084273554,3434046.1763312737,191.0284273553989,266.76633127359673,0.0,0.0,0.0,0.0,-0.0,50,5,188
1672223588225.0,2022-12-28 18:33:08:161104,203.23,-0.45,0.2,3.5470326086842694,-0.00785398156722886,0.003490658474323938,-0.026180000000000002,-0.03307,0.009770000000000001,0.0336042,0.075509,9.7914054,31.030714268,121.44351058500001,16.154,351447.10804554785,3434046.176336622,191.02804554783506,266.7663366217166,0.0,0.0,0.0,0.0,-0.0,50,5,188
1672223588245.0,2022-12-28 18:33:08:181213,203.23,-0.45,0.2,3.5470326086842694,-0.00785398156722886,0.003490658474323938,-0.00655,-0.013460000000000001,0.01025,0.0290374,0.0747838,9.7955018,31.030714268,121.443510586,16.154,351447.1081409991,3434046.1763352845,191.02814099908574,266.7663352843374,0.0,0.0,0.0,0.0,-0.0,50,5,188
1672223588265.0,2022-12-28 18:33:08:201209,203.23,-0.45,0.2,3.5470326086842694,-0.00785398156722886,0.003490658474323938,-0.03079,-0.039630000000000006,0.043660000000000004,0.0318108,0.07388220000000001,9.7939534,31.030714269,121.443510587,16.154,351447.108238003,3434046.176444792,191.02823800296756,266.7664447920397,0.0,0.0,0.0,0.0,-0.0,50,5,188
1672223588285.0,2022-12-28 18:33:08:221092,203.23,-0.45,0.2,3.5470326086842694,-0.00785398156722886,0.003490658474323938,0.03261,-0.00772,-0.02536,0.0328006,0.0744016,9.7964328,31.030714269,121.44351058800001,16.154,351447.1083334568,3434046.1764434553,191.02833345677936,266.76644345512614,0.0,0.0,0.0,0.0,-0.0,50,5,188
1672223588305.0,2022-12-28 18:33:08:241242,203.23,-0.45,0.2,3.5470326086842694,-0.00785398156722886,0.003490658474323938,0.01382,-0.0027700000000000003,-0.0009100000000000001,0.0360248,0.07259840000000001,9.790660599999999,31.03071427,121.44351058900001,16.154,351447.1084304607,3434046.1765529634,191.02843046066118,266.7665529632941,0.0,0.0,0.0,0.0,-0.0,50,5,188
1672223588325.0,2022-12-28 18:33:08:261241,203.23,-0.45,0.2,3.5470326086842694,-0.00785398156722886,0.003490658474323938,-0.00204,-0.02009,0.027530000000000002,0.038925600000000005,0.07176540000000001,9.784075,31.03071427,121.44351059,16.154,351447.10852591204,3434046.1765516265,191.02852591202827,266.76655162638053,0.0,0.0,0.0,0.0,-0.0,50,5,188
1672223588345.0,2022-12-28 18:33:08:281204,203.23,-0.45,0.2,3.5470326086842694,-0.00785398156722886,0.003490658474323938,0.037570000000000006,-0.02562,0.006110000000000001,0.040121199999999996,0.0718732,9.7854862,31.03071427,121.443510591,16.154,351447.1086213633,3434046.1765502896,191.02862136327894,266.766550289467,0.0,0.0,0.0,0.0,-0.0,50,5,188
1672223588365.0,2022-12-28 18:33:08:301223,203.23,-0.45,0.2,3.5470326086842694,-0.00785398156722886,0.003490658474323938,0.03445,0.0134,-0.040720000000000006,0.0376222,0.0724416,9.786035,31.030714271,121.44351059200001,16.154,351447.10871836974,3434046.1766597973,191.0287183697219,266.76665979716927,0.0,0.0,0.0,0.0,-0.0,50,5,188
1672223588385.0,2022-12-28 18:33:08:321201,203.23,-0.45,0.2,3.5470326086842694,-0.00785398156722886,0.003490658474323938,-0.029580000000000002,0.014090000000000002,-0.013200000000000002,0.036358,0.07413700000000001,9.7853098,31.030714271,121.44351059300001,16.154,351447.108813821,3434046.17665846,191.02881382097257,266.76665845979005,0.0,0.0,0.0,0.0,-0.0,50,5,188
1672223588405.0,2022-12-28 18:33:08:341210,203.23,-0.45,0.2,3.5470326086842694,-0.00785398156722886,0.003490658474323938,0.018670000000000003,0.039920000000000004,-0.01617,0.0343392,0.0730198,9.7909644,31.030714271,121.443510594,16.154,351447.10890927224,3434046.176657123,191.02890927222325,266.7666571228765,0.0,0.0,0.0,0.0,-0.0,50,5,188
1672223588425.0,2022-12-28 18:33:08:361177,203.23,-0.45,0.2,3.5470326086842694,-0.00785398156722886,0.003490658474323938,-0.046380000000000005,-0.00489,-0.02722,0.033770800000000004,0.0735196,9.7868876,31.03071427,121.44351058900001,16.154,351447.1084304607,3434046.1765529634,191.02843046066118,266.7665529632941,0.0,0.0,0.0,0.0,-0.0,50,5,188
1672223588445.0,2022-12-28 18:33:08:381174,203.23,-0.45,0.2,3.5470326086842694,-0.00785398156722886,0.003490658474323938,-0.03239,-0.03808,0.013450000000000002,0.032300800000000005,0.0740292,9.792640200000001,31.03071427,121.443510591,16.154,351447.1086213633,3434046.1765502896,191.02862136327894,266.766550289467,0.0,0.0,0.0,0.0,-0.0,50,5,188
1672223588465.0,2022-12-28 18:33:08:401109,203.23,-0.45,0.2,3.5470326086842694,-0.00785398156722886,0.003490658474323938,0.04818,-0.04361,-0.03755,0.0298018,0.07272580000000001,9.7979126,31.030714271,121.44351059200001,16.154,351447.10871836974,3434046.1766597973,191.0287183697219,266.76665979716927,0.0,0.0,0.0,0.0,-0.0,50,5,188
1672223588485.0,2022-12-28 18:33:08:420826,203.23,-0.45,0.2,3.5470326086842694,-0.00785398156722886,0.003490658474323938,0.018570000000000003,-0.010450000000000001,-0.013670000000000002,0.028714,0.0692468,9.7960212,31.030714271,121.44351059300001,16.154,351447.108813821,3434046.17665846,191.02881382097257,266.76665845979005,0.0,0.0,0.0,0.0,-0.0,50,5,188
1672223588505.0,2022-12-28 18:33:08:441231,203.23,-0.45,0.2,3.5470326086842694,-0.00785398156722886,0.003490658474323938,-0.02043,-0.005220000000000001,0.008690000000000002,0.028753200000000003,0.0688352,9.798216400000001,31.030714271,121.443510594,16.154,351447.10890927224,3434046.176657123,191.02890927222325,266.7666571228765,0.0,0.0,0.0,0.0,-0.0,50,5,188
1672223588525.0,2022-12-28 18:33:08:461086,203.23,-0.45,0.2,3.5470326086842694,-0.00785398156722886,0.003490658474323938,-0.006030000000000001,0.027760000000000003,0.00529,0.0283612,0.070266,9.7987064,31.030714272,121.443510595,16.154,351447.1090062787,3434046.1767666307,191.0290062786662,266.7667666305788,0.0,0.0,0.0,0.0,-0.0,50,5,188
1672223588545.0,2022-12-28 18:33:08:481093,203.23,-0.45,0.2,3.5470326086842694,-0.00785398156722886,0.003490658474323938,-0.010900000000000002,0.010830000000000001,-0.014110000000000001,0.0253232,0.074382,9.7995982,31.030714272,121.44351059600001,16.154,351447.1091017299,3434046.176765294,191.02910172985867,266.76676529366523,0.0,0.0,0.0,0.0,-0.0,50,5,188
1672223588565.0,2022-12-28 18:33:08:501021,203.23,-0.45,0.2,3.5470326086842694,-0.00785398156722886,0.003490658474323938,-0.00135,0.03781,0.009370000000000002,0.025431000000000002,0.0771848,9.7932772,31.030714273,121.44351059700001,16.154,351447.1091987363,3434046.176874801,191.02919873630162,266.76687480090186,0.0,0.0,0.0,0.0,-0.0,50,5,188
1672223588585.0,2022-12-28 18:33:08:521096,203.23,-0.45,0.2,3.5470326086842694,-0.00785398156722886,0.003490658474323938,0.020360000000000003,0.019780000000000002,-0.00413,0.0263032,0.0759108,9.7900334,31.030714273,121.443510598,16.154,351447.1092941876,3434046.176873464,191.0292941876105,266.7668734639883,0.0,0.0,0.0,0.0,-0.0,50,5,188
1672223588605.0,2022-12-28 18:33:08:541074,203.23,-0.45,0.2,3.5470326086842694,-0.00785398156722886,0.003490658474323938,0.00152,0.038470000000000004,-0.01523,0.0293706,0.0749406,9.781115400000001,31.030714274,121.443510599,16.154,351447.1093911915,3434046.176982973,191.02939119149232,266.7669829726219,0.0,0.0,0.0,0.0,-0.0,50,5,188
1672223588625.0,2022-12-28 18:33:08:560686,203.23,-0.45,0.2,3.5470326086842694,-0.00785398156722886,0.003490658474323938,0.04014,-0.016290000000000002,0.02466,0.0316148,0.073647,9.7838986,31.030714272,121.44351059300001,16.153,351447.1088153736,3434046.1767693055,191.02881537360372,266.7667693053372,0.0,0.0,0.0,0.0,-0.0,50,5,188
1672223588645.0,2022-12-28 18:33:08:581160,203.23,-0.45,0.2,3.5470326086842694,-0.00785398156722886,0.003490658474323938,0.00194,-0.004900000000000001,0.01677,0.037289,0.0716282,9.7866916,31.030714273,121.443510594,16.153,351447.10891237756,3434046.1768788127,191.02891237754375,266.76687881257385,0.0,0.0,0.0,0.0,-0.0,50,5,188
1672223588665.0,2022-12-28 18:33:08:601107,203.23,-0.45,0.2,3.5470326086842694,-0.00785398156722886,0.003490658474323938,-0.004390000000000001,0.0015600000000000002,0.0061600000000000005,0.0446684,0.0732844,9.7859664,31.030714273,121.443510595,16.153,351447.1090078313,3434046.176877476,191.02900783129735,266.7668774756603,0.0,0.0,0.0,0.0,-0.0,50,5,188
1672223588685.0,2022-12-28 18:33:08:621052,203.23,-0.45,0.2,3.5470326086842694,-0.00785398156722886,0.003490658474323938,-0.048720000000000006,0.014090000000000002,0.01683,0.048608000000000005,0.0735,9.7889358,31.030714273,121.44351059600001,16.153,351447.10910328256,3434046.176876139,191.02910328254802,266.76687613874674,0.0,0.0,0.0,0.0,-0.0,50,5,188
1672223588705.0,2022-12-28 18:33:08:641070,203.23,-0.45,0.21,3.5470326086842694,-0.00785398156722886,0.0036651913980401346,-0.00897,0.027280000000000002,0.027510000000000003,0.0497154,0.07416640000000001,9.786025200000001,31.030714274,121.443510598,16.153,351447.10929574026,3434046.1769843097,191.02929574024165,266.7669843095355,0.0,0.0,0.0,0.0,-0.0,50,5,188
1672223588725.0,2022-12-28 18:33:08:661037,203.23,-0.45,0.21,3.5470326086842694,-0.00785398156722886,0.0036651913980401346,0.023770000000000003,0.01733,-0.00265,0.047196800000000004,0.0772926,9.7899158,31.030714274,121.443510599,16.153,351447.1093911915,3434046.176982973,191.02939119149232,266.7669829726219,0.0,0.0,0.0,0.0,-0.0,50,5,188
1672223588745.0,2022-12-28 18:33:08:681122,203.23,-0.45,0.21,3.5470326086842694,-0.00785398156722886,0.0036651913980401346,-0.006810000000000001,0.02193,0.015410000000000002,0.043511999999999995,0.0774396,9.7958154,31.030714274,121.44351060000001,16.153,351447.1094866429,3434046.176981637,191.0294866428594,266.7669816366397,0.0,0.0,0.0,0.0,-0.0,50,5,188
1672223588765.0,2022-12-28 18:33:08:701073,203.23,-0.45,0.21,3.5470326086842694,-0.00785398156722886,0.0036651913980401346,-0.05462,-0.015000000000000001,0.00867,0.0423066,0.0771064,9.797207,31.030714275,121.44351060100001,16.153,351447.1095836492,3434046.177091144,191.02958364918595,266.7670911438763,0.0,0.0,0.0,0.0,-0.0,50,5,188
1672223588785.0,2022-12-28 18:33:08:721045,203.23,-0.45,0.2,3.5470326086842694,-0.00785398156722886,0.003490658474323938,0.05501,-0.05892000000000001,0.00621,0.041454,0.0734804,9.7982948,31.030714275,121.443510602,16.153,351447.10967910057,3434046.177089807,191.02967910055304,266.76708980696276,0.0,0.0,0.0,0.0,-0.0,50,5,188
1672223588805.0,2022-12-28 18:33:08:741128,203.23,-0.45,0.2,3.5470326086842694,-0.00785398156722886,0.003490658474323938,0.033670000000000005,-0.050440000000000006,0.01451,0.0406406,0.0703248,9.795550800000001,31.030714275,121.44351060300001,16.153,351447.1097745518,3434046.17708847,191.0297745518037,266.7670884700492,0.0,0.0,0.0,0.0,-0.0,50,5,188
1672223588825.0,2022-12-28 18:33:08:761096,203.23999999999998,-0.45,0.2,3.5472071416079856,-0.00785398156722886,0.003490658474323938,-0.037610000000000005,-0.010280000000000001,0.03316,0.0377104,0.06857060000000001,9.7936692,31.030714273,121.443510598,16.153,351447.1092941876,3434046.176873464,191.0292941876105,266.7668734639883,0.0,0.0,0.0,0.0,-0.0,50,5,188
1672223588845.0,2022-12-28 18:33:08:780985,203.23999999999998,-0.45,0.2,3.5472071416079856,-0.00785398156722886,0.003490658474323938,0.011200000000000002,-0.03288,-0.00753,0.035476,0.06965840000000001,9.800882,31.030714274,121.443510599,16.153,351447.1093911915,3434046.176982973,191.02939119149232,266.7669829726219,0.0,0.0,0.0,0.0,-0.0,50,5,188
1672223588865.0,2022-12-28 18:33:08:801048,203.23999999999998,-0.45,0.2,3.5472071416079856,-0.00785398156722886,0.003490658474323938,-0.017920000000000002,-0.041530000000000004,0.009550000000000001,0.0326732,0.0690116,9.799108200000001,31.030714274,121.44351060000001,16.153,351447.1094866429,3434046.176981637,191.0294866428594,266.7669816366397,0.0,0.0,0.0,0.0,-0.0,50,5,188
1672223588885.0,2022-12-28 18:33:08:821051,203.23999999999998,-0.45,0.2,3.5472071416079856,-0.00785398156722886,0.003490658474323938,-0.016460000000000002,-0.03479,-0.021580000000000002,0.0304094,0.0694428,9.7897394,31.030714274,121.443510602,16.153,351447.10967754794,3434046.176978962,191.0296775479219,266.76697896188125,0.0,0.0,0.0,0.0,-0.0,50,5,188
1672223588905.0,2022-12-28 18:33:08:841202,203.23,-0.45,0.2,3.5470326086842694,-0.00785398156722886,0.003490658474323938,0.02023,-0.01391,-0.022250000000000002,0.0278026,0.0714028,9.788338000000001,31.030714274,121.44351060300001,16.153,351447.1097729992,3434046.176977625,191.02977299917256,266.7669776249677,0.0,0.0,0.0,0.0,-0.0,50,5,188
1672223588925.0,2022-12-28 18:33:08:861199,203.23,-0.45,0.2,3.5470326086842694,-0.00785398156722886,0.003490658474323938,-0.056060000000000006,-0.0071400000000000005,-0.018430000000000002,0.024029599999999998,0.0740292,9.790837,31.030714275,121.44351060400001,16.153,351447.1098700056,3434046.1770871333,191.0298700055573,266.76708713313565,0.0,0.0,0.0,0.0,-0.0,50,5,188
1672223588945.0,2022-12-28 18:33:08:881089,203.23,-0.45,0.2,3.5470326086842694,-0.00785398156722886,0.003490658474323938,-0.00557,0.0076300000000000005,0.031830000000000004,0.028184800000000003,0.0762342,9.7942964,31.030714275,121.44351060500001,16.153,351447.10996545677,3434046.177085797,191.02996545674978,266.76708579668775,0.0,0.0,0.0,0.0,-0.0,50,5,188
1672223588965.0,2022-12-28 18:33:08:901196,203.23999999999998,-0.45,0.2,3.5472071416079856,-0.00785398156722886,0.003490658474323938,-0.027080000000000003,0.031920000000000004,0.005090000000000001,0.0302036,0.0755874,9.783761400000001,31.030714275,121.443510606,16.153,351447.11006090813,3434046.1770844585,191.03006090811687,266.7670844583772,0.0,0.0,0.0,0.0,-0.0,50,5,188
1672223588985.0,2022-12-28 18:33:08:921028,203.23999999999998,-0.45,0.2,3.5472071416079856,-0.00785398156722886,0.003490658474323938,0.023200000000000002,-0.02536,0.009800000000000001,0.0315658,0.0737744,9.7789692,31.030714276,121.44351060700001,16.153,351447.1101579145,3434046.1771939667,191.03015791450161,266.76719396654516,0.0,0.0,0.0,0.0,-0.0,50,5,188
1672223589005.0,2022-12-28 18:33:08:941202,203.23,-0.45,0.2,3.5470326086842694,-0.00785398156722886,0.003490658474323938,-0.00142,-0.00487,-0.01575,0.0317128,0.0708246,9.7729324,31.030714276,121.44351060800001,16.153,351447.1102533658,3434046.177192629,191.0302533658105,266.7671926287003,0.0,0.0,0.0,0.0,-0.0,50,5,188
1672223589025.0,2022-12-28 18:33:08:961202,203.23999999999998,-0.45,0.2,3.5472071416079856,-0.00785398156722886,0.003490658474323938,0.018940000000000002,-0.039020000000000006,0.019950000000000002,0.0280672,0.0705894,9.7838398,31.030714274,121.44351060300001,16.153,351447.1097729992,3434046.176977625,191.02977299917256,266.7669776249677,0.0,0.0,0.0,0.0,-0.0,50,5,188
1672223589045.0,2022-12-28 18:33:08:981225,203.23999999999998,-0.45,0.2,3.5472071416079856,-0.00785398156722886,0.003490658474323938,0.0013800000000000002,-0.031290000000000005,-0.03361,0.0281946,0.0712166,9.7814584,31.030714275,121.44351060400001,16.153,351447.1098700056,3434046.1770871333,191.0298700055573,266.76708713313565,0.0,0.0,0.0,0.0,-0.0,50,5,188
1672223589065.0,2022-12-28 18:33:09:001224,203.23,-0.45,0.2,3.5470326086842694,-0.00785398156722886,0.003490658474323938,0.00222,0.0026000000000000003,-0.030250000000000003,0.029360800000000003,0.0703542,9.7789202,31.030714275,121.44351060500001,16.153,351447.10996545677,3434046.177085797,191.02996545674978,266.76708579668775,0.0,0.0,0.0,0.0,-0.0,50,5,188
1672223589085.0,2022-12-28 18:33:09:021078,203.23,-0.45,0.2,3.5470326086842694,-0.00785398156722886,0.003490658474323938,-0.0018700000000000001,0.05564,-0.009040000000000001,0.0315266,0.07497000000000001,9.7947472,31.030714275,121.44351060700001,16.153,351447.1101563618,3434046.1770831216,191.03015636181226,266.76708312146366,0.0,0.0,0.0,0.0,-0.0,50,5,188
1672223589105.0,2022-12-28 18:33:09:041188,203.23,-0.45,0.2,3.5470326086842694,-0.00785398156722886,0.003490658474323938,0.0045000000000000005,0.0038000000000000004,0.020810000000000002,0.0313992,0.0712068,9.7983438,31.030714276,121.44351060800001,16.153,351447.1102533658,3434046.177192629,191.0302533658105,266.7671926287003,0.0,0.0,0.0,0.0,-0.0,50,5,188
1672223589125.0,2022-12-28 18:33:09:061032,203.23,-0.45,0.2,3.5470326086842694,-0.00785398156722886,0.003490658474323938,0.01502,0.010620000000000001,0.006640000000000001,0.0373674,0.0681982,9.8137396,31.030714276,121.443510609,16.153,351447.1103488171,3434046.177191292,191.03034881706117,266.76719129178673,0.0,0.0,0.0,0.0,-0.0,50,5,188
1672223589145.0,2022-12-28 18:33:09:081194,203.23,-0.45,0.2,3.5470326086842694,-0.00785398156722886,0.003490658474323938,0.05992000000000001,0.00549,-0.00387,0.0395332,0.0744898,9.816679599999999,31.030714277,121.44351061,16.153,351447.1104458211,3434046.1773008006,191.0304458210594,266.76730080042034,0.0,0.0,0.0,0.0,-0.0,50,5,188
1672223589165.0,2022-12-28 18:33:09:101187,203.23999999999998,-0.45,0.2,3.5472071416079856,-0.00785398156722886,0.003490658474323938,0.00623,0.016970000000000002,0.016,0.0434336,0.07221620000000001,9.7943552,31.030714277,121.44351061100001,16.153,351447.1105412748,3434046.1772994637,191.0305412747548,266.7672994635068,0.0,0.0,0.0,0.0,-0.0,50,5,188
1672223589185.0,2022-12-28 18:33:09:121204,203.23999999999998,-0.45,0.2,3.5472071416079856,-0.00785398156722886,0.003490658474323938,-0.0102,0.01339,0.050010000000000006,0.041914599999999996,0.0712656,9.7984908,31.030714277,121.44351061200001,16.153,351447.110636726,3434046.1772981267,191.03063672600547,266.76729812659323,0.0,0.0,0.0,0.0,-0.0,50,5,188
1672223589205.0,2022-12-28 18:33:09:141110,203.23999999999998,-0.45,0.2,3.5472071416079856,-0.00785398156722886,0.003490658474323938,-0.03636,-0.012140000000000001,-0.027500000000000004,0.040503399999999995,0.0695114,9.798677000000001,31.030714278,121.443510613,16.153,351447.11073373,3434046.177407633,191.0307337300037,266.76740763289854,0.0,0.0,0.0,0.0,-0.0,50,5,188
1672223589225.0,2022-12-28 18:33:09:161200,203.23999999999998,-0.45,0.2,3.5472071416079856,-0.00785398156722886,0.003490658474323938,0.0345,-0.01173,0.00829,0.0367304,0.0705306,9.7851628,31.030714276,121.44351060800001,16.153,351447.1102533658,3434046.177192629,191.0302533658105,266.7671926287003,0.0,0.0,0.0,0.0,-0.0,50,5,188
1672223589245.0,2022-12-28 18:33:09:181172,203.23,-0.45,0.2,3.5470326086842694,-0.00785398156722886,0.003490658474323938,-0.012100000000000001,-0.033690000000000005,-0.046490000000000004,0.0363874,0.0737058,9.7866132,31.030714277,121.443510609,16.153,351447.11035036977,3434046.1773021366,191.03035036975052,266.7673021364026,0.0,0.0,0.0,0.0,-0.0,50,5,188
1672223589265.0,2022-12-28 18:33:09:201039,203.23999999999998,-0.45,0.2,3.5472071416079856,-0.00785398156722886,0.003490658474323938,-0.00058,-0.05371000000000001,0.023760000000000003,0.0345744,0.074578,9.773344,31.030714277,121.44351061100001,16.153,351447.1105412748,3434046.1772994637,191.0305412747548,266.7672994635068,0.0,0.0,0.0,0.0,-0.0,50,5,188
1672223589285.0,2022-12-28 18:33:09:221117,203.23999999999998,-0.45,0.2,3.5472071416079856,-0.00785398156722886,0.003490658474323938,-0.0009800000000000002,-0.01186,0.03302,0.0344666,0.08194760000000001,9.7735988,31.030714277,121.44351061200001,16.153,351447.110636726,3434046.1772981267,191.03063672600547,266.76729812659323,0.0,0.0,0.0,0.0,-0.0,50,5,188
1672223589305.0,2022-12-28 18:33:09:241189,203.23999999999998,-0.44,0.2,3.5472071416079856,-0.0076794486435126635,0.003490658474323938,0.06432,0.012320000000000001,0.0034000000000000002,0.029262800000000002,0.08485820000000001,9.779273,31.030714277,121.443510613,16.153,351447.1107321774,3434046.177296789,191.03073217737256,266.76729678874835,0.0,0.0,0.0,0.0,-0.0,50,5,188
1672223589325.0,2022-12-28 18:33:09:261060,203.23999999999998,-0.44,0.2,3.5472071416079856,-0.0076794486435126635,0.003490658474323938,0.0022600000000000003,-0.012100000000000001,-0.016380000000000002,0.030233000000000003,0.083986,9.7803412,31.030714278,121.443510614,16.153,351447.1108291837,3434046.177406296,191.0308291836991,266.767406295985,0.0,0.0,0.0,0.0,-0.0,50,5,188
1672223589345.0,2022-12-28 18:33:09:281152,203.23999999999998,-0.44,0.2,3.5472071416079856,-0.0076794486435126635,0.003490658474323938,0.015110000000000002,-0.019960000000000002,0.03892,0.0300272,0.0841526,9.791434800000001,31.030714278,121.44351061500001,16.153,351447.11092463497,3434046.17740496,191.03092463494977,266.76740496000275,0.0,0.0,0.0,0.0,-0.0,50,5,188
1672223589365.0,2022-12-28 18:33:09:301106,203.23999999999998,-0.44,0.2,3.5472071416079856,-0.0076794486435126635,0.003490658474323938,-0.01387,-0.015390000000000001,-0.022680000000000002,0.0332416,0.0808402,9.7976676,31.030714278,121.44351061600001,16.153,351447.1110200888,3434046.1774036223,191.03102008876158,266.7674036221579,0.0,0.0,0.0,0.0,-0.0,50,5,188
1672223589385.0,2022-12-28 18:33:09:321070,203.23999999999998,-0.44,0.2,3.5472071416079856,-0.0076794486435126635,0.003490658474323938,0.03291,0.014480000000000002,0.016220000000000002,0.0352604,0.07889,9.8033222,31.030714279,121.443510617,16.153,351447.1111170928,3434046.1775131295,191.0311170927598,266.7675131293945,0.0,0.0,0.0,0.0,-0.0,50,5,188
1672223589405.0,2022-12-28 18:33:09:341098,203.23999999999998,-0.44,0.2,3.5472071416079856,-0.0076794486435126635,0.003490658474323938,0.00084,0.016190000000000003,-0.00413,0.0369558,0.0803698,9.812887,31.030714279,121.443510618,16.153,351447.111212544,3434046.1775117926,191.0312125440105,266.76751179248095,0.0,0.0,0.0,0.0,-0.0,50,5,188
1672223589425.0,2022-12-28 18:33:09:361061,203.23999999999998,-0.44,0.2,3.5472071416079856,-0.0076794486435126635,0.003490658474323938,-0.028470000000000002,0.0031500000000000005,-0.04388,0.041356000000000004,0.082859,9.804625600000001,31.030714276,121.44351061200001,16.153,351447.1106351734,3434046.177187281,191.03063517337432,266.76718728104606,0.0,0.0,0.0,0.0,-0.0,50,5,188
1672223589445.0,2022-12-28 18:33:09:381198,203.23999999999998,-0.44,0.2,3.5472071416079856,-0.0076794486435126635,0.003490658474323938,0.02987,-0.02841,0.010390000000000002,0.0457758,0.0782726,9.8036554,31.030714277,121.443510613,16.153,351447.1107321774,3434046.177296789,191.03073217737256,266.76729678874835,0.0,0.0,0.0,0.0,-0.0,50,5,188
1672223589465.0,2022-12-28 18:33:09:401108,203.23999999999998,-0.44,0.2,3.5472071416079856,-0.0076794486435126635,0.003490658474323938,0.037880000000000004,-0.01872,-0.012090000000000002,0.0515872,0.068159,9.7938554,31.030714277,121.443510614,16.153,351447.1108276311,3434046.177295452,191.03082763106795,266.7672954518348,0.0,0.0,0.0,0.0,-0.0,50,5,188
1672223589485.0,2022-12-28 18:33:09:421068,203.23999999999998,-0.44,0.2,3.5472071416079856,-0.0076794486435126635,0.003490658474323938,0.042350000000000006,0.0044,-0.01651,0.0500682,0.0553798,9.787936199999999,31.030714277,121.44351061500001,16.153,351447.11092308233,3434046.177294115,191.03092308231862,266.76729411492124,0.0,0.0,0.0,0.0,-0.0,50,5,188
1672223589505.0,2022-12-28 18:33:09:441192,203.23999999999998,-0.44,0.2,3.5472071416079856,-0.0076794486435126635,0.003490658474323938,-0.04433,0.030750000000000003,-0.0108,0.044972200000000004,0.0499212,9.785202,31.030714277,121.44351061600001,16.153,351447.11101853615,3434046.1772927777,191.03101853613043,266.767292777542,0.0,0.0,0.0,0.0,-0.0,50,5,188
1672223589525.0,2022-12-28 18:33:09:461117,203.23999999999998,-0.44,0.2,3.5472071416079856,-0.0076794486435126635,0.003490658474323938,-0.046200000000000005,0.0009100000000000001,0.012820000000000002,0.0357602,0.0478828,9.776891599999999,31.030714277,121.443510617,16.153,351447.1111139874,3434046.177291441,191.0311139873811,266.76729144062847,0.0,0.0,0.0,0.0,-0.0,50,5,188
1672223589545.0,2022-12-28 18:33:09:481068,203.23999999999998,-0.44,0.2,3.5472071416079856,-0.0076794486435126635,0.003490658474323938,-0.037970000000000004,0.02544,0.02406,0.023422,0.052087,9.7704334,31.030714277,121.443510618,16.153,351447.1112094387,3434046.177290104,191.03120943868998,266.7672901037149,0.0,0.0,0.0,0.0,-0.0,50,5,188
1672223589565.0,2022-12-28 18:33:09:501196,203.23999999999998,-0.44,0.2,3.5472071416079856,-0.0076794486435126635,0.003490658474323938,-0.057550000000000004,0.0026100000000000003,0.00725,0.0146216,0.059584,9.766807400000001,31.030714278,121.44351062000001,16.153,351447.11140189634,3434046.1773982747,191.0314018963254,266.76739827450365,0.0,0.0,0.0,0.0,-0.0,50,5,188
1672223589585.0,2022-12-28 18:33:09:521158,203.23999999999998,-0.44,0.2,3.5472071416079856,-0.0076794486435126635,0.003490658474323938,-0.04256,-0.00858,0.015050000000000001,0.0091434,0.066248,9.767709,31.030714278,121.443510621,16.153,351447.11149734765,3434046.1773969377,191.03149734763429,266.7673969375901,0.0,0.0,0.0,0.0,-0.0,50,5,188
1672223589605.0,2022-12-28 18:33:09:541096,203.23999999999998,-0.44,0.2,3.5472071416079856,-0.0076794486435126635,0.003490658474323938,-0.030100000000000002,-0.056760000000000005,0.01956,0.0029204,0.0720692,9.783438,31.030714278,121.443510622,16.153,351447.1115927989,3434046.1773956004,191.03159279888496,266.7673956002109,0.0,0.0,0.0,0.0,-0.0,50,5,188
1672223589625.0,2022-12-28 18:33:09:561133,203.23999999999998,-0.45,0.2,3.5472071416079856,-0.00785398156722886,0.003490658474323938,-0.050440000000000006,-0.07253000000000001,0.01642,0.0181006,0.0722064,9.7998334,31.030714275,121.44351061500001,16.153,351447.1109199771,3434046.1770724254,191.03091997705633,266.7670724252239,0.0,0.0,0.0,0.0,-0.0,50,5,188
1672223589645.0,2022-12-28 18:33:09:581174,203.23999999999998,-0.44,0.2,3.5472071416079856,-0.0076794486435126635,0.003490658474323938,0.03504,-0.0454,0.01438,0.0235396,0.0658462,9.800842800000002,31.030714276,121.443510617,16.153,351447.11111243477,3434046.1771805966,191.03111243474996,266.7671805964783,0.0,0.0,0.0,0.0,-0.0,50,5,188
1672223589665.0,2022-12-28 18:33:09:601062,203.23999999999998,-0.45,0.2,3.5472071416079856,-0.00785398156722886,0.003490658474323938,-0.027100000000000003,0.01771,0.012270000000000001,0.0248626,0.063161,9.811975600000002,31.030714276,121.443510618,16.153,351447.1112078861,3434046.1771792597,191.03120788605884,266.7671792595647,0.0,0.0,0.0,0.0,-0.0,50,5,188
1672223589685.0,2022-12-28 18:33:09:621099,203.23999999999998,-0.45,0.2,3.5472071416079856,-0.00785398156722886,0.003490658474323938,0.00661,0.03143,0.00334,0.0350742,0.0598192,9.8194824,31.030714277,121.44351061900001,16.153,351447.11130489,3434046.177288767,191.03130488999886,266.76728876680136,0.0,0.0,0.0,0.0,-0.0,50,5,188
1672223589705.0,2022-12-28 18:33:09:641186,203.23999999999998,-0.45,0.2,3.5472071416079856,-0.00785398156722886,0.003490658474323938,-0.01111,0.0485,-0.029220000000000003,0.036309,0.065268,9.8141316,31.030714277,121.44351062000001,16.153,351447.1114003437,3434046.177287429,191.03140034369426,266.7672874289565,0.0,0.0,0.0,0.0,-0.0,50,5,188
1672223589725.0,2022-12-28 18:33:09:661077,203.23999999999998,-0.44,0.2,3.5472071416079856,-0.0076794486435126635,0.003490658474323938,0.03389,0.028730000000000002,-0.019270000000000002,0.0361914,0.0704032,9.8050078,31.030714278,121.443510621,16.153,351447.11149734765,3434046.1773969377,191.03149734763429,266.7673969375901,0.0,0.0,0.0,0.0,-0.0,50,5,188
1672223589745.0,2022-12-28 18:33:09:681072,203.23999999999998,-0.44,0.2,3.5472071416079856,-0.0076794486435126635,0.003490658474323938,0.0342,0.05013,-0.00043000000000000004,0.042551599999999995,0.0721476,9.782242400000001,31.030714278,121.443510622,16.153,351447.1115927989,3434046.1773956004,191.03159279888496,266.7673956002109,0.0,0.0,0.0,0.0,-0.0,50,5,188
1672223589765.0,2022-12-28 18:33:09:701099,203.23999999999998,-0.44,0.2,3.5472071416079856,-0.0076794486435126635,0.003490658474323938,-0.047330000000000004,-0.0038400000000000005,0.0009500000000000001,0.0432474,0.07944860000000001,9.766092,31.030714279,121.44351062400001,16.153,351447.11178525665,3434046.177503771,191.0317852566368,266.7675037709996,0.0,0.0,0.0,0.0,-0.0,50,5,188
1672223589785.0,2022-12-28 18:33:09:721101,203.23999999999998,-0.44,0.2,3.5472071416079856,-0.0076794486435126635,0.003490658474323938,0.005880000000000001,0.02893,-0.028520000000000004,0.044198,0.08300600000000001,9.766660400000001,31.030714279,121.443510625,16.153,351447.1118807079,3434046.1775024342,191.03188070788747,266.76750243408605,0.0,0.0,0.0,0.0,-0.0,50,5,188
1672223589805.0,2022-12-28 18:33:09:741135,203.23999999999998,-0.44,0.2,3.5472071416079856,-0.0076794486435126635,0.003490658474323938,0.048530000000000004,-0.011340000000000001,0.006390000000000001,0.0470302,0.08994440000000001,9.7693652,31.03071428,121.443510626,16.153,351447.11197771423,3434046.177611943,191.031977714214,266.76761194271967,0.0,0.0,0.0,0.0,-0.0,50,5,188
1672223589825.0,2022-12-28 18:33:09:761059,203.23999999999998,-0.44,0.2,3.5472071416079856,-0.0076794486435126635,0.003490658474323938,0.01939,-0.00064,0.009170000000000001,0.0535766,0.09702980000000001,9.7675914,31.030714277,121.44351062000001,16.153,351447.1114003437,3434046.177287429,191.03140034369426,266.7672874289565,0.0,0.0,0.0,0.0,-0.0,50,5,188
1672223589845.0,2022-12-28 18:33:09:781150,203.23999999999998,-0.44,0.2,3.5472071416079856,-0.0076794486435126635,0.003490658474323938,-0.008010000000000001,-0.05113,0.017580000000000002,0.0517832,0.09267860000000001,9.782997,31.030714277,121.443510621,16.153,351447.11149579496,3434046.177286093,191.03149579494493,266.76728609297425,0.0,0.0,0.0,0.0,-0.0,50,5,188
1672223589865.0,2022-12-28 18:33:09:801107,203.23999999999998,-0.44,0.2,3.5472071416079856,-0.0076794486435126635,0.003490658474323938,-0.03282,-0.04537,0.01118,0.0511756,0.08619099999999999,9.802508800000002,31.030714277,121.443510622,16.153,351447.11159124627,3434046.177284756,191.0315912462538,266.7672847560607,0.0,0.0,0.0,0.0,-0.0,50,5,188
1672223589885.0,2022-12-28 18:33:09:821069,203.23999999999998,-0.44,0.2,3.5472071416079856,-0.0076794486435126635,0.003490658474323938,-0.01213,-0.030590000000000003,-0.0036100000000000004,0.0506856,0.0760186,9.816934400000001,31.030714277,121.44351062400001,16.153,351447.1117821514,3434046.1772820824,191.0317821513745,266.7672820822336,0.0,0.0,0.0,0.0,-0.0,50,5,188
1672223589905.0,2022-12-28 18:33:09:841185,203.23999999999998,-0.44,0.2,3.5472071416079856,-0.0076794486435126635,0.003490658474323938,-0.031160000000000004,-0.025570000000000002,0.00176,0.0452662,0.065807,9.824059,31.030714277,121.443510625,16.153,351447.11187760264,3434046.1772807445,191.03187760262517,266.7672807443887,0.0,0.0,0.0,0.0,-0.0,50,5,188
1672223589925.0,2022-12-28 18:33:09:861101,203.23999999999998,-0.44,0.2,3.5472071416079856,-0.0076794486435126635,0.003490658474323938,0.007390000000000001,-0.04868,-0.029050000000000003,0.0372498,0.0625926,9.8142394,31.030714277,121.443510626,16.153,351447.11197305634,3434046.1772794086,191.03197305632057,266.76727940840647,0.0,0.0,0.0,0.0,-0.0,50,5,188
1672223589945.0,2022-12-28 18:33:09:881164,203.23999999999998,-0.44,0.2,3.5472071416079856,-0.0076794486435126635,0.003490658474323938,-0.06317,0.036570000000000005,0.019690000000000003,0.0281064,0.0643958,9.8079772,31.030714278,121.44351062700001,16.153,351447.11207006034,3434046.177388916,191.0320700603188,266.7673889156431,0.0,0.0,0.0,0.0,-0.0,50,5,188
1672223589965.0,2022-12-28 18:33:09:900704,203.23999999999998,-0.45,0.2,3.5472071416079856,-0.00785398156722886,0.003490658474323938,-0.02518,-0.016050000000000002,0.053180000000000005,0.0220794,0.068943,9.7964034,31.030714278,121.44351062800001,16.153,351447.11216551403,3434046.177387578,191.0321655140142,266.7673875777982,0.0,0.0,0.0,0.0,-0.0,50,5,188
1672223589985.0,2022-12-28 18:33:09:921110,203.23999999999998,-0.45,0.2,3.5472071416079856,-0.00785398156722886,0.003490658474323938,-0.005,-0.0158,0.016020000000000003,0.0183456,0.0868574,9.7856626,31.030714278,121.44351063,16.153,351447.11235641665,3434046.177384904,191.03235641663196,266.7673849039711,0.0,0.0,0.0,0.0,-0.0,50,5,188
1672223590005.0,2022-12-28 18:33:09:941176,203.23999999999998,-0.45,0.2,3.5472071416079856,-0.00785398156722886,0.003490658474323938,-0.04485,-0.03758,-0.00117,0.0235396,0.0859068,9.7767838,31.030714278,121.44351063100001,16.153,351447.1124518679,3434046.177383568,191.03245186788263,266.7673835679889,0.0,0.0,0.0,0.0,-0.0,50,5,188
1672223590025.0,2022-12-28 18:33:09:961109,203.23999999999998,-0.44,0.2,3.5472071416079856,-0.0076794486435126635,0.003490658474323938,0.061630000000000004,-0.07325000000000001,0.03579,0.0254016,0.0873964,9.7662586,31.030714277,121.443510625,16.153,351447.11187760264,3434046.1772807445,191.03187760262517,266.7672807443887,0.0,0.0,0.0,0.0,-0.0,50,5,188
1672223590045.0,2022-12-28 18:33:09:981152,203.23999999999998,-0.44,0.2,3.5472071416079856,-0.0076794486435126635,0.003490658474323938,-0.011090000000000001,-0.01955,-0.021060000000000002,0.0297332,0.083153,9.766876,31.030714277,121.443510626,16.153,351447.11197305634,3434046.1772794086,191.03197305632057,266.76727940840647,0.0,0.0,0.0,0.0,-0.0,50,5,188
1672223590065.0,2022-12-28 18:33:10:001182,203.23999999999998,-0.44,0.2,3.5472071416079856,-0.0076794486435126635,0.003490658474323938,0.00051,-0.01173,0.011170000000000001,0.0343196,0.08050700000000001,9.781409400000001,31.030714278,121.44351062700001,16.153,351447.11207006034,3434046.177388916,191.0320700603188,266.7673889156431,0.0,0.0,0.0,0.0,-0.0,50,5,188
1672223590085.0,2022-12-28 18:33:10:021106,203.23999999999998,-0.44,0.2,3.5472071416079856,-0.0076794486435126635,0.003490658474323938,0.02636,0.023500000000000004,-0.056100000000000004,0.0329182,0.07935060000000001,9.777411,31.030714278,121.44351062800001,16.153,351447.11216551403,3434046.177387578,191.0321655140142,266.7673875777982,0.0,0.0,0.0,0.0,-0.0,50,5,188
1672223590105.0,2022-12-28 18:33:10:041145,203.23999999999998,-0.44,0.2,3.5472071416079856,-0.0076794486435126635,0.003490658474323938,0.03364,0.022930000000000002,-0.03458,0.029968400000000003,0.0782236,9.7923854,31.030714278,121.443510629,16.153,351447.11226096284,3434046.177386241,191.03226096282015,266.76738624088466,0.0,0.0,0.0,0.0,-0.0,50,5,188
1672223590125.0,2022-12-28 18:33:10:061200,203.23999999999998,-0.44,0.2,3.5472071416079856,-0.0076794486435126635,0.003490658474323938,0.00428,0.05061,0.00289,0.0243138,0.0731374,9.7881322,31.030714278,121.44351063,16.153,351447.11235641665,3434046.177384904,191.03235641663196,266.7673849039711,0.0,0.0,0.0,0.0,-0.0,50,5,188
1672223590145.0,2022-12-28 18:33:10:081193,203.23999999999998,-0.44,0.2,3.5472071416079856,-0.0076794486435126635,0.003490658474323938,0.006450000000000001,0.04327,-0.02032,0.018375,0.0705796,9.7980792,31.030714278,121.44351063100001,16.153,351447.1124518679,3434046.177383568,191.03245186788263,266.7673835679889,0.0,0.0,0.0,0.0,-0.0,50,5,188
1672223590165.0,2022-12-28 18:33:10:101323,203.23999999999998,-0.44,0.2,3.5472071416079856,-0.0076794486435126635,0.003490658474323938,0.00286,0.03549,0.01598,0.017365600000000002,0.07042280000000001,9.8043512,31.030714279,121.44351063200001,16.153,351447.1125488742,3434046.1774930754,191.03254887420917,266.7674930752255,0.0,0.0,0.0,0.0,-0.0,50,5,188
1672223590185.0,2022-12-28 18:33:10:121077,203.23999999999998,-0.44,0.2,3.5472071416079856,-0.0076794486435126635,0.003490658474323938,0.01887,0.039790000000000006,0.025490000000000002,0.0262444,0.06814920000000001,9.808594600000001,31.030714279,121.443510633,16.153,351447.11264432553,3434046.177491738,191.03264432551805,266.7674917378463,0.0,0.0,0.0,0.0,-0.0,50,5,188
1672223590205.0,2022-12-28 18:33:10:141083,203.23999999999998,-0.44,0.2,3.5472071416079856,-0.0076794486435126635,0.003490658474323938,-0.06754,0.0105,0.00483,0.036877400000000005,0.0703542,9.8044198,31.030714279,121.443510634,16.153,351447.11273977684,3434046.1774904006,191.03273977682693,266.76749040046707,0.0,0.0,0.0,0.0,-0.0,50,5,188
1672223590225.0,2022-12-28 18:33:10:161119,203.23999999999998,-0.44,0.2,3.5472071416079856,-0.0076794486435126635,0.003490658474323938,-0.037860000000000005,0.0053,-0.013720000000000001,0.045432799999999995,0.0677278,9.7992846,31.030714278,121.44351062800001,16.152,351447.11216551403,3434046.177387578,191.0321655140142,266.7673875777982,0.0,0.0,0.0,0.0,-0.0,50,5,188
1672223590245.0,2022-12-28 18:33:10:181174,203.23999999999998,-0.44,0.2,3.5472071416079856,-0.0076794486435126635,0.003490658474323938,0.009470000000000001,-0.024020000000000003,0.037720000000000004,0.053459,0.0682668,9.7921502,31.030714278,121.443510629,16.152,351447.11226096284,3434046.177386241,191.03226096282015,266.76738624088466,0.0,0.0,0.0,0.0,-0.0,50,5,188
1672223590265.0,2022-12-28 18:33:10:201134,203.23999999999998,-0.44,0.2,3.5472071416079856,-0.0076794486435126635,0.003490658474323938,-0.00136,0.012180000000000002,0.03524,0.058829400000000004,0.0674436,9.7889946,31.030714278,121.44351063,16.152,351447.11235641665,3434046.177384904,191.03235641663196,266.7673849039711,0.0,0.0,0.0,0.0,-0.0,50,5,188
1672223590285.0,2022-12-28 18:33:10:221188,203.23999999999998,-0.44,0.2,3.5472071416079856,-0.0076794486435126635,0.003490658474323938,0.00939,-0.01383,-0.06709000000000001,0.0638666,0.069482,9.782458,31.030714278,121.44351063100001,16.152,351447.1124518679,3434046.177383568,191.03245186788263,266.7673835679889,0.0,0.0,0.0,0.0,-0.0,50,5,188
1672223590305.0,2022-12-28 18:33:10:241156,203.23999999999998,-0.44,0.2,3.5472071416079856,-0.0076794486435126635,0.003490658474323938,0.011340000000000001,0.023440000000000003,-0.030260000000000002,0.0626122,0.071589,9.7739712,31.030714278,121.44351063200001,16.152,351447.1125473216,3434046.177382231,191.03254732157802,266.7673822310753,0.0,0.0,0.0,0.0,-0.0,50,5,188
1672223590325.0,2022-12-28 18:33:10:261162,203.23999999999998,-0.44,0.2,3.5472071416079856,-0.0076794486435126635,0.003490658474323938,-0.028210000000000002,-0.007180000000000001,-0.011460000000000001,0.0531258,0.0739704,9.774294600000001,31.030714278,121.443510634,16.152,351447.1127382242,3434046.1773795565,191.03273822419578,266.7673795563169,0.0,0.0,0.0,0.0,-0.0,50,5,188
1672223590345.0,2022-12-28 18:33:10:281168,203.23999999999998,-0.44,0.2,3.5472071416079856,-0.0076794486435126635,0.003490658474323938,-0.037360000000000004,-0.041760000000000005,0.0026000000000000003,0.038269,0.0830648,9.7796552,31.030714278,121.44351063500001,16.152,351447.1128336779,3434046.177378218,191.03283367789118,266.76737821800634,0.0,0.0,0.0,0.0,-0.0,50,5,188
1672223590365.0,2022-12-28 18:33:10:301089,203.23999999999998,-0.44,0.2,3.5472071416079856,-0.0076794486435126635,0.003490658474323938,-0.01178,-0.020780000000000003,-0.01856,0.025852399999999998,0.08559320000000001,9.7878382,31.030714278,121.44351063600001,16.152,351447.11292912916,3434046.1773768812,191.03292912914185,266.7673768810928,0.0,0.0,0.0,0.0,-0.0,50,5,188
1672223590385.0,2022-12-28 18:33:10:321138,203.23999999999998,-0.44,0.2,3.5472071416079856,-0.0076794486435126635,0.003490658474323938,-0.039650000000000005,-0.09213,0.00205,0.0204526,0.0833,9.794031799999999,31.030714279,121.443510637,16.152,351447.11302613316,3434046.17748639,191.03302613314008,266.7674863897264,0.0,0.0,0.0,0.0,-0.0,50,5,188
1672223590405.0,2022-12-28 18:33:10:341182,203.23999999999998,-0.45,0.2,3.5472071416079856,-0.00785398156722886,0.003490658474323938,-0.03114,-0.12853,0.024180000000000004,0.0220598,0.0804286,9.7981576,31.030714279,121.443510638,16.152,351447.1131215845,3434046.177485053,191.03312158450717,266.76748505281284,0.0,0.0,0.0,0.0,-0.0,50,5,188
1672223590425.0,2022-12-28 18:33:10:361047,203.23999999999998,-0.45,0.2,3.5472071416079856,-0.00785398156722886,0.003490658474323938,-0.02594,-0.04403000000000001,0.022180000000000002,0.0211386,0.08075199999999999,9.799510000000001,31.030714278,121.44351063200001,16.152,351447.1125473216,3434046.177382231,191.03254732157802,266.7673822310753,0.0,0.0,0.0,0.0,-0.0,50,5,188
1672223590445.0,2022-12-28 18:33:10:381059,203.23999999999998,-0.45,0.2,3.5472071416079856,-0.00785398156722886,0.003490658474323938,0.0027300000000000002,-0.02451,0.007980000000000001,0.0196882,0.0790762,9.8083692,31.030714278,121.443510633,16.152,351447.11264277296,3434046.1773808934,191.0326427729451,266.76738089323044,0.0,0.0,0.0,0.0,-0.0,50,5,188
1672223590465.0,2022-12-28 18:33:10:401043,203.23999999999998,-0.45,0.2,3.5472071416079856,-0.00785398156722886,0.003490658474323938,-0.02295,-0.014180000000000002,-0.01991,0.021854,0.0758912,9.8109662,31.030714278,121.443510634,16.152,351447.1127382242,3434046.1773795565,191.03273822419578,266.7673795563169,0.0,0.0,0.0,0.0,-0.0,50,5,188
1672223590485.0,2022-12-28 18:33:10:421050,203.23999999999998,-0.44,0.2,3.5472071416079856,-0.0076794486435126635,0.003490658474323938,0.0475,0.009470000000000001,0.010900000000000002,0.0223734,0.0724514,9.8046648,31.030714278,121.44351063500001,16.152,351447.1128336779,3434046.177378218,191.03283367789118,266.76737821800634,0.0,0.0,0.0,0.0,-0.0,50,5,188
1672223590505.0,2022-12-28 18:33:10:441132,203.23999999999998,-0.44,0.2,3.5472071416079856,-0.0076794486435126635,0.003490658474323938,0.0704,0.018160000000000003,0.01606,0.023912,0.0686882,9.7955116,31.030714278,121.44351063600001,16.152,351447.11292912916,3434046.1773768812,191.03292912914185,266.7673768810928,0.0,0.0,0.0,0.0,-0.0,50,5,188
1672223590525.0,2022-12-28 18:33:10:460979,203.23999999999998,-0.44,0.2,3.5472071416079856,-0.0076794486435126635,0.003490658474323938,-0.00031,-0.0036400000000000004,0.0021000000000000003,0.025646600000000002,0.0669634,9.7866132,31.030714278,121.443510637,16.152,351447.1130245805,3434046.177375545,191.03302458050894,266.7673755446449,0.0,0.0,0.0,0.0,-0.0,50,5,188
1672223590545.0,2022-12-28 18:33:10:481055,203.23999999999998,-0.44,0.2,3.5472071416079856,-0.0076794486435126635,0.003490658474323938,-0.010530000000000001,0.01828,0.01683,0.0308112,0.0660814,9.7825364,31.030714279,121.443510638,16.152,351447.1131215845,3434046.177485053,191.03312158450717,266.76748505281284,0.0,0.0,0.0,0.0,-0.0,50,5,188
1672223590565.0,2022-12-28 18:33:10:500659,203.23999999999998,-0.44,0.2,3.5472071416079856,-0.0076794486435126635,0.003490658474323938,-0.01794,0.02016,-0.043640000000000005,0.0321636,0.065856,9.7800374,31.030714279,121.44351063900001,16.152,351447.1132170382,3434046.177483715,191.03321703820257,266.76748371496797,0.0,0.0,0.0,0.0,-0.0,50,5,188
1672223590585.0,2022-12-28 18:33:10:521043,203.23999999999998,-0.44,0.2,3.5472071416079856,-0.0076794486435126635,0.003490658474323938,-0.02221,0.00837,-0.04809,0.035035000000000004,0.0629062,9.7760782,31.030714279,121.44351064000001,16.152,351447.11331248947,3434046.177482378,191.03331248945324,266.7674823780544,0.0,0.0,0.0,0.0,-0.0,50,5,188
1672223590605.0,2022-12-28 18:33:10:541064,203.23999999999998,-0.44,0.2,3.5472071416079856,-0.0076794486435126635,0.003490658474323938,-0.027510000000000003,0.03443,-0.038380000000000004,0.035133,0.0614166,9.7797532,31.030714279,121.443510641,16.152,351447.11340794084,3434046.1774810413,191.03340794082033,266.76748104114085,0.0,0.0,0.0,0.0,-0.0,50,5,188
1672223590625.0,2022-12-28 18:33:10:561032,203.23999999999998,-0.44,0.2,3.5472071416079856,-0.0076794486435126635,0.003490658474323938,-0.040630000000000006,0.016960000000000003,-0.04487000000000001,0.0321832,0.0626318,9.7866916,31.030714278,121.443510634,16.152,351447.1127382242,3434046.1773795565,191.03273822419578,266.7673795563169,0.0,0.0,0.0,0.0,-0.0,50,5,188
1672223590645.0,2022-12-28 18:33:10:581208,203.23999999999998,-0.45,0.2,3.5472071416079856,-0.00785398156722886,0.003490658474323938,-0.047580000000000004,0.034190000000000005,-0.026690000000000002,0.0301546,0.0659834,9.7979322,31.030714278,121.44351063500001,16.152,351447.1128336779,3434046.177378218,191.03283367789118,266.76737821800634,0.0,0.0,0.0,0.0,-0.0,50,5,188
1672223590665.0,2022-12-28 18:33:10:601110,203.23999999999998,-0.45,0.2,3.5472071416079856,-0.00785398156722886,0.003490658474323938,-0.09515000000000001,0.005240000000000001,0.028810000000000002,0.031017,0.0714028,9.7975598,31.030714278,121.44351063600001,16.152,351447.11292912916,3434046.1773768812,191.03292912914185,266.7673768810928,0.0,0.0,0.0,0.0,-0.0,50,5,188
1672223590685.0,2022-12-28 18:33:10:621106,203.23999999999998,-0.45,0.2,3.5472071416079856,-0.00785398156722886,0.003490658474323938,-0.014270000000000001,0.028440000000000003,0.0316,0.038749200000000004,0.0770084,9.7927774,31.030714279,121.443510637,16.152,351447.11302613316,3434046.17748639,191.03302613314008,266.7674863897264,0.0,0.0,0.0,0.0,-0.0,50,5,188
1672223590705.0,2022-12-28 18:33:10:640977,203.23999999999998,-0.45,0.2,3.5472071416079856,-0.00785398156722886,0.003490658474323938,-0.006220000000000001,-0.01634,-0.01003,0.0427672,0.0816046,9.7879558,31.030714279,121.443510638,16.152,351447.1131215845,3434046.177485053,191.03312158450717,266.76748505281284,0.0,0.0,0.0,0.0,-0.0,50,5,188
1672223590725.0,2022-12-28 18:33:10:660989,203.23999999999998,-0.45,0.2,3.5472071416079856,-0.00785398156722886,0.003490658474323938,-0.0164,0.00193,0.007030000000000001,0.0479122,0.0873082,9.7866426,31.030714279,121.44351063900001,16.152,351447.1132170382,3434046.177483715,191.03321703820257,266.76748371496797,0.0,0.0,0.0,0.0,-0.0,50,5,188
1672223590745.0,2022-12-28 18:33:10:681166,203.23999999999998,-0.45,0.2,3.5472071416079856,-0.00785398156722886,0.003490658474323938,0.016110000000000003,0.01135,0.010310000000000001,0.0526064,0.08909180000000001,9.789073,31.030714279,121.44351064000001,16.152,351447.11331248947,3434046.177482378,191.03331248945324,266.7674823780544,0.0,0.0,0.0,0.0,-0.0,50,5,188
1672223590765.0,2022-12-28 18:33:10:701088,203.23999999999998,-0.45,0.2,3.5472071416079856,-0.00785398156722886,0.003490658474323938,-0.004770000000000001,-0.009030000000000002,-0.026480000000000004,0.053919600000000005,0.0839174,9.7887202,31.030714279,121.443510642,16.152,351447.1135033945,3434046.1774797044,191.0335033944575,266.7674797042273,0.0,0.0,0.0,0.0,-0.0,50,5,188
1672223590785.0,2022-12-28 18:33:10:721051,203.23999999999998,-0.45,0.2,3.5472071416079856,-0.00785398156722886,0.003490658474323938,-0.0017100000000000001,-0.04419000000000001,-0.01643,0.050666,0.0788214,9.7917974,31.030714279,121.44351064300001,16.152,351447.1135988458,3434046.177478367,191.0335988457664,266.7674783668481,0.0,0.0,0.0,0.0,-0.0,50,5,188
1672223590805.0,2022-12-28 18:33:10:741187,203.23999999999998,-0.45,0.2,3.5472071416079856,-0.00785398156722886,0.003490658474323938,0.022420000000000002,-0.026000000000000002,-0.01831,0.0450408,0.0745682,9.7950902,31.030714279,121.44351064400001,16.152,351447.1136942995,3434046.17747703,191.03369429946179,266.7674770299345,0.0,0.0,0.0,0.0,-0.0,50,5,188
1672223590825.0,2022-12-28 18:33:10:761094,203.23,-0.45,0.2,3.5470326086842694,-0.00785398156722886,0.003490658474323938,0.00063,0.00097,-0.046380000000000005,0.0353486,0.0728336,9.805419400000002,31.030714278,121.44351063900001,16.151,351447.11321548553,3434046.1773728705,191.0332154855132,266.7673728703521,0.0,0.0,0.0,0.0,-0.0,50,5,188
1672223590845.0,2022-12-28 18:33:10:781092,203.23999999999998,-0.45,0.2,3.5472071416079856,-0.00785398156722886,0.003490658474323938,-0.028710000000000003,0.00525,0.047360000000000006,0.0263718,0.0723828,9.8078008,31.030714278,121.44351064000001,16.151,351447.11331093684,3434046.1773715336,191.0333109368221,266.76737153343856,0.0,0.0,0.0,0.0,-0.0,50,5,188
1672223590865.0,2022-12-28 18:33:10:801085,203.23999999999998,-0.45,0.2,3.5472071416079856,-0.00785398156722886,0.003490658474323938,-0.01711,-0.02585,0.0034700000000000004,0.0226968,0.0707854,9.8008918,31.030714278,121.443510641,16.151,351447.1134063881,3434046.1773701967,191.03340638807276,266.767370196525,0.0,0.0,0.0,0.0,-0.0,50,5,188
1672223590885.0,2022-12-28 18:33:10:820990,203.23999999999998,-0.45,0.2,3.5472071416079856,-0.00785398156722886,0.003490658474323938,0.03654,-0.030160000000000003,-0.01921,0.019257,0.07056,9.7950608,31.030714278,121.443510642,16.151,351447.1135018418,3434046.1773688598,191.03350184176816,266.76736885961145,0.0,0.0,0.0,0.0,-0.0,50,5,188
1672223590905.0,2022-12-28 18:33:10:841274,203.23999999999998,-0.45,0.2,3.5472071416079856,-0.00785398156722886,0.003490658474323938,-0.03038,-0.0017400000000000002,0.01055,0.0225204,0.0693742,9.789269,31.030714278,121.44351064300001,16.151,351447.11359729315,3434046.177367523,191.03359729313524,266.7673675226979,0.0,0.0,0.0,0.0,-0.0,50,5,188
1672223590925.0,2022-12-28 18:33:10:861055,203.23999999999998,-0.45,0.2,3.5472071416079856,-0.00785398156722886,0.003490658474323938,0.018090000000000002,-0.056310000000000006,-0.0038900000000000002,0.023823800000000003,0.0670222,9.7869072,31.030714278,121.44351064400001,16.151,351447.11369274685,3434046.177366186,191.03369274683064,266.76736618578434,0.0,0.0,0.0,0.0,-0.0,50,5,188
1672223590945.0,2022-12-28 18:33:10:881170,203.23999999999998,-0.45,0.2,3.5472071416079856,-0.00785398156722886,0.003490658474323938,-0.02424,-0.00812,0.020450000000000003,0.0274988,0.065611,9.7808606,31.030714278,121.443510645,16.151,351447.1137881982,3434046.177364849,191.03378819819773,266.7673648488708,0.0,0.0,0.0,0.0,-0.0,50,5,188
1672223590965.0,2022-12-28 18:33:10:901038,203.23999999999998,-0.45,0.2,3.5472071416079856,-0.00785398156722886,0.003490658474323938,0.03619,-0.007070000000000001,-0.024190000000000003,0.0358582,0.0622986,9.774647400000001,31.030714278,121.44351064600001,16.151,351447.11388364946,3434046.177363512,191.0338836494484,266.7673635119572,0.0,0.0,0.0,0.0,-0.0,50,5,188
1672223590985.0,2022-12-28 18:33:10:921146,203.23,-0.45,0.2,3.5470326086842694,-0.00785398156722886,0.003490658474323938,-0.007280000000000001,0.01063,-0.025040000000000003,0.0404642,0.062426,9.7693064,31.030714278,121.44351064700001,16.151,351447.11397910316,3434046.1773621743,191.0339791031438,266.76736217411235,0.0,0.0,0.0,0.0,-0.0,50,5,188
1672223591005.0,2022-12-28 18:33:10:941169,203.23,-0.45,0.2,3.5470326086842694,-0.00785398156722886,0.003490658474323938,-0.03282,0.02416,-0.00013000000000000002,0.04131680000000001,0.0653366,9.775059,31.030714278,121.44351064800001,16.151,351447.1140745545,3434046.1773608383,191.03407455451088,266.7673608381301,0.0,0.0,0.0,0.0,-0.0,50,5,188
1672223591025.0,2022-12-28 18:33:10:961168,203.23,-0.45,0.2,3.5470326086842694,-0.00785398156722886,0.003490658474323938,-0.06718,0.023000000000000003,0.015200000000000002,0.035231,0.066787,9.7835164,31.030714278,121.443510642,16.151,351447.1135018418,3434046.1773688598,191.03350184176816,266.76736885961145,0.0,0.0,0.0,0.0,-0.0,50,5,188
1672223591045.0,2022-12-28 18:33:10:981099,203.23999999999998,-0.45,0.2,3.5472071416079856,-0.00785398156722886,0.003490658474323938,-0.053500000000000006,0.00939,0.02331,0.031026800000000004,0.0703934,9.7909056,31.030714278,121.44351064300001,16.151,351447.11359729315,3434046.177367523,191.03359729313524,266.7673675226979,0.0,0.0,0.0,0.0,-0.0,50,5,188
1672223591065.0,2022-12-28 18:33:11:000982,203.23999999999998,-0.45,0.2,3.5472071416079856,-0.00785398156722886,0.003490658474323938,-0.056870000000000004,-0.01382,0.011750000000000002,0.0319284,0.08619099999999999,9.7945708,31.030714278,121.44351064400001,16.151,351447.11369274685,3434046.177366186,191.03369274683064,266.76736618578434,0.0,0.0,0.0,0.0,-0.0,50,5,188
1672223591085.0,2022-12-28 18:33:11:021073,203.23999999999998,-0.45,0.2,3.5472071416079856,-0.00785398156722886,0.003490658474323938,-0.04569,-0.035,0.01854,0.0312522,0.0933548,9.79902,31.030714278,121.443510645,16.151,351447.1137881982,3434046.177364849,191.03378819819773,266.7673648488708,0.0,0.0,0.0,0.0,-0.0,50,5,188
1672223591105.0,2022-12-28 18:33:11:041148,203.23999999999998,-0.45,0.2,3.5472071416079856,-0.00785398156722886,0.003490658474323938,0.020560000000000002,-0.011430000000000001,-0.024120000000000003,0.0300566,0.0981666,9.827106800000001,31.030714278,121.44351064600001,16.151,351447.11388364946,3434046.177363512,191.0338836494484,266.7673635119572,0.0,0.0,0.0,0.0,-0.0,50,5,188
