gps_time,utc_time,heading,pitch,roll,heading_radians,pitch_radians,roll_radians,gyroX,gyroY,gyroZ,accX,accY,accZ,latitude,longitude,altitude,utm_x_position,utm_y_position,local_x,local_y,east_speed,north_speed,vertical_speed,vehicle_lat_speed,vehicle_lon_speed,position_type,GNSS_info1,GNSS_info2
1675216696370.0,2023-02-01 09:58:16:372387,296.03999999999996,-0.29,0.35000000000000003,5.166872673694292,-0.00506145478776971,0.006108652330066892,0.0497,-0.037770000000000005,-0.034280000000000005,0.056908600000000004,0.2585828,9.7597024,31.034510209,121.43652744200001,15.165000000000001,350786.4726069516,3434476.2956875684,-469.60739304841263,696.885687568225,0.03,-0.04,0.0,0.009394695090318435,0.049109466543223075,50,5,188
1675216696390.0,2023-02-01 09:58:16:389343,296.03999999999996,-0.28,0.35000000000000003,5.166872673694292,-0.0048869218640535134,0.006108652330066892,0.11889000000000001,-0.04726,-0.08197,0.046010999999999996,0.2458036,9.768493,31.034510206,121.436527447,15.165000000000001,350786.47307951294,3434476.295348318,-469.6069204870728,696.885348317679,0.03,-0.04,0.0,0.009394695090318435,0.049109466543223075,50,5,188
1675216696410.0,2023-02-01 09:58:16:409378,296.03,-0.28,0.35000000000000003,5.166698140770576,-0.0048869218640535134,0.006108652330066892,0.020370000000000003,-0.062340000000000007,-0.037950000000000005,0.046540200000000004,0.2583378,9.754479,31.034510199000003,121.436527436,15.164,350786.47201866296,3434476.2945871754,-469.60798133705975,696.8845871752128,0.03,-0.04,0.0,0.009403266165963462,0.04910782611164993,50,5,188
1675216696430.0,2023-02-01 09:58:16:429754,296.03,-0.28,0.35000000000000003,5.166698140770576,-0.0048869218640535134,0.006108652330066892,0.031090000000000003,-0.07538,-0.03126,0.0373772,0.2651684,9.7566644,31.034510195000003,121.43652744100001,15.163,350786.4724896669,3434476.29413708,-469.6075103331241,696.884137080051,0.03,-0.05,0.0,0.005014849619119625,0.05809347022942954,50,5,188
1675216696450.0,2023-02-01 09:58:16:449756,296.03,-0.28,0.35000000000000003,5.166698140770576,-0.0048869218640535134,0.006108652330066892,0.02125,-0.07044,-0.012140000000000001,0.035868,0.2385124,9.777107200000001,31.034510190000002,121.436527447,15.163,350786.4730545562,3434476.293574795,-469.60694544384023,696.8835747949779,0.03,-0.05,0.0,0.005014849619119625,0.05809347022942954,50,5,188
1675216696470.0,2023-02-01 09:58:16:469688,296.03,-0.28,0.35000000000000003,5.166698140770576,-0.0048869218640535134,0.006108652330066892,-0.033120000000000004,-0.0757,-0.012100000000000001,0.045129,0.2611308,9.790288199999999,31.034510185000002,121.43652745300001,15.163,350786.473619448,3434476.29301251,-469.60638055199524,696.8830125099048,0.03,-0.06,0.0,0.0006264330722757887,0.06707911434720913,50,5,188
1675216696490.0,2023-02-01 09:58:16:489350,296.03,-0.29,0.34,5.166698140770576,-0.00506145478776971,0.005934119406350695,-0.016390000000000002,-0.07231,0.031100000000000003,0.041953800000000006,0.2642766,9.7951,31.03451018,121.43652746000001,15.163,350786.4742797899,3434476.2924488806,-469.60572021012194,696.8824488804676,0.03,-0.06,0.0,0.0006264330722757887,0.06707911434720913,50,5,188
1675216696510.0,2023-02-01 09:58:16:509674,296.03,-0.29,0.34,5.166698140770576,-0.00506145478776971,0.005934119406350695,-0.006410000000000001,-0.12146000000000001,0.060450000000000004,0.0504308,0.2505664,9.8019208,31.034510175,121.436527466,15.163,350786.4748446793,3434476.2918865965,-469.6051553207217,696.8818865963258,0.04,-0.06,0.0,0.009612077190055395,0.07146753089405297,50,5,188
1675216696530.0,2023-02-01 09:58:16:529334,296.03,-0.29,0.34,5.166698140770576,-0.00506145478776971,0.005934119406350695,-0.005540000000000001,-0.12004000000000001,-0.0019000000000000002,0.0593194,0.2629928,9.79265,31.034510166,121.436527474,15.163,350786.47559422965,3434476.2908782456,-469.60440577036934,696.880878245458,0.04,-0.07,0.0,0.005223660643211555,0.08045317501183258,50,5,188
1675216696550.0,2023-02-01 09:58:16:549260,296.03,-0.29,0.34,5.166698140770576,-0.00506145478776971,0.005934119406350695,0.01811,-0.10849,0.012060000000000001,0.0610736,0.2522912,9.8050078,31.034510153000003,121.436527483,15.163,350786.4764329884,3434476.289425171,-469.60356701159617,696.8794251708314,0.04,-0.07,0.0,0.005223660643211555,0.08045317501183258,50,5,188
1675216696570.0,2023-02-01 09:58:16:569670,296.03,-0.28,0.34,5.166698140770576,-0.0048869218640535134,0.005934119406350695,0.041310000000000006,-0.09083000000000001,-0.02273,0.0673162,0.2519482,9.8022932,31.034510139,121.43652749300001,15.163,350786.47736563516,3434476.2878599064,-469.6026343648555,696.8778599062935,0.04,-0.07,0.0,0.005223660643211555,0.08045317501183258,50,5,188
1675216696590.0,2023-02-01 09:58:16:589616,296.03,-0.28,0.33,5.166698140770576,-0.0048869218640535134,0.005759586482634498,0.09464,-0.07551000000000001,-0.037860000000000005,0.06953100000000001,0.2594452,9.7907096,31.034510125,121.43652750300001,15.163,350786.47829828184,3434476.286294642,-469.601701718173,696.8762946417555,0.04,-0.08,0.0,0.0008352440963677182,0.08943881912961218,50,5,188
1675216696610.0,2023-02-01 09:58:16:609699,296.03,-0.28,0.33,5.166698140770576,-0.0048869218640535134,0.005759586482634498,0.06762,-0.07806,-0.021910000000000002,0.06786500000000001,0.2564464,9.780498,31.034510103000002,121.436527498,15.162,350786.4777867256,3434476.2838627645,-469.6022132743965,696.8738627643324,0.05,-0.08,0.0,0.009820888214147325,0.09382723567645603,50,5,188
1675216696630.0,2023-02-01 09:58:16:629566,296.03,-0.28,0.33,5.166698140770576,-0.0048869218640535134,0.005759586482634498,0.14052,-0.024300000000000002,-0.02408,0.062671,0.2520462,9.7958154,31.034510096,121.436527502,15.162,350786.4781576001,3434476.283081475,-469.6018423999194,696.8730814750306,0.05,-0.08,0.0,0.009820888214147325,0.09382723567645603,50,5,188
1675216696650.0,2023-02-01 09:58:16:649698,296.03,-0.28,0.33,5.166698140770576,-0.0048869218640535134,0.005759586482634498,0.07181000000000001,-0.04578,-0.06115,0.0500682,0.2609152,9.7880244,31.03451008,121.436527513,15.162,350786.47918257484,3434476.2812931766,-469.6008174251765,696.8712931764312,0.05,-0.09,0.0,0.0054324716673034915,0.10281287979423562,50,5,188
1675216696670.0,2023-02-01 09:58:16:669773,296.03,-0.28,0.33,5.166698140770576,-0.0048869218640535134,0.005759586482634498,0.018170000000000002,-0.07015,-0.03416,0.0499604,0.2556134,9.788563400000001,31.034510063000003,121.436527525,15.162,350786.4803014399,3434476.279392692,-469.59969856013777,696.8693926916458,0.05,-0.09,0.0,0.0054324716673034915,0.10281287979423562,50,5,188
1675216696690.0,2023-02-01 09:58:16:689742,296.03,-0.28,0.33,5.166698140770576,-0.0048869218640535134,0.005759586482634498,0.041280000000000004,-0.11299000000000001,-0.05893,0.0454916,0.249312,9.7883184,31.034510046,121.436527537,15.162,350786.4814203049,3434476.2774922047,-469.59857969509903,696.867492204532,0.05,-0.09,0.0,0.0054324716673034915,0.10281287979423562,50,5,188
1675216696710.0,2023-02-01 09:58:16:709753,296.03,-0.28,0.33,5.166698140770576,-0.0048869218640535134,0.005759586482634498,-0.024880000000000003,-0.07718000000000001,-0.02959,0.033868800000000004,0.25494700000000003,9.780939,31.034510027000003,121.436527549,15.162,350786.4825360504,3434476.27537003,-469.5974639496417,696.8653700300492,0.05,-0.1,0.0,0.0010440551204596513,0.11179852391201524,50,5,188
1675216696730.0,2023-02-01 09:58:16:729261,296.03,-0.28,0.33,5.166698140770576,-0.0048869218640535134,0.005759586482634498,-0.00487,-0.03672,-0.00674,0.0486668,0.2681868,9.7792828,31.034510009,121.43652756200001,15.162,350786.48374880326,3434476.273357355,-469.59625119675184,696.8633573548868,0.06,-0.1,0.0,0.01002969923823925,0.11618694045885908,50,5,188
1675216696750.0,2023-02-01 09:58:16:749432,296.03,-0.28,0.33,5.166698140770576,-0.0048869218640535134,0.005759586482634498,-0.044230000000000005,-0.02832,-0.051100000000000007,0.0494508,0.2985472,9.7667976,31.034509989000004,121.43652757500001,15.162,350786.484958439,3434476.2711229906,-469.59504156099865,696.8611229904927,0.06,-0.11,0.0,0.005641282691395411,0.12517258457663866,50,5,188
1675216696770.0,2023-02-01 09:58:16:769427,296.02,-0.28,0.32,5.166523607846861,-0.0048869218640535134,0.005585053558918301,-0.08164,-0.046470000000000004,-0.08055000000000001,0.0429534,0.33217100000000005,9.7502356,31.034509968000002,121.436527588,15.162,350786.48616651003,3434476.268777781,-469.5938334899838,696.8587777810171,0.06,-0.11,0.0,0.00566312934251801,0.12517159808059458,50,5,188
1675216696790.0,2023-02-01 09:58:16:789740,296.02,-0.28,0.32,5.166523607846861,-0.0048869218640535134,0.005585053558918301,-0.11048000000000001,-0.00687,-0.06505000000000001,0.047098799999999996,0.35917,9.736398000000001,31.034509947000004,121.43652760200001,15.161,350786.4874700337,3434476.2664312287,-469.5925299663213,696.8564312285744,0.06,-0.12,0.0,0.0012762811532449556,0.13415800798468153,50,5,188
1675216696810.0,2023-02-01 09:58:16:809754,296.02,-0.29,0.32,5.166523607846861,-0.00506145478776971,0.005585053558918301,-0.22889,-0.017230000000000002,-0.08709,0.04157160000000001,0.40174119999999996,9.746149,31.034509925000002,121.43652760200001,15.161,350786.4874357181,3434476.263992634,-469.5925642818911,696.8539926339872,0.07,-0.12,0.0,0.0102626910573319,0.13854485617395457,50,5,188
1675216696830.0,2023-02-01 09:58:16:829662,296.02,-0.29,0.33,5.166523607846861,-0.00506145478776971,0.005759586482634498,-0.21592000000000003,0.024040000000000002,-0.11251000000000001,0.0329378,0.42089040000000005,9.740700200000001,31.034509913,121.43652761400001,15.16,350786.4885623822,3434476.2626463743,-469.5914376178407,696.8526463741437,0.07,-0.13,0.0,0.005875842868058846,0.1475312660780415,50,5,188
1675216696850.0,2023-02-01 09:58:16:849669,296.02,-0.3,0.33,5.166523607846861,-0.005235987711485907,0.005759586482634498,-0.22060000000000002,-0.0029300000000000003,-0.11203,0.0340158,0.44667419999999997,9.7547926,31.034509888000002,121.43652763,15.16,350786.49005056196,3434476.259853755,-469.5899494380574,696.8498537549749,0.07,-0.14,0.0,0.001488994678785785,0.15651767598212846,50,5,188
1675216696870.0,2023-02-01 09:58:16:869315,296.01,-0.3,0.33,5.166349074923144,-0.005235987711485907,0.005759586482634498,-0.25945,0.027070000000000004,-0.14466,0.0271166,0.4596102,9.751980000000001,31.034509862,121.436527647,15.16,350786.4916326294,3434476.256948946,-469.58836737059755,696.8469489458948,0.08,-0.14,0.0,0.010503487560223394,0.16090269341770586,50,5,188
1675216696890.0,2023-02-01 09:58:16:889645,296.01,-0.3,0.33,5.166349074923144,-0.005235987711485907,0.005759586482634498,-0.21730000000000002,0.023840000000000004,-0.15037,0.027146,0.49147,9.7558216,31.034509834,121.43652766400001,15.16,350786.49321157986,3434476.2538224477,-469.586788420158,696.8438224475831,0.08,-0.15,-0.01,0.0061182078621521835,0.16988986883435836,50,5,188
1675216696910.0,2023-02-01 09:58:16:909565,296.01,-0.31,0.33,5.166349074923144,-0.005410520635202104,0.005759586482634498,-0.26688,-0.022840000000000003,-0.15626,0.0353584,0.5181260000000001,9.7653766,31.034509805000003,121.436527682,15.16,350786.49488441815,3434476.2505837614,-469.5851155818673,696.8405837612227,0.08,-0.16,-0.01,0.0017329281640809518,0.17887704425101097,50,5,188
1675216696930.0,2023-02-01 09:58:16:929248,296.0,-0.32,0.33,5.166174541999428,-0.005585053558918301,0.005759586482634498,-0.26281000000000004,0.01627,-0.14149,0.0360738,0.5417341999999999,9.7539008,31.034509774000004,121.436527701,15.159,350786.4966495845,3434476.247122042,-469.5833504155162,696.8371220417321,0.09,-0.17,-0.01,0.0063683776532143105,0.19224839080227968,50,5,188
1675216696950.0,2023-02-01 09:58:16:949606,296.0,-0.32,0.33,5.166174541999428,-0.005585053558918301,0.005759586482634498,-0.24141,0.008650000000000001,-0.16351000000000002,0.0415128,0.5547976,9.764622000000001,31.034509742,121.436527721,15.159,350786.4985086387,3434476.243548132,-469.58149136131397,696.8335481318645,0.09,-0.18,-0.01,0.001984666579928171,0.20123633145773284,50,5,188
1675216696970.0,2023-02-01 09:58:16:969812,296.0,-0.33,0.33,5.166174541999428,-0.005759586482634498,0.005759586482634498,-0.28465,0.042280000000000005,-0.16071000000000002,0.0400428,0.5565126,9.7747356,31.034509708,121.43652774200001,15.159,350786.5004600234,3434476.2397511904,-469.5795399766066,696.8297511902638,0.1,-0.19,-0.01,0.006588896162095237,0.2146079831864722,50,5,188
1675216696990.0,2023-02-01 09:58:16:989736,295.99,-0.33,0.33,5.166000009075712,-0.005759586482634498,0.005759586482634498,-0.28200000000000003,0.062310000000000004,-0.15469000000000002,0.0394646,0.5657246,9.794169,31.034509672000002,121.436527763,15.159,350786.5024082861,3434476.2357325586,-469.57759171392536,696.8257325585,0.1,-0.2,-0.01,0.002244209905343214,0.22359553555896583,50,5,188
1675216697010.0,2023-02-01 09:58:17:009712,295.99,-0.34,0.33,5.166000009075712,-0.005934119406350695,0.005759586482634498,-0.25609000000000004,0.043550000000000005,-0.15510000000000002,0.0392196,0.5828844,9.788142,31.034509635000003,121.43652778600001,15.158,350786.5045458891,3434476.231600394,-469.57545411091996,696.8216003938578,0.1,-0.21,-0.01,-0.002137932409622359,0.23258424117943133,50,5,188
1675216697030.0,2023-02-01 09:58:17:029313,295.99,-0.34,0.33,5.166000009075712,-0.005934119406350695,0.005759586482634498,-0.22653,0.08936000000000001,-0.135,0.0419342,0.6122452,9.7754902,31.034509599000003,121.43652779000001,15.156,350786.504871532,3434476.227604595,-469.57512846804457,696.817604594864,0.11,-0.22,-0.01,0.0024686308958775383,0.2459550891148624,50,5,188
1675216697050.0,2023-02-01 09:58:17:049657,295.98,-0.35000000000000003,0.33,5.165825476151996,-0.006108652330066892,0.005759586482634498,-0.27204,0.07139000000000001,-0.15288000000000002,0.050283800000000003,0.6417236000000001,9.769345600000001,31.034509559000004,121.436527814,15.156,350786.50709990086,3434476.2231385526,-469.57290009915596,696.8131385524757,0.11,-0.23,-0.01,-0.0018690153042910662,0.25494412482305284,50,5,188
1675216697070.0,2023-02-01 09:58:17:069704,295.98,-0.35000000000000003,0.33,5.165825476151996,-0.006108652330066892,0.005759586482634498,-0.24896000000000001,0.031810000000000005,-0.1323,0.0520968,0.6807178,9.7669446,31.034509516000004,121.43652784000001,15.156,350786.50951449055,3434476.218337288,-469.5704855094664,696.8083372879773,0.12,-0.24,-0.01,0.002739881584217771,0.26831416855787626,50,5,188
1675216697090.0,2023-02-01 09:58:17:089722,295.98,-0.36,0.33,5.165825476151996,-0.0062831852537830885,0.005759586482634498,-0.30870000000000003,0.00621,-0.14884,0.052479,0.714469,9.7721288,31.034509471000003,121.436527866,15.156,350786.5119259582,3434476.2133143335,-469.5680740418029,696.8033143333159,0.13,-0.25,-0.01,0.007348778472726608,0.28168421229269985,50,5,188
1675216697110.0,2023-02-01 09:58:17:109631,295.97,-0.36,0.33,5.16565094322828,-0.0062831852537830885,0.005759586482634498,-0.30418,-0.01726,-0.13846,0.070658,0.7312956,9.7936594,31.034509424000003,121.43652789500001,15.155000000000001,350786.5146206516,3434476.208065658,-469.5653793484089,696.7980656577274,0.13,-0.26,-0.01,0.0030189371317756453,0.2906731601276499,50,5,188
1675216697130.0,2023-02-01 09:58:17:129661,295.97,-0.37,0.33,5.16565094322828,-0.0064577181774992855,0.005759586482634498,-0.31666000000000005,0.02799,-0.19078,0.0637784,0.737842,9.8150822,31.034509375000003,121.436527924,15.155000000000001,350786.5173122255,3434476.2025952926,-469.56268777453806,696.7925952924415,0.14,-0.27,-0.01,0.007630167462898366,0.30404239925459103,50,5,188
1675216697150.0,2023-02-01 09:58:17:149609,295.97,-0.38,0.34,5.16565094322828,-0.006632251101215482,0.005934119406350695,-0.25528,0.017910000000000002,-0.18404,0.0370636,0.7392924,9.8370832,31.034509324000002,121.436527955,15.155000000000001,350786.5201915775,3434476.1969005517,-469.5598084225203,696.786900551524,0.14,-0.29,-0.01,-0.0011278413329200432,0.3220228687126549,50,5,188
1675216697170.0,2023-02-01 09:58:17:169688,295.96000000000004,-0.38,0.33,5.165476410304564,-0.006632251101215482,0.005759586482634498,-0.25384,-0.03672,-0.19889,0.0434336,0.7371854,9.8579082,31.034509271,121.436527987,15.155000000000001,350786.5231632601,3434476.1909827767,-469.5568367399392,696.780982776545,0.15,-0.3,-0.01,0.0035419259100230027,0.335391494765219,50,5,188
1675216697190.0,2023-02-01 09:58:17:189730,295.96000000000004,-0.39,0.33,5.165476410304564,-0.006806784024931679,0.005759586482634498,-0.26776,-0.06263,-0.17183,0.0290374,0.7062272,9.8762146,31.034509215000003,121.43652802000001,15.154,350786.5262257084,3434476.1847311235,-469.55377429159125,696.7747311233543,0.16,-0.31,0.0,0.00815548954329351,0.34875992887702745,50,5,188
1675216697210.0,2023-02-01 09:58:17:209585,295.95,-0.39,0.33,5.165301877380847,-0.006806784024931679,0.005759586482634498,-0.23825000000000002,-0.045700000000000005,-0.23503000000000002,0.0101234,0.6945553999999999,9.863964600000001,31.034509144,121.436528041,15.153,350786.5281193807,3434476.1768329088,-469.55188061931403,696.7668329086155,0.16,-0.32,0.0,0.003840493561547087,0.35775026290584855,50,5,188
1675216697230.0,2023-02-01 09:58:17:229669,295.95,-0.39,0.33,5.165301877380847,-0.006806784024931679,0.005759586482634498,-0.10589000000000001,-0.02154,-0.16525,0.0106624,0.7038752,9.8671006,31.034509083000003,121.436528076,15.153,350786.5313649279,3434476.1700243433,-469.54863507213304,696.7600243431516,0.16,-0.33,0.0,-0.0005353723857373371,0.36674202564801406,50,5,188
1675216697250.0,2023-02-01 09:58:17:249707,295.95,-0.39,0.33,5.165301877380847,-0.006806784024931679,0.005759586482634498,-0.12419000000000001,-0.10574000000000001,-0.17403000000000002,0.0100254,0.703199,9.8734706,31.034509021,121.436528112,15.153,350786.5347043653,3434476.163103589,-469.5452956347144,696.7531035887077,0.17,-0.35000000000000003,0.0,-0.0002953415381406477,0.3891014170796296,50,5,188
1675216697270.0,2023-02-01 09:58:17:269780,295.94,-0.4,0.33,5.165127344457131,-0.006981316948647876,0.005759586482634498,-0.044890000000000006,-0.09816000000000001,-0.18827000000000002,0.0172872,0.6753572000000001,9.868413799999999,31.034508957000003,121.43652814900001,15.152000000000001,350786.5381361308,3434476.155959801,-469.5418638692354,696.7459598006681,0.17,-0.36,0.0,-0.004601727048045845,0.39809398903798493,50,5,188
1675216697290.0,2023-02-01 09:58:17:289641,295.94,-0.4,0.33,5.165127344457131,-0.006981316948647876,0.005759586482634498,0.00936,-0.10169,-0.17592000000000002,0.0412972,0.653023,9.8518714,31.034508891,121.43652818800001,15.152000000000001,350786.54175567196,3434476.148591636,-469.53824432805413,696.7385916360654,0.18,-0.37,0.0,1.6502767837572874e-05,0.4114608118978752,50,5,188
1675216697310.0,2023-02-01 09:58:17:309658,295.93,-0.39,0.33,5.164952811533415,-0.006806784024931679,0.005759586482634498,0.01071,-0.03517,-0.20689000000000002,0.061005000000000004,0.6655474,9.813220200000002,31.034508823000003,121.43652822700001,15.152000000000001,350786.54537209606,3434476.1410017824,-469.53462790395133,696.731001782231,0.19,-0.38,0.0,0.004708878921923287,0.42482681937384636,50,5,188
1675216697330.0,2023-02-01 09:58:17:329677,295.93,-0.4,0.33,5.164952811533415,-0.006981316948647876,0.005759586482634498,-0.01632,-0.02791,-0.23168000000000002,0.0680316,0.7158312,9.7629658,31.034508753,121.436528268,15.152000000000001,350786.5491762958,3434476.1331875497,-469.5308237042045,696.7231875495054,0.19,-0.39,0.0,0.0003361519584496042,0.4338201090335265,50,5,188
1675216697350.0,2023-02-01 09:58:17:349565,295.91999999999996,-0.4,0.32,5.164778278609698,-0.006981316948647876,0.005585053558918301,-0.03415,-0.05287000000000001,-0.26968000000000003,0.0762636,0.7511308,9.7071548,31.034508682000002,121.43652830900001,15.152000000000001,350786.5529789359,3434476.1252624732,-469.527021064132,696.7152624730952,0.2,-0.4,0.0,0.0050347632807213605,0.44718525373575,50,5,188
1675216697370.0,2023-02-01 09:58:17:369680,295.91999999999996,-0.4,0.32,5.164778278609698,-0.006981316948647876,0.005585053558918301,-0.12739,-0.05706000000000001,-0.339,0.0716086,0.7589610000000001,9.693670000000001,31.034508607000003,121.43652835300001,15.152000000000001,350786.557061682,3434476.116889986,-469.5229383180267,696.7068899860606,0.2,-0.41000000000000003,0.0,0.0006636060089782736,0.4561793064432722,50,5,188
1675216697390.0,2023-02-01 09:58:17:389371,295.90999999999997,-0.4,0.32,5.164603745685982,-0.006981316948647876,0.005585053558918301,-0.13119,-0.12016,-0.31852,0.0741566,0.7329518,9.7145244,31.034508531,121.43652839800001,15.152000000000001,350786.5612383161,3434476.1084053125,-469.5187616838957,696.6984053123742,0.21,-0.42,0.0,0.00536845234108943,0.4695435866024169,50,5,188
1675216697410.0,2023-02-01 09:58:17:409370,295.9,-0.4,0.32,5.164429212762266,-0.006981316948647876,0.005585053558918301,-0.19663000000000003,-0.07173,-0.36057000000000006,0.0627004,0.7469658,9.733232600000001,31.034508440000003,121.436528433,15.151,350786.56443707197,3434476.09827139,-469.5155629280489,696.6882713898085,0.22,-0.44,0.0,0.005709946077407602,0.4919018159305707,50,5,188
1675216697430.0,2023-02-01 09:58:17:429650,295.9,-0.41000000000000003,0.32,5.164429212762266,-0.007155849872364073,0.005585053558918301,-0.22808,-0.12208000000000001,-0.3698,0.0582806,0.8146249999999999,9.726255,31.034508388000003,121.436528476,15.151,350786.5684602434,3434476.092449686,-469.51153975661146,696.6824496858753,0.22,-0.45,0.0,0.0013419285885370724,0.5008973939118303,50,5,188
1675216697450.0,2023-02-01 09:58:17:449640,295.89,-0.42,0.31,5.16425467983855,-0.007330382796080269,0.005410520635202104,-0.25577,-0.12895,-0.38841000000000003,0.044188200000000004,0.8600774,9.7208258,31.034508305000003,121.43652852500001,15.151,350786.57300775434,3434476.083183721,-469.50699224567506,696.6731837210245,0.23,-0.46,-0.01,0.006059244463579944,0.5142599396769406,50,5,188
1675216697470.0,2023-02-01 09:58:17:469226,295.88,-0.42,0.31,5.164080146914833,-0.007330382796080269,0.005410520635202104,-0.36227000000000004,-0.07988,-0.43156000000000005,0.031115,0.8983954,9.726108,31.034508220000003,121.43652857500001,15.15,350786.57764759345,3434476.073694725,-469.50235240656184,696.6636947249062,0.24,-0.48,-0.01,0.006416347473035017,0.5366179557982618,50,5,188
1675216697490.0,2023-02-01 09:58:17:489730,295.87,-0.43,0.31,5.163905613991118,-0.007504915719796466,0.005410520635202104,-0.28190000000000004,-0.09451000000000001,-0.44951,0.0159054,0.8917020000000001,9.7476386,31.034508131000003,121.436528627,15.15,350786.5824720912,3434476.06375966,-469.49752790882485,696.6537596597336,0.24,-0.49,-0.01,0.0021466980588259743,0.5456146915978749,50,5,188
1675216697510.0,2023-02-01 09:58:17:509293,295.86,-0.43,0.31,5.163731081067402,-0.007504915719796466,0.005410520635202104,-0.31560000000000005,-0.0175,-0.40044,-0.0043708,0.9158786000000001,9.7697474,31.034508040000002,121.43652868000001,15.15,350786.58738891693,3434476.0536015616,-469.49261108308565,696.6436015614308,0.25,-0.51,-0.01,0.0025170783396523677,0.5679732954256143,50,5,188
1675216697530.0,2023-02-01 09:58:17:529710,295.85,-0.44,0.31,5.163556548143686,-0.0076794486435126635,0.005410520635202104,-0.43548000000000003,-0.08445000000000001,-0.37448000000000004,-0.014219800000000001,0.9992374,9.7297144,31.034507947,121.43652873500001,15.15,350786.5924935208,3434476.0432190876,-469.4875064791995,696.6332190874964,0.26,-0.53,-0.01,0.0028952633024421637,0.5903317859055275,50,5,188
1675216697550.0,2023-02-01 09:58:17:549397,295.85,-0.45,0.31,5.163556548143686,-0.00785398156722886,0.005410520635202104,-0.36718,-0.09282000000000001,-0.37652,-0.015219400000000001,1.0146038,9.7433658,31.03450785,121.436528791,15.149000000000001,350786.5976873308,3434476.032391889,-469.48231266922085,696.6223918888718,0.27,-0.54,-0.01,0.007534483968250544,0.6036913379793785,50,5,188
1675216697570.0,2023-02-01 09:58:17:569321,295.84000000000003,-0.46,0.31,5.16338201521997,-0.008028514490945058,0.005410520635202104,-0.40065,-0.14006000000000002,-0.36017000000000005,-0.019110000000000002,0.9857232,9.7786164,31.034507750000003,121.43652884800001,15.149000000000001,350786.6029719139,3434476.0212308113,-469.4770280861412,696.6112308111042,0.27,-0.56,-0.01,-0.001077342029612266,0.6216903082195759,50,5,188
1675216697590.0,2023-02-01 09:58:17:589720,295.83,-0.47000000000000003,0.3,5.163207482296253,-0.008203047414661255,0.005235987711485907,-0.36122000000000004,-0.20035000000000003,-0.30178000000000005,-0.0067031999999999994,1.0279416000000001,9.793189,31.034507646,121.43652890700001,15.149000000000001,350786.6084411532,3434476.0096236668,-469.47155884682434,696.5996236666106,0.28,-0.58,-0.01,-0.0006819769001910059,0.644049326455286,50,5,188
1675216697610.0,2023-02-01 09:58:17:609707,295.83,-0.47000000000000003,0.3,5.163207482296253,-0.008203047414661255,0.005235987711485907,-0.34611000000000003,-0.17869000000000002,-0.3355,0.020080200000000003,1.0676805999999999,9.7839672,31.034507520000002,121.43652895800001,15.147,350786.6131124884,3434475.9955886747,-469.466887511604,696.5855886745267,0.29,-0.6,-0.01,-0.00039511721376794817,0.6664081661282276,50,5,188
1675216697630.0,2023-02-01 09:58:17:629697,295.82,-0.48,0.29,5.163032949372536,-0.00837758033837745,0.00506145478776971,-0.30300000000000005,-0.17691,-0.32207,0.0286356,1.0585666,9.8064288,31.034507437000002,121.436529006,15.147,350786.61756454944,3434475.9863240537,-469.4624354505795,696.5763240535744,0.3,-0.61,-0.01,0.004367408031885622,0.679765346091637,50,5,188
1675216697650.0,2023-02-01 09:58:17:649484,295.81,-0.48,0.29,5.16285841644882,-0.00837758033837745,0.00506145478776971,-0.24939000000000003,-0.22868000000000002,-0.33221,0.0472752,1.0492468,9.815503600000001,31.034507324000003,121.43652907,15.147,350786.62349699374,3434475.973712587,-469.4565030062804,696.5637125866488,0.31,-0.63,-0.01,0.004780713774164336,0.7021233116595756,50,5,188
1675216697670.0,2023-02-01 09:58:17:669737,295.81,-0.49,0.29,5.16285841644882,-0.008552113262093647,0.00506145478776971,-0.23175,-0.23463000000000003,-0.38322,0.0700504,1.0756284,9.8136122,31.034507208,121.436529136,15.147,350786.629615654,3434475.9607658987,-469.45038434601156,696.5507658985443,0.31,-0.65,-0.01,-0.003927049996089005,0.7201281679522946,50,5,188
1675216697690.0,2023-02-01 09:58:17:689349,295.79999999999995,-0.49,0.28,5.162683883525103,-0.008552113262093647,0.0048869218640535134,-0.20324,-0.22924000000000003,-0.42511000000000004,0.0751758,1.1012946,9.8137886,31.03450709,121.43652920400001,15.146,350786.63592209236,3434475.9475948345,-469.444077907654,696.5375948343426,0.32,-0.66,-0.01,0.000849513443948402,0.7334843408873216,50,5,188
1675216697710.0,2023-02-01 09:58:17:709289,295.78999999999996,-0.5,0.28,5.162509350601387,-0.008726646185809844,0.0048869218640535134,-0.16323000000000001,-0.24386000000000002,-0.46585000000000004,0.0810362,1.1069198,9.803743599999999,31.034506968000002,121.43652927400001,15.146,350786.6424131894,3434475.933977703,-469.43758681061445,696.5239777029492,0.33,-0.68,-0.01,0.00127999962676012,0.7558428154060576,50,5,188
1675216697730.0,2023-02-01 09:58:17:729710,295.78,-0.5,0.27,5.162334817677672,-0.008726646185809844,0.004712388940337316,-0.08641,-0.28872000000000003,-0.5101,0.0698054,1.1248930000000001,9.7598494,31.034506842000003,121.43652934600001,15.146,350786.64908894256,3434475.9199145036,-469.43091105745407,696.5099145034328,0.34,-0.7000000000000001,-0.01,0.0017182904060504267,0.7782011613188974,50,5,188
1675216697750.0,2023-02-01 09:58:17:749394,295.77,-0.5,0.26,5.162160284753956,-0.008726646185809844,0.004537856016621119,-0.10075,-0.31071000000000004,-0.5812400000000001,0.054860400000000004,1.1761078,9.7471094,31.034506714000003,121.43652942000001,15.146,350786.65595247387,3434475.9056269275,-469.42404752614675,696.4956269273534,0.35000000000000003,-0.72,-0.01,0.0021643857499235586,0.8005593765826028,50,5,188
1675216697770.0,2023-02-01 09:58:17:769389,295.75,-0.5,0.26,5.161811218906523,-0.008726646185809844,0.004537856016621119,-0.07292000000000001,-0.36585,-0.6047100000000001,0.0332122,1.1670036,9.7656216,31.034506581000002,121.43652949700001,15.145,350786.6630945492,3434475.8907810966,-469.4169054508093,696.4807810964994,0.36,-0.74,-0.01,0.002761911775521042,0.8229169896431501,50,5,188
1675216697790.0,2023-02-01 09:58:17:789725,295.74,-0.5,0.25,5.161636685982807,-0.008726646185809844,0.004363323092904922,-0.09817000000000001,-0.45908000000000004,-0.6076600000000001,0.028919800000000002,1.1985792,9.751735,31.034506446,121.43652957500001,15.145,350786.6703289551,3434475.8757122317,-469.40967104490846,696.4657122315839,0.37,-0.76,-0.01,0.003227518341916036,0.8452748565557553,50,5,188
1675216697810.0,2023-02-01 09:58:17:809734,295.73,-0.51,0.24,5.161462153059091,-0.008901179109526041,0.004188790169188725,-0.19704000000000002,-0.24528000000000003,-0.6251000000000001,-0.037436,1.147923,9.672453,31.034506281000002,121.43652964700001,15.144,350786.6769438788,3434475.8573260712,-469.40305612119846,696.4473260710947,0.38,-0.78,-0.01,0.0037009293503565965,0.8676325853274205,50,5,188
1675216697830.0,2023-02-01 09:58:17:829653,295.71000000000004,-0.51,0.25,5.1611130872116595,-0.008901179109526041,0.004363323092904922,-0.31873,0.10762000000000001,-0.6458200000000001,-0.1536346,1.0180926,9.751441,31.034506178,121.43652971700001,15.145,350786.68346460955,3434475.8458149983,-469.3965353904641,696.4358149981126,0.39,-0.8,-0.01,0.004337477289331648,0.8899894304376679,50,5,188
1675216697850.0,2023-02-01 09:58:17:849647,295.7,-0.53,0.25,5.1609385542879425,-0.009250244956958436,0.004363323092904922,-0.5691700000000001,0.42761000000000005,-0.49174000000000007,-0.13207460000000001,1.026354,9.7341538,31.034506032000003,121.4365298,15.145,350786.69115909847,3434475.8295201203,-469.388840901549,696.4195201201364,0.39,-0.81,-0.01,0.00015621922918163111,0.8989994302531858,50,5,188
1675216697870.0,2023-02-01 09:58:17:869700,295.69,-0.54,0.27,5.160764021364226,-0.009424777880674633,0.004712388940337316,-0.6114900000000001,0.5507700000000001,-0.5345000000000001,-0.1589364,1.0349878000000001,9.8580062,31.034505883,121.43652988400001,15.145,350786.69894435816,3434475.8128913655,-469.38105564186117,696.4028913653456,0.4,-0.8300000000000001,-0.01,0.0006546159519243422,0.9213574612917376,50,5,188
1675216697890.0,2023-02-01 09:58:17:889646,295.68,-0.55,0.28,5.16058948844051,-0.00959931080439083,0.0048869218640535134,-0.5230600000000001,0.44283000000000006,-0.44901,-0.1732738,0.9929556,9.8773318,31.034505730000003,121.436529968,15.144,350786.7067233786,3434475.795819229,-469.3732766213943,696.3858192288317,0.4,-0.85,-0.01,-0.007851466516007932,0.9393819002267118,50,5,188
1675216697910.0,2023-02-01 09:58:17:909642,295.68,-0.56,0.28,5.16058948844051,-0.009773843728107027,0.0048869218640535134,-0.5103300000000001,0.2023,-0.45072,-0.0654836,1.1765978000000001,9.887808,31.034505574,121.436530054,15.144,350786.7146886176,3434475.7784118704,-469.3653113823966,696.3684118702076,0.41000000000000003,-0.87,-0.01,-0.0075060725746173285,0.9617399122811243,50,5,188
1675216697930.0,2023-02-01 09:58:17:929576,295.65999999999997,-0.56,0.28,5.160240422593077,-0.009773843728107027,0.0048869218640535134,-0.26523,-0.11384000000000001,-0.56096,0.04116,1.2831924000000001,9.8453152,31.034505415,121.43653014200001,15.144,350786.72284007235,3434475.760669291,-469.357159927662,696.3506692908704,0.42,-0.89,-0.01,-0.00681716322803394,0.9841003639291688,50,5,188
1675216697950.0,2023-02-01 09:58:17:949337,295.65,-0.5700000000000001,0.27,5.160065889669361,-0.009948376651823224,0.004712388940337316,-0.1338,-0.27897,-0.76924,0.231721,1.4145124,9.7832518,31.034505251000002,121.43653023200001,15.144,350786.7311746261,3434475.7423697985,-469.3488253739197,696.3323697983287,0.43,-0.92,-0.01,-0.010617030110080306,1.0154739182626218,50,5,188
1675216697970.0,2023-02-01 09:58:17:969725,295.63,-0.5700000000000001,0.27,5.159716823821928,-0.009948376651823224,0.004712388940337316,-0.32808000000000004,-0.19764,-0.9843200000000001,0.3344936,1.6111102,9.612918,31.034505084000003,121.43653032600001,15.144,350786.7398862935,3434475.723732398,-469.3401137065375,696.3137323977426,0.45,-0.9400000000000001,-0.01,-0.0008815955312451718,1.042160843051263,50,5,188
1675216697990.0,2023-02-01 09:58:17:989633,295.6,-0.58,0.27,5.159193225050781,-0.01012290957553942,0.004712388940337316,-0.31919000000000003,-0.11162000000000001,-1.26356,0.30408419999999997,1.6878246000000001,9.664466000000001,31.034504911000003,121.43653042400001,15.143,350786.74897039763,3434475.7044245536,-469.33102960238466,696.2944245534018,0.47000000000000003,-0.97,-0.01,0.004738158330573394,1.0778578523421511,50,5,188
1675216698010.0,2023-02-01 09:58:18:009290,295.57,-0.58,0.26,5.158669626279631,-0.01012290957553942,0.004537856016621119,-0.27371,-0.17457,-1.38297,0.251027,1.6365706,9.7151124,31.034504734000002,121.43653052600001,15.143,350786.75843005336,3434475.684667956,-469.32156994665274,696.274667955935,0.49,-0.99,-0.01,0.014711426894713442,1.1045286659560818,50,5,188
1675216698030.0,2023-02-01 09:58:18:029303,295.53999999999996,-0.59,0.26,5.158146027508482,-0.010297442499255616,0.004537856016621119,-0.20194,-0.39263000000000003,-1.4832100000000001,0.128527,1.6030056000000001,9.7954822,31.034504582,121.436530597,15.139000000000001,350786.76496980456,3434475.6677241265,-469.31503019545926,696.2577241263352,0.5,-1.02,-0.01,0.0113783677318684,1.1359007583181546,50,5,188
1675216698050.0,2023-02-01 09:58:18:049594,295.51,-0.59,0.24,5.1576224287373345,-0.010297442499255616,0.004188790169188725,0.12872,-0.68079,-1.4468200000000002,-0.015160600000000002,1.5122576,9.8733432,31.034504396000003,121.43653070500001,15.139000000000001,350786.77498811536,3434475.6469618655,-469.3050118846586,696.236961865332,0.51,-1.04,-0.01,0.012384852266511814,1.1582515337500472,50,5,188
1675216698070.0,2023-02-01 09:58:18:069600,295.49,-0.58,0.22,5.157273362889902,-0.01012290957553942,0.0038397243217563317,0.3759,-1.09908,-1.30116,-0.0816438,1.4434322000000002,9.904124999999999,31.034504206,121.43653081500001,15.138,350786.7851910824,3434475.625753534,-469.2948089176207,696.2157535338774,0.52,-1.07,-0.01,0.008905156239985279,1.1896304880896176,50,5,188
1675216698090.0,2023-02-01 09:58:18:089260,295.47,-0.5700000000000001,0.19,5.15692429704247,-0.009948376651823224,0.003316125550607741,0.56586,-1.5128700000000002,-1.1734300000000002,-0.09521679999999999,1.5046430000000002,9.853557000000002,31.034504011000003,121.436530927,15.138,350786.7955771483,3434475.603988292,-469.2844228516915,696.1939882920124,0.53,-1.09,-0.01,0.009747752894908146,1.211983903075243,50,5,188
1675216698110.0,2023-02-01 09:58:18:109686,295.45,-0.55,0.15,5.1565752311950375,-0.00959931080439083,0.0026179938557429534,0.78754,-1.8826500000000002,-0.9423600000000001,-0.0698348,1.5399230000000002,9.829194200000002,31.034503811,121.43653104100001,15.138,350786.80614631297,3434475.5816661376,-469.27385368704563,696.1716661374085,0.55,-1.12,-0.01,0.015338330330974759,1.247663710950454,50,5,188
1675216698130.0,2023-02-01 09:58:18:129323,295.43,-0.53,0.11,5.156226165347605,-0.009250244956958436,0.0019198621608781659,0.9130400000000001,-2.19646,-0.7935200000000001,-0.0406406,1.4979202,9.8017346,31.034503606,121.43653115800001,15.138,350786.81699402176,3434475.5587857286,-469.2630059782532,696.1487857284956,0.56,-1.1500000000000001,0.0,0.011922711549847864,1.2790456789924662,50,5,188
1675216698150.0,2023-02-01 09:58:18:149599,295.41999999999996,-0.51,0.06,5.156051632423888,-0.008901179109526041,0.0010471975422971813,0.9511200000000001,-2.43536,-0.6230500000000001,-0.010907400000000001,1.4636692,9.7684636,31.034503397,121.43653127700001,15.138,350786.82802638924,3434475.5354592525,-469.2519736107788,696.125459252391,0.5700000000000001,-1.17,0.0,0.012592794425557496,1.3013997931183774,50,5,188
1675216698170.0,2023-02-01 09:58:18:169680,295.40999999999997,-0.49,0.01,5.155877099500172,-0.008552113262093647,0.0001745329237161969,1.05416,-2.51155,-0.5360400000000001,0.045099600000000004,1.4402374,9.697296,31.034503183,121.436531399,15.137,350786.8393373031,3434475.5115745217,-469.24066269688774,696.1015745215118,0.58,-1.19,-0.01,0.013270680708591831,1.3237537116221925,50,5,188
1675216698190.0,2023-02-01 09:58:18:189612,295.4,-0.47000000000000003,-0.03,5.155702566576456,-0.008203047414661255,-0.0005235987711485906,0.9241,-2.49365,-0.50041,0.07199080000000001,1.3625234,9.7140736,31.034502966,121.43653152300001,15.137,350786.85083443543,3434475.4873545677,-469.2291655645822,696.0773545675911,0.59,-1.22,-0.01,0.009667019412723521,1.3551407855775257,50,5,188
1675216698210.0,2023-02-01 09:58:18:209678,295.39,-0.46,-0.08,5.15552803365274,-0.008028514490945058,-0.0013962633897295752,0.80252,-2.41826,-0.52346,0.0509992,1.3287624,9.7144362,31.034502708,121.43653164700001,15.135,350786.86226761644,3434475.4585899627,-469.21773238357855,696.0485899625346,0.61,-1.24,-0.01,0.019396190660752488,1.3817828294590475,50,5,188
1675216698230.0,2023-02-01 09:58:18:229331,295.37,-0.45,-0.12,5.155178967805308,-0.00785398156722886,-0.0020943950845943625,0.7068700000000001,-2.25444,-0.62404,0.0562324,1.3036352000000002,9.7135934,31.034502536,121.436531759,15.135,350786.87268955784,3434475.43937416,-469.20731044217246,696.0293741598725,0.62,-1.26,-0.01,0.020344879444906594,1.404131790780471,50,5,188
1675216698250.0,2023-02-01 09:58:18:249651,295.36,-0.44,-0.16,5.155004434881592,-0.0076794486435126635,-0.0027925267794591505,0.49381,-2.0650500000000003,-0.75804,0.0354466,1.2738726,9.7351632,31.034502307,121.436531891,15.134,350786.884931559,3434475.4138133186,-469.19506844104035,696.0038133184426,0.63,-1.28,-0.01,0.021060204960635875,1.4264839528599738,50,5,188
1675216698270.0,2023-02-01 09:58:18:269656,295.34000000000003,-0.43,-0.2,5.15465536903416,-0.007504915719796466,-0.003490658474323938,0.36992,-1.91884,-0.9407200000000001,-0.025646600000000002,1.2964518,9.739308600000001,31.034502074000002,121.436532025,15.134,350786.8973582188,3434475.387806412,-469.18264178122627,695.9778064116836,0.64,-1.3,-0.01,0.02203620269196871,1.448832083359186,50,5,188
1675216698290.0,2023-02-01 09:58:18:289701,295.32,-0.43,-0.24,5.1543063031867264,-0.007504915719796466,-0.004188790169188725,0.17727,-1.73595,-1.15152,-0.0699818,1.2875828,9.7701296,31.034501837,121.436532162,15.134,350786.9100649849,3434475.361352092,-469.1699350150884,695.9513520919718,0.65,-1.32,-0.01,0.02302780486908007,1.4711797035722427,50,5,188
1675216698310.0,2023-02-01 09:58:18:309686,295.28999999999996,-0.42,-0.26,5.153782704415578,-0.007330382796080269,-0.004537856016621119,0.03817,-1.4389200000000002,-1.3659400000000002,-0.1442854,1.297275,9.7685224,31.034501596000002,121.43653230000001,15.133000000000001,350786.9228609621,3434475.3344530514,-469.1571390379104,695.9244530512951,0.66,-1.35,-0.01,0.02002368023521439,1.5025641591059724,50,5,188
1675216698330.0,2023-02-01 09:58:18:329551,295.26,-0.43,-0.29,5.1532591056444295,-0.007504915719796466,-0.00506145478776971,-0.10672000000000001,-1.19018,-1.5715100000000002,-0.22540980000000002,1.3422178,9.7813506,31.034501351000003,121.43653244100001,15.133000000000001,350786.93593704305,3434475.3071066006,-469.1440629569697,695.8971066004597,0.67,-1.37,-0.01,0.021319694182526883,1.5249083482753854,50,5,188
1675216698350.0,2023-02-01 09:58:18:349320,295.22,-0.43,-0.3,5.152560973949566,-0.007504915719796466,-0.005235987711485907,-0.13573000000000002,-0.8616300000000001,-1.7290500000000002,-0.3200386,1.3119456,9.8000882,31.034501102000004,121.436532583,15.133000000000001,350786.94910233264,3434475.279315425,-469.1308976673754,695.869315424934,0.67,-1.3900000000000001,-0.01,0.013862374345680606,1.5429866605312894,50,5,188
1675216698370.0,2023-02-01 09:58:18:369615,295.19,-0.44,-0.31,5.152037375178416,-0.0076794486435126635,-0.005410520635202104,-0.27312000000000003,-0.53512,-1.7893700000000001,-0.39497920000000003,1.3220004,9.848804000000001,31.034500848,121.43653272600001,15.132,350786.96235527354,3434475.2509686803,-469.1176447264734,695.8409686801024,0.68,-1.42,-0.01,0.010950652325681598,1.5743824450284125,50,5,188
1675216698390.0,2023-02-01 09:58:18:389671,295.15,-0.44,-0.32,5.151339243483551,-0.0076794486435126635,-0.005585053558918301,-0.19976000000000002,-0.18166000000000002,-1.87572,-0.4269076,1.3315554,9.858760799999999,31.034500589,121.43653287000001,15.132,350786.9756958631,3434475.2220663656,-469.1043041369412,695.812066365499,0.68,-1.45,-0.01,-0.0006999085280467998,1.6015303650346604,50,5,188
1675216698410.0,2023-02-01 09:58:18:409628,295.11,-0.44,-0.32,5.150641111788687,-0.0076794486435126635,-0.005585053558918301,-0.19963000000000003,0.10976000000000001,-1.81685,-0.4508294,1.2976670000000001,9.8620242,31.034500284000003,121.43653301500001,15.131,350786.98906015255,3434475.1880638306,-469.0909398474614,695.7780638304539,0.6900000000000001,-1.47,-0.01,0.0009859697656876554,1.6238839330024857,50,5,188
1675216698430.0,2023-02-01 09:58:18:429564,295.08,-0.45,-0.31,5.150117513017538,-0.00785398156722886,-0.005410520635202104,-0.11908,0.39651000000000003,-1.75208,-0.5042198,1.3248228000000002,9.869158599999999,31.034500069000003,121.436533178,15.131,350787.00428289326,3434475.1640131865,-469.07571710675256,695.7540131863207,0.6900000000000001,-1.5,-0.01,-0.010880264400239703,1.6510546992291264,50,5,188
1675216698450.0,2023-02-01 09:58:18:449623,295.04999999999995,-0.45,-0.3,5.149593914246388,-0.00785398156722886,-0.005235987711485907,-0.09744000000000001,0.6205200000000001,-1.6181,-0.46754819999999997,1.337112,9.8486276,31.034499796000002,121.43653332400001,15.131,350787.01779254375,3434475.133556354,-469.0622074562707,695.7235563537106,0.6900000000000001,-1.52,0.0,-0.018483952013055416,1.6691789429291215,50,5,188
1675216698470.0,2023-02-01 09:58:18:469642,295.02,-0.45,-0.28,5.149070315475241,-0.00785398156722886,-0.0048869218640535134,-0.014790000000000001,0.8795700000000001,-1.4830100000000002,-0.4182738,1.3202462000000001,9.869374200000001,31.034499519,121.436533471,15.131,350787.0313914029,3434475.102654798,-469.04860859713517,695.6926547978073,0.7000000000000001,-1.55,0.0,-0.021236403911618962,1.7006025447319848,50,5,188
1675216698490.0,2023-02-01 09:58:18:489683,294.99,-0.45,-0.26,5.148546716704092,-0.00785398156722886,-0.004537856016621119,0.03263,1.0264,-1.3915600000000001,-0.36030680000000004,1.3160910000000001,9.8445802,31.034499238000002,121.436533619,15.131,350787.0450794706,3434475.0713085188,-469.0349205294042,695.6613085186109,0.7000000000000001,-1.57,0.0,-0.028795168340584265,1.7187410620219201,50,5,188
1675216698510.0,2023-02-01 09:58:18:509685,294.96000000000004,-0.45,-0.23,5.1480231179329445,-0.00785398156722886,-0.004014257245472529,0.11591000000000001,1.20845,-1.2844600000000002,-0.254653,1.3217750000000001,9.813455399999999,31.034498952000003,121.43653376900001,15.131,350787.0589506396,3434475.039405326,-469.0210493603954,695.6294053257443,0.71,-1.6,0.0,-0.03148876935661504,1.7501738363386665,50,5,188
1675216698530.0,2023-02-01 09:58:18:529643,294.94,-0.45,-0.21,5.147674052085511,-0.00785398156722886,-0.0036651913980401346,0.06775,1.2600500000000001,-1.1927400000000001,-0.1642382,1.331526,9.7971482,31.034498661,121.43653392,15.131,350787.07290945505,3434475.0069465656,-469.0070905449684,695.5969465654343,0.72,-1.62,0.0,-0.0302437209490638,1.772536407903419,50,5,188
1675216698550.0,2023-02-01 09:58:18:549689,294.90999999999997,-0.44,-0.18,5.147150453314362,-0.0076794486435126635,-0.0031415926268915442,0.13035000000000002,1.2734800000000002,-1.19842,-0.0702464,1.3448148,9.7665428,31.034498367,121.436534073,15.13,350787.08705448895,3434474.974152582,-468.9929455110687,695.5641525820829,0.73,-1.6400000000000001,0.0,-0.028669795144370513,1.7949033519514024,50,5,188
1675216698570.0,2023-02-01 09:58:18:569356,294.89,-0.44,-0.16,5.1468013874669305,-0.0076794486435126635,-0.0027925267794591505,0.15391000000000002,1.23756,-1.17588,0.0324184,1.3249012,9.7643378,31.034498068,121.436534229,15.13,350787.10147806944,3434474.9408003427,-468.9785219305777,695.5308003425598,0.74,-1.67,0.0,-0.031598402662871505,1.8263355499330225,50,5,188
1675216698590.0,2023-02-01 09:58:18:589633,294.87,-0.44,-0.13,5.146452321619498,-0.0076794486435126635,-0.0022689280083105596,0.029540000000000004,1.20326,-1.2439900000000002,0.11577720000000001,1.3346620000000002,9.749039999999999,31.034497766,121.43653438700001,15.13,350787.11608786846,3434474.9071128825,-468.96391213155584,695.4971128823236,0.76,-1.69,0.0,-0.02122681791796177,1.8529029716099754,50,5,188
1675216698610.0,2023-02-01 09:58:18:609620,294.84000000000003,-0.44,-0.11,5.14592872284835,-0.0076794486435126635,-0.0019198621608781659,0.13809000000000002,1.0685,-1.3606600000000002,0.1704906,1.3541934,9.694463800000001,31.03449741,121.43653454800001,15.129,350787.1308997844,3434474.867435754,-468.9491002156283,695.4574357536621,0.77,-1.71,0.0,-0.01958350667897013,1.8752643776988234,50,5,188
1675216698630.0,2023-02-01 09:58:18:629677,294.81,-0.44,-0.09,5.145405124077201,-0.0076794486435126635,-0.0015707963134457721,0.0632,0.87738,-1.42087,0.1668842,1.3679624,9.6997362,31.034497140000003,121.43653470000001,15.127,350787.14498680586,3434474.8373033996,-468.935013194161,695.427303399425,0.78,-1.73,-0.01,-0.01791678463554469,1.89762456477258,50,5,188
1675216698650.0,2023-02-01 09:58:18:649413,294.78,-0.44,-0.08,5.144881525306052,-0.0076794486435126635,-0.0013962633897295752,0.01625,0.6393300000000001,-1.5793000000000001,0.15548679999999998,1.3712552,9.6603304,31.034496826,121.436534867,15.127,350787.1604369216,3434474.802273707,-468.91956307843793,695.3922737068497,0.8,-1.75,-0.01,-0.007147414037432909,1.9241748658769497,50,5,188
1675216698670.0,2023-02-01 09:58:18:669725,294.74,-0.44,-0.07,5.144183393611187,-0.0076794486435126635,-0.0012217304660133784,0.04342,0.42212000000000005,-1.6721500000000002,0.13304480000000002,1.3634054,9.65741,31.034496508000004,121.43653503700001,15.127,350787.1761671461,3434474.766796607,-468.90383285388816,695.3567966069095,0.81,-1.77,-0.01,-0.005091946273922954,1.94652872367277,50,5,188
1675216698690.0,2023-02-01 09:58:18:689314,294.71000000000004,-0.44,-0.07,5.1436597948400395,-0.0076794486435126635,-0.0012217304660133784,-0.06735000000000001,0.18325000000000002,-1.75289,0.07295120000000001,1.3716472000000002,9.615436599999999,31.034496186000002,121.436535211,15.126,350787.19227292226,3434474.730870755,-468.88772707775934,695.3208707547747,0.8300000000000001,-1.8,-0.01,0.0015551916637472907,1.9821446923418304,50,5,188
1675216698710.0,2023-02-01 09:58:18:709681,294.66999999999996,-0.44,-0.07,5.142961663145173,-0.0076794486435126635,-0.0012217304660133784,-0.02415,-0.12837,-1.87677,0.0302036,1.3665218,9.5987668,31.034495860000003,121.436535386,15.126,350787.2084679094,3434474.6945001767,-468.87153209059034,695.2845001765527,0.84,-1.82,-0.02,0.0036784322038800887,2.0044915737254976,50,5,188
1675216698730.0,2023-02-01 09:58:18:729726,294.63,-0.44,-0.08,5.142263531450309,-0.0076794486435126635,-0.0013962633897295752,-0.02627,-0.37219,-1.8762800000000002,0.0025774,1.3399638,9.6733056,31.03449553,121.43653556500001,15.126,350787.2250384531,3434474.6576808463,-468.85496154689463,695.2476808461361,0.85,-1.84,-0.02,0.005832875271409965,2.0268364456872363,50,5,188
1675216698750.0,2023-02-01 09:58:18:749328,294.59000000000003,-0.44,-0.09,5.141565399755445,-0.0076794486435126635,-0.0015707963134457721,-0.07816000000000001,-0.5501100000000001,-1.9439100000000002,-0.03724,1.3301834000000001,9.631293,31.034495195,121.436535745,15.125,350787.2416966433,3434474.620305946,-468.83830335672246,695.2103059459478,0.86,-1.86,-0.02,0.008018519087898746,2.0491792755519556,50,5,188
1675216698770.0,2023-02-01 09:58:18:769400,294.56,-0.44,-0.1,5.141041800984296,-0.0076794486435126635,-0.001745329237161969,-0.08955,-0.50892,-1.9335700000000002,-0.0967358,1.3350932,9.6608008,31.034494857000002,121.43653592800001,15.124,350787.25863650447,3434474.5825944813,-468.8213634955464,695.1725944811478,0.87,-1.8900000000000001,-0.03,0.005717354397159813,2.0806170507468926,50,5,188
1675216698790.0,2023-02-01 09:58:18:789356,294.52,-0.44,-0.11,5.140343669289431,-0.0076794486435126635,-0.0019198621608781659,-0.18043,-0.49803000000000003,-1.86586,-0.16689400000000001,1.3443346,9.6252954,31.034494514000002,121.43653611200001,15.124,350787.27566401206,3434474.5443274477,-468.8043359879521,695.1343274475075,0.88,-1.9100000000000001,-0.03,0.007967846096194164,2.102958989954057,50,5,188
1675216698810.0,2023-02-01 09:58:18:809706,294.48,-0.45,-0.11,5.139645537594567,-0.00785398156722886,-0.0019198621608781659,-0.24848000000000003,-0.38252,-1.7363600000000001,-0.1470588,1.3809474,9.685536,31.034494116,121.43653629600001,15.123000000000001,350787.2926057315,3434474.499963929,-468.7873942684964,695.0899639287964,0.89,-1.94,-0.03,0.0061057800097064074,2.1343998499462264,50,5,188
1675216698830.0,2023-02-01 09:58:18:829711,294.45,-0.46,-0.12,5.1391219388234175,-0.008028514490945058,-0.0020943950845943625,-0.26426,-0.25867,-1.6625,-0.1875818,1.3545951999999999,9.6871726,31.034493813,121.436536465,15.124,350787.3082639037,3434474.466150849,-468.7717360962997,695.0561508489773,0.89,-1.96,-0.03,-0.0010546308214340883,2.1526028169994182,50,5,188
1675216698850.0,2023-02-01 09:58:18:849678,294.41999999999996,-0.46,-0.12,5.138598340052268,-0.008028514490945058,-0.0020943950845943625,-0.33345,-0.15884,-1.54235,-0.23469040000000002,1.336671,9.796374,31.034493457000004,121.43653665400001,15.123000000000001,350787.3257483754,3434474.426436113,-468.75425162463216,695.0164361130446,0.9,-1.99,-0.03,-0.003224803914917751,2.1840534793451627,50,5,188
1675216698870.0,2023-02-01 09:58:18:869640,294.39,-0.47000000000000003,-0.12,5.1380747412811205,-0.008203047414661255,-0.0020943950845943625,-0.25794,-0.12208000000000001,-1.4563000000000001,-0.2683632,1.3371218000000002,9.858388399999999,31.034493097000002,121.436536845,15.123000000000001,350787.3434175081,3434474.386275309,-468.7365824918961,694.976275308989,0.91,-2.0100000000000002,-0.03,-0.0012325869439447912,2.206399438163776,50,5,188
1675216698890.0,2023-02-01 09:58:18:889279,294.36,-0.47000000000000003,-0.13,5.137551142509972,-0.008203047414661255,-0.0022689280083105596,-0.23502,-0.11860000000000001,-1.32728,-0.2602488,1.3344757999999999,9.958456199999999,31.034492732,121.43653703700001,15.122,350787.3611742873,3434474.3455589367,-468.7188257127418,694.9355589365587,0.91,-2.0300000000000002,-0.03,-0.008326689039258817,2.2246192182595306,50,5,188
1675216698910.0,2023-02-01 09:58:18:909627,294.34000000000003,-0.47000000000000003,-0.13,5.13720207666254,-0.008203047414661255,-0.0022689280083105596,-0.07571,-0.14811000000000002,-1.1827500000000002,-0.2541042,1.313592,9.991884,31.034492363000002,121.43653723000001,15.121,350787.37902027764,3434474.3043978396,-468.7009797223727,694.8943978394382,0.92,-2.06,-0.02,-0.010803507082176145,2.256076967710704,50,5,188
1675216698930.0,2023-02-01 09:58:18:929216,294.32,-0.47000000000000003,-0.13,5.136853010815107,-0.008203047414661255,-0.0022689280083105596,0.06393,-0.12268000000000001,-1.0752400000000002,-0.2132578,1.3068496,10.0154334,31.034491990000003,121.43653742500001,15.121,350787.39705092675,3434474.262790676,-468.68294907326344,694.8527906760573,0.93,-2.08,-0.02,-0.009140039756699636,2.278424117602613,50,5,188
1675216698950.0,2023-02-01 09:58:18:949652,294.29999999999995,-0.47000000000000003,-0.13,5.136503944967674,-0.008203047414661255,-0.0022689280083105596,0.17056000000000002,-0.09504000000000001,-1.02254,-0.1845242,1.2988822,10.0697744,31.034491613000004,121.436537622,15.120000000000001,350787.4152662322,3434474.220737447,-468.6647337678005,694.8107374468818,0.93,-2.11,-0.01,-0.020690148735210356,2.305769268106702,50,5,188
1675216698970.0,2023-02-01 09:58:18:969385,294.28,-0.46,-0.13,5.136154879120242,-0.008028514490945058,-0.0022689280083105596,0.28959,-0.041760000000000005,-0.99865,-0.18001620000000002,1.2665422,10.053212400000001,31.034491231,121.43653782000001,15.120000000000001,350787.43356918904,3434474.178128647,-468.64643081097165,694.7681286470033,0.9400000000000001,-2.13,-0.01,-0.0189937364207019,2.328119249088582,50,5,188
1675216698990.0,2023-02-01 09:58:18:989187,294.26,-0.46,-0.13,5.1358058132728095,-0.008028514490945058,-0.0022689280083105596,0.34082,-0.03209,-0.95291,-0.1352008,1.2581632,10.095617,31.034490845,121.43653801900001,15.120000000000001,350787.451961352,3434474.135075123,-468.62803864799207,694.7250751229003,0.9500000000000001,-2.15,0.0,-0.017281723506071156,2.350468323979853,50,5,188
1675216699010.0,2023-02-01 09:58:19:009655,294.23,-0.45,-0.13,5.135282214501662,-0.00785398156722886,-0.0022689280083105596,0.40373000000000003,0.19596000000000002,-1.0632700000000002,-0.0788214,1.2796252000000001,10.045294,31.034490456,121.436538221,15.120000000000001,350787.4706351838,3434474.0916850353,-468.6093648162205,694.681685035117,0.96,-2.17,0.0,-0.015139975584837151,2.3728191631768505,50,5,188
1675216699030.0,2023-02-01 09:58:19:029610,294.21000000000004,-0.44,-0.11,5.13493314865423,-0.0076794486435126635,-0.0019198621608781659,0.62378,0.7646200000000001,-1.05715,-0.20453580000000002,1.1352418,10.4697908,31.034490077,121.436538416,15.119,350787.488656475,3434474.0494128014,-468.59134352504043,694.6394128012471,0.96,-2.19,0.01,-0.022513348203060612,2.391065274966931,50,5,188
1675216699050.0,2023-02-01 09:58:19:049682,294.19,-0.42,-0.09,5.134584082806796,-0.007330382796080269,-0.0015707963134457721,1.01169,1.30255,-0.9014800000000001,-0.4174408,0.7948780000000001,10.716976200000001,31.034489680000004,121.436538619,15.120000000000001,350787.5074132765,3434474.005134609,-468.5725867235451,694.5951346089132,0.96,-2.21,0.03,-0.029873983478006516,2.409316821240236,50,5,188
1675216699070.0,2023-02-01 09:58:19:069670,294.16999999999996,-0.39,-0.05,5.134235016959363,-0.006806784024931679,-0.0008726646185809845,1.20228,1.62233,-0.8102,-0.43109220000000004,0.9483068,10.226623400000001,31.034489280000003,121.436538822,15.120000000000001,350787.52616539877,3434473.9605238806,-468.5538346012472,694.5505238804035,0.96,-2.23,0.04,-0.037221878514890894,2.4275737953273064,50,5,188
1675216699090.0,2023-02-01 09:58:19:089693,294.15,-0.37,-0.01,5.133885951111932,-0.0064577181774992855,-0.0001745329237161969,1.0616400000000001,2.17205,-0.9795100000000001,0.11258240000000001,1.6393734,9.9264788,31.034488877,121.43653902700001,15.121,350787.5451037396,3434473.915577932,-468.53489626041846,694.5055779316463,0.98,-2.2600000000000002,0.04,-0.03039874881291782,2.4631435029390008,50,5,188
1675216699110.0,2023-02-01 09:58:19:109575,294.13,-0.35000000000000003,0.02,5.133536885264499,-0.006108652330066892,0.0003490658474323938,1.22306,2.08191,-1.3729900000000002,0.5242216000000001,1.7791998,9.4914666,31.034488468000003,121.436539236,15.122,350787.5644145151,3434473.869961538,-468.5155854849145,694.4599615377374,1.0,-2.2800000000000002,0.03,-0.019462708800388584,2.4895825358814987,50,5,188
1675216699130.0,2023-02-01 09:58:19:129643,294.1,-0.32,0.04,5.133013286493351,-0.005585053558918301,0.0006981316948647876,1.4880000000000002,1.17523,-1.4911400000000001,-0.30183020000000005,1.1941300000000001,9.196712,31.034488054,121.43653944900001,15.123000000000001,350787.58409928496,3434473.823785546,-468.495900715061,694.4137855456211,1.01,-2.3000000000000003,0.02,-0.017197430296367555,2.5119323733713856,50,5,188
1675216699150.0,2023-02-01 09:58:19:149286,294.06,-0.31,0.07,5.132315154798486,-0.005410520635202104,0.0012217304660133784,0.5482100000000001,1.2900800000000001,-1.66378,-0.29694,0.9781184,9.2837654,31.034487637,121.43653966100001,15.123000000000001,350787.603683928,3434473.7772783614,-468.47631607198855,694.3672783612274,1.01,-2.32,0.01,-0.023597627495146267,2.5302061481184883,50,5,188
1675216699170.0,2023-02-01 09:58:19:169391,294.03,-0.3,0.09,5.131791556027337,-0.005235987711485907,0.0015707963134457721,0.17362000000000002,0.86084,-1.73201,0.061593,1.4095536,9.3111858,31.034487216000002,121.43653987500001,15.123000000000001,350787.6234532299,3434473.7303251107,-468.4565467701177,694.3203251105733,1.02,-2.35,0.0,-0.02535593401981151,2.561690277260306,50,5,188
1675216699190.0,2023-02-01 09:58:19:189558,293.99,-0.3,0.1,5.131093424332473,-0.005235987711485907,0.001745329237161969,0.42621000000000003,0.42742,-1.78614,0.15323280000000003,1.6077096000000002,9.421896400000001,31.034486790000003,121.436540093,15.123000000000001,350787.64359652624,3434473.6828122605,-468.43640347378096,694.2728122603148,1.04,-2.38,0.0,-0.017492516401605762,2.597247391349145,50,5,188
1675216699210.0,2023-02-01 09:58:19:209227,293.95,-0.29,0.11,5.1303952926376075,-0.00506145478776971,0.0019198621608781659,0.17741,0.45891000000000004,-1.9011900000000002,0.124607,1.2709032,9.6273142,31.034486296,121.43654031300001,15.123000000000001,350787.6638246528,3434473.6277592527,-468.416175347229,694.2177592525259,1.05,-2.4,0.0,-0.014659075434567459,2.619596364233888,50,5,188
1675216699230.0,2023-02-01 09:58:19:229722,293.91999999999996,-0.29,0.11,5.129871693866458,-0.00506145478776971,0.0019198621608781659,0.14207,0.35812000000000005,-1.8579800000000002,-0.1368276,1.1560374,9.819511799999999,31.034485853000003,121.43654053,15.124,350787.68384598556,3434473.578363378,-468.3961540144519,694.1683633779176,1.06,-2.42,0.0,-0.01225554423085573,2.641940537111993,50,5,188
1675216699250.0,2023-02-01 09:58:19:249631,293.88,-0.28,0.12,5.129173562171594,-0.0048869218640535134,0.0020943950845943625,0.23954000000000003,0.42228000000000004,-1.8034100000000002,-0.0664636,1.3401598,9.586703,31.034485414000002,121.436540754,15.124,350787.7045416962,3434473.5294014835,-468.37545830383897,694.1194014833309,1.07,-2.44,0.0,-0.00936361333470137,2.6642845799098334,50,5,188
1675216699270.0,2023-02-01 09:58:19:269694,293.85,-0.28,0.13,5.128649963400446,-0.0048869218640535134,0.0022689280083105596,0.31191,0.22212,-1.7139400000000002,0.17420480000000002,1.4979398,9.558488800000001,31.034484971,121.43654098,15.123000000000001,350787.72542206326,3434473.4799935217,-468.35457793675596,694.0699935215525,1.08,-2.47,-0.01,-0.010952830878620867,2.695770768351001,50,5,188
1675216699290.0,2023-02-01 09:58:19:289706,293.81,-0.27,0.13,5.127951831705581,-0.004712388940337316,0.0022689280083105596,0.26733,0.08588000000000001,-1.6403,-0.057761200000000006,1.3991753999999998,9.5082246,31.034484524000003,121.43654121,15.123000000000001,350787.74667798704,3434473.4301368054,-468.3333220129716,694.0201368052512,1.09,-2.49,-0.01,-0.007996031769670564,2.718112592126371,50,5,188
1675216699310.0,2023-02-01 09:58:19:309703,293.78,-0.27,0.14,5.127428232934432,-0.004712388940337316,0.0024434609320267567,0.27123,0.34923000000000004,-1.5023600000000001,-0.1463042,1.2658464,9.7714918,31.034484072,121.436541441,15.123000000000001,350787.7680215598,3434473.379724521,-468.3119784402079,693.9697245210409,1.1,-2.52,-0.01,-0.009518600911686992,2.7496016795595475,50,5,188
1675216699330.0,2023-02-01 09:58:19:329679,293.76,-0.26,0.15,5.1270791670869995,-0.004537856016621119,0.0026179938557429534,0.35326,0.69142,-1.2720500000000001,-0.36161020000000005,1.0513146,10.052742,31.034483616000003,121.436541672,15.122,350787.78935889364,3434473.3288688553,-468.2906411063741,693.9188688551076,1.1,-2.54,-0.01,-0.016616936227598744,2.7679096584661878,50,5,188
1675216699350.0,2023-02-01 09:58:19:349648,293.74,-0.25,0.16,5.126730101239568,-0.004363323092904922,0.0027925267794591505,0.48752000000000006,0.5722400000000001,-0.9860700000000001,-0.2839452,1.2070562,9.7233248,31.034483157,121.43654190500001,15.122,350787.8108824461,3434473.277677968,-468.269117553893,693.8676779679954,1.1,-2.56,-0.01,-0.02370249034138383,2.7862229257458235,50,5,188
