gps_time,utc_time,heading,pitch,roll,heading_radians,pitch_radians,roll_radians,gyroX,gyroY,gyroZ,accX,accY,accZ,latitude,longitude,altitude,utm_x_position,utm_y_position,local_x,local_y,east_speed,north_speed,vertical_speed,vehicle_lat_speed,vehicle_lon_speed,position_type,GNSS_info1,GNSS_info2
1675214665170.0,2023-02-01 09:24:25:180600,72.72000000000003,-0.93,-0.78,1.2692034212641843,-0.01623156190560631,-0.013613568049863358,0.22571000000000002,-0.01854,-0.0014000000000000002,-0.1290954,-0.0070168,9.8173852,31.024298124,121.43217851400001,15.371,350355.403300083,3433350.1842911746,-900.6766999170068,-429.2257088255137,0.0,-0.03,0.0,-0.008911247756288758,-0.02864593624628175,50,5,188
1675214665190.0,2023-02-01 09:24:25:195764,72.72000000000003,-0.93,-0.78,1.2692034212641843,-0.01623156190560631,-0.013613568049863358,0.26280000000000003,-0.0485,0.00141,-0.13034,0.0023912,9.755321799999999,31.024298118,121.43217851200001,15.371,350355.40309978265,3433350.1836287966,-900.6769002173678,-429.2263712035492,0.0,-0.03,0.0,-0.008911247756288758,-0.02864593624628175,50,5,188
1675214665210.0,2023-02-01 09:24:25:216240,72.72000000000003,-0.92,-0.78,1.2692034212641843,-0.016057028981890115,-0.013613568049863358,0.25406,-0.0046300000000000004,-0.0012300000000000002,-0.12310760000000001,-0.0061152,9.7325368,31.024298117,121.43217851200001,15.370000000000001,350355.403098219,3433350.1835179524,-900.6769017810002,-429.2264820476994,0.0,-0.03,0.0,-0.008911247756288758,-0.02864593624628175,50,5,188
1675214665230.0,2023-02-01 09:24:25:236216,72.72000000000003,-0.92,-0.78,1.2692034212641843,-0.016057028981890115,-0.013613568049863358,0.14586000000000002,-0.01552,0.0027900000000000004,-0.1268316,-0.0044296000000000006,9.7054006,31.024298118,121.432178507,15.370000000000001,350355.4026224881,3433350.1836355305,-900.6773775119218,-429.22636446962133,-0.01,-0.03,0.0,0.0006373976591384934,-0.031616352165044666,50,5,188
1675214665250.0,2023-02-01 09:24:25:255775,72.72000000000003,-0.92,-0.78,1.2692034212641843,-0.016057028981890115,-0.013613568049863358,0.18836000000000003,0.0056500000000000005,-0.01889,-0.1276646,-0.0269108,9.712809400000001,31.024298111,121.43217850500001,15.370000000000001,350355.4024206265,3433350.1828623083,-900.6775793735287,-429.227137691807,-0.01,-0.04,0.0,-0.0023330182596244253,-0.04116499758047192,50,5,188
1675214665270.0,2023-02-01 09:24:25:276116,72.72000000000003,-0.91,-0.78,1.2692034212641843,-0.01588249605817392,-0.013613568049863358,0.12076,0.00919,0.01818,-0.1279488,-0.06096580000000001,9.715700400000001,31.024298103000003,121.43217850200001,15.370000000000001,350355.40212174086,3433350.1819795864,-900.6778782591573,-429.2280204137787,-0.01,-0.04,0.0,-0.0023330182596244253,-0.04116499758047192,50,5,188
1675214665290.0,2023-02-01 09:24:25:296115,72.72000000000003,-0.91,-0.78,1.2692034212641843,-0.01588249605817392,-0.013613568049863358,0.10131000000000001,0.01695,0.019770000000000003,-0.12503820000000002,-0.0804678,9.722090000000001,31.024298094000002,121.432178499,15.370000000000001,350355.40182129154,3433350.1809860202,-900.6781787084765,-429.2290139799006,-0.01,-0.05,0.0,-0.005303434178387346,-0.05071364299589917,50,5,188
1675214665310.0,2023-02-01 09:24:25:316140,72.72000000000003,-0.91,-0.78,1.2692034212641843,-0.01588249605817392,-0.013613568049863358,0.01716,-0.00099,0.02732,-0.12454820000000001,-0.11403279999999999,9.754782800000001,31.024298084,121.432178496,15.370000000000001,350355.40151927853,3433350.1798816095,-900.6784807214863,-429.2301183906384,-0.01,-0.05,0.0,-0.005303434178387346,-0.05071364299589917,50,5,188
1675214665330.0,2023-02-01 09:24:25:336116,72.72000000000003,-0.91,-0.78,1.2692034212641843,-0.01588249605817392,-0.013613568049863358,0.022060000000000003,-0.02978,0.035820000000000005,-0.1265376,-0.1409828,9.7776854,31.024298074,121.432178492,15.370000000000001,350355.4011218076,3433350.178778544,-900.6788781924406,-429.2312214560807,-0.01,-0.06,0.0,-0.008273850097150265,-0.060262288411326415,50,5,188
1675214665350.0,2023-02-01 09:24:25:356111,72.72000000000003,-0.91,-0.78,1.2692034212641843,-0.01588249605817392,-0.013613568049863358,0.0673,-0.011710000000000002,0.020130000000000002,-0.11987360000000001,-0.14769580000000002,9.7857704,31.024298062000003,121.432178488,15.370000000000001,350355.4007212069,3433350.1774537903,-900.6792787931045,-429.23254620982334,-0.02,-0.06,0.0,0.0012747953182769868,-0.06323270433008933,50,5,188
1675214665370.0,2023-02-01 09:24:25:376217,72.72000000000003,-0.91,-0.78,1.2692034212641843,-0.01588249605817392,-0.013613568049863358,0.03148,0.0018800000000000002,0.008400000000000001,-0.1209908,-0.159593,9.780057000000001,31.024298050000002,121.432178484,15.370000000000001,350355.40032060863,3433350.176129034,-900.6796793913818,-429.23387096636,-0.02,-0.07,0.0,-0.0016956206004859337,-0.07278134974551659,50,5,188
1675214665390.0,2023-02-01 09:24:25:396149,72.72000000000003,-0.91,-0.78,1.2692034212641843,-0.01588249605817392,-0.013613568049863358,0.05965,-0.00064,0.029290000000000004,-0.12454820000000001,-0.1634542,9.780743000000001,31.024298036,121.432178479,15.370000000000001,350355.39982142264,3433350.174583935,-900.6801785773714,-429.2354160649702,-0.02,-0.07,0.0,-0.0016956206004859337,-0.07278134974551659,50,5,188
1675214665410.0,2023-02-01 09:24:25:416147,72.72000000000003,-0.91,-0.78,1.2692034212641843,-0.01588249605817392,-0.013613568049863358,0.06828000000000001,0.01026,-0.0035800000000000003,-0.1234702,-0.1794772,9.7959036,31.024298028,121.43217847700001,15.368,350355.39961799735,3433350.1736998665,-900.6803820026689,-429.23630013363436,-0.02,-0.08,0.0,-0.004666036519248851,-0.08232999516094384,50,5,188
1675214665430.0,2023-02-01 09:24:25:435841,72.72000000000003,-0.9,-0.78,1.2692034212641843,-0.01570796313445772,-0.013613568049863358,0.07799,-0.026480000000000004,0.021550000000000003,-0.1283604,-0.2088772,9.8100352,31.024298020000003,121.43217847700001,15.368,350355.399605488,3433350.1728131063,-900.6803945120191,-429.23718689382076,-0.02,-0.09,0.0,-0.007636452438011768,-0.09187864057637109,50,5,188
1675214665450.0,2023-02-01 09:24:25:456207,72.72000000000003,-0.9,-0.78,1.2692034212641843,-0.01570796313445772,-0.013613568049863358,0.13356,0.035410000000000004,-0.04182,-0.1325842,-0.2256842,9.810878,31.024298002000002,121.43217847100001,15.368,350355.3990045894,3433350.1708259736,-900.6809954105993,-429.23917402653024,-0.03,-0.09,0.0,0.0019121929774154785,-0.094849056495134,50,5,188
1675214665470.0,2023-02-01 09:24:25:476058,72.72000000000003,-0.9,-0.78,1.2692034212641843,-0.01570796313445772,-0.013613568049863358,0.07012,-0.026480000000000004,-0.00268,-0.134848,-0.2244592,9.800470400000002,31.024297984,121.432178464,15.367,350355.39830823033,3433350.168840188,-900.6816917696851,-429.2411598120816,-0.03,-0.1,0.0,-0.0010582229413474455,-0.10439770191056127,50,5,188
1675214665490.0,2023-02-01 09:24:25:496151,72.72000000000003,-0.9,-0.78,1.2692034212641843,-0.01570796313445772,-0.013613568049863358,0.12383000000000001,-0.04331,-0.011850000000000001,-0.1359554,-0.2553978,9.816062200000001,31.024297964000002,121.432178457,15.367,350355.3976087464,3433350.1666327114,-900.682391253591,-429.2433672887273,-0.03,-0.11,0.0,-0.004028638860110366,-0.11394634732598852,50,5,188
1675214665510.0,2023-02-01 09:24:25:516128,72.72000000000003,-0.9,-0.78,1.2692034212641843,-0.01570796313445772,-0.013613568049863358,0.13947,0.0014900000000000002,0.00158,-0.133476,-0.3061128,9.822265600000001,31.024297943,121.432178449,15.367,350355.3968122409,3433350.1643157364,-900.6831877591321,-429.2456842637621,-0.03,-0.12,0.0,-0.006999054778873283,-0.12349499274141576,50,5,188
1675214665530.0,2023-02-01 09:24:25:536179,72.72000000000003,-0.89,-0.78,1.2692034212641843,-0.015533430210741524,-0.013613568049863358,0.10182000000000001,-0.0007700000000000001,-0.017730000000000003,-0.13220200000000001,-0.30675959999999997,9.7960996,31.024297920000002,121.432178441,15.367,350355.3960126056,3433350.1617770707,-900.6839873944409,-429.24822292942554,-0.04,-0.13,0.0,-0.0004208252822089434,-0.13601405407560593,50,5,188
1675214665550.0,2023-02-01 09:24:25:556140,72.72000000000003,-0.89,-0.78,1.2692034212641843,-0.015533430210741524,-0.013613568049863358,0.15385000000000001,-0.033670000000000005,0.02823,-0.1270472,-0.3108952,9.7891906,31.024297895000004,121.432178433,15.367,350355.39520984533,3433350.159016717,-900.6847901546862,-429.2509832829237,-0.04,-0.14,0.0,-0.0033912412009718673,-0.14556269949103318,50,5,188
1675214665570.0,2023-02-01 09:24:25:576187,72.72000000000003,-0.89,-0.78,1.2692034212641843,-0.015533430210741524,-0.013613568049863358,0.14899,-0.00218,0.005430000000000001,-0.12249020000000001,-0.3316614,9.791278,31.024297869,121.43217842300001,15.367,350355.3942146032,3433350.1561482092,-900.6857853968395,-429.25385179091245,-0.04,-0.15,0.0,-0.006361657119734784,-0.15511134490646042,50,5,188
1675214665590.0,2023-02-01 09:24:25:596139,72.72000000000003,-0.88,-0.78,1.2692034212641843,-0.015358897287025327,-0.013613568049863358,0.16104000000000002,-0.011510000000000001,-0.022490000000000003,-0.12026560000000001,-0.3213224,9.7773032,31.024297841000003,121.432178413,15.367,350355.39321623114,3433350.153058012,-900.6867837688769,-429.2569419881329,-0.04,-0.15,0.0,-0.006361657119734784,-0.15511134490646042,50,5,188
1675214665610.0,2023-02-01 09:24:25:616120,72.72000000000003,-0.88,-0.78,1.2692034212641843,-0.015358897287025327,-0.013613568049863358,0.14414000000000002,-0.012280000000000001,0.02457,-0.117649,-0.34045200000000003,9.7716192,31.024297828,121.432178405,15.366,350355.39243223256,3433350.151627798,-900.6875677674543,-429.25837220204994,-0.05,-0.16,0.0,0.00021657237692954828,-0.16763040624065062,50,5,188
1675214665630.0,2023-02-01 09:24:25:636183,72.72000000000003,-0.88,-0.78,1.2692034212641843,-0.015358897287025327,-0.013613568049863358,0.10141000000000001,0.00404,0.018400000000000003,-0.1216866,-0.36554980000000004,9.7778716,31.024297806000003,121.432178401,15.365,350355.39201599755,3433350.149194591,-900.687984002463,-429.260805408936,-0.05,-0.17,0.0,-0.0027538435418333757,-0.17717905165607786,50,5,188
1675214665650.0,2023-02-01 09:24:25:656141,72.72000000000003,-0.88,-0.78,1.2692034212641843,-0.015358897287025327,-0.013613568049863358,0.11129000000000001,-0.00902,0.028630000000000003,-0.1256458,-0.3802204,9.787044400000001,31.024297773,121.432178389,15.365,350355.39081889135,3433350.145552862,-900.689181108668,-429.2644471381791,-0.05,-0.18,0.0,-0.005724259460596286,-0.1867276970715051,50,5,188
1675214665670.0,2023-02-01 09:24:25:675661,72.72000000000003,-0.87,-0.78,1.2692034212641843,-0.01518436436330913,-0.013613568049863358,0.12669,0.00481,-0.04696,-0.1260966,-0.4159218,9.792356,31.024297738,121.43217837600001,15.365,350355.3895232022,3433350.1416907874,-900.6904767978122,-429.2683092127554,-0.06,-0.19,0.0,0.000853970036068033,-0.19924675840569528,50,5,188
1675214665690.0,2023-02-01 09:24:25:696081,72.72000000000003,-0.87,-0.79,1.2692034212641843,-0.01518436436330913,-0.013788100973579555,0.12314000000000001,-0.0359,0.02483,-0.1244894,-0.42307580000000006,9.7734126,31.024297702000002,121.432178363,15.365,350355.3882259446,3433350.1377178696,-900.69177405542,-429.2722821305506,-0.06,-0.2,0.0,-0.002116445882694891,-0.20879540382112255,50,5,188
1675214665710.0,2023-02-01 09:24:25:715824,72.72000000000003,-0.87,-0.79,1.2692034212641843,-0.01518436436330913,-0.013788100973579555,0.11044000000000001,-0.01904,0.012610000000000001,-0.12367600000000001,-0.3755752,9.725961,31.024297663000002,121.43217834900001,15.365,350355.38682854036,3433350.133413762,-900.6931714596576,-429.27658623829484,-0.06,-0.21,0.0,-0.005086861801457801,-0.21834404923654976,50,5,188
1675214665730.0,2023-02-01 09:24:25:736050,72.72000000000003,-0.87,-0.79,1.2692034212641843,-0.01518436436330913,-0.013788100973579555,0.03151,-0.01484,0.022000000000000002,-0.1215298,-0.31535420000000003,9.6911612,31.024297623000002,121.432178335,15.365,350355.3854295701,3433350.12899881,-900.6945704299142,-429.2810011901893,-0.07,-0.22,0.0,0.0014913676952065247,-0.23086311057073994,50,5,188
1675214665750.0,2023-02-01 09:24:25:756015,72.72000000000003,-0.87,-0.79,1.2692034212641843,-0.01518436436330913,-0.013788100973579555,-0.11204000000000001,0.03445,-0.00432,-0.12252940000000001,-0.2403744,9.6484724,31.024297581000003,121.43217832,15.365,350355.3839320146,3433350.1243635123,-900.6960679854383,-429.2856364878826,-0.07,-0.23,-0.01,-0.0014790482235563923,-0.2404117559861672,50,5,188
1675214665770.0,2023-02-01 09:24:25:776221,72.72000000000003,-0.87,-0.79,1.2692034212641843,-0.01518436436330913,-0.013788100973579555,-0.18411000000000002,-0.00841,-0.019020000000000002,-0.1255184,-0.26632480000000003,9.685438,31.024297538000003,121.432178304,15.364,350355.3823374374,3433350.1196187185,-900.6976625625975,-429.29038128163666,-0.07,-0.24,-0.01,-0.004449464142319309,-0.24996040140159442,50,5,188
1675214665790.0,2023-02-01 09:24:25:796097,72.72000000000003,-0.88,-0.79,1.2692034212641843,-0.015358897287025327,-0.013788100973579555,-0.19210000000000002,0.026340000000000002,0.0476,-0.1325352,-0.356622,9.7732166,31.024297494000002,121.432178288,15.364,350355.3807412965,3433350.114763078,-900.6992587035056,-429.2952369223349,-0.07,-0.25,-0.01,-0.007419880061082226,-0.2595090468170217,50,5,188
1675214665810.0,2023-02-01 09:24:25:816162,72.72000000000003,-0.88,-0.78,1.2692034212641843,-0.015358897287025327,-0.013613568049863358,-0.23778000000000002,0.08651,-0.00203,-0.1256066,-0.3298876,9.8220598,31.024297463000003,121.432178272,15.362,350355.3791654834,3433350.1113484255,-900.7008345166105,-429.2986515746452,-0.08,-0.26,-0.01,-0.0008416505644178868,-0.27202810815121187,50,5,188
1675214665830.0,2023-02-01 09:24:25:836176,72.72000000000003,-0.89,-0.78,1.2692034212641843,-0.015533430210741524,-0.013613568049863358,-0.15434,0.04129,0.039610000000000006,-0.1202068,-0.2968518,9.8379946,31.024297417000003,121.43217825400001,15.361,350355.3773752969,3433350.1062737885,-900.7026247031172,-429.3037262116559,-0.08,-0.27,-0.01,-0.0038120664831808176,-0.28157675356663914,50,5,188
1675214665850.0,2023-02-01 09:24:25:856172,72.72000000000003,-0.89,-0.78,1.2692034212641843,-0.015533430210741524,-0.013613568049863358,-0.16545,0.00088,0.026560000000000004,-0.120001,-0.2912266,9.8462266,31.024297367000003,121.43217823600001,15.361,350355.3755788581,3433350.100755771,-900.7044211419416,-429.3092442289926,-0.08,-0.27,-0.01,-0.0038120664831808176,-0.28157675356663914,50,5,188
1675214665870.0,2023-02-01 09:24:25:876151,72.73000000000002,-0.89,-0.78,1.2693779541879004,-0.015533430210741524,-0.013613568049863358,-0.14981,0.03971,0.050820000000000004,-0.11783520000000001,-0.2942548,9.837877,31.024297316000002,121.432178217,15.36,350355.3736853928,3433350.095128255,-900.7063146072323,-429.31487174518406,-0.08,-0.28,-0.01,-0.006731671331846212,-0.29112657831445077,50,5,188
1675214665890.0,2023-02-01 09:24:25:896096,72.73000000000002,-0.89,-0.78,1.2693779541879004,-0.015533430210741524,-0.013613568049863358,-0.07074000000000001,-0.05603,0.030400000000000003,-0.10991680000000001,-0.31460940000000004,9.841150200000001,31.024297264,121.432178198,15.36,350355.37179036625,3433350.0893898946,-900.708209633769,-429.3206101055257,-0.09,-0.29,-0.01,-0.00015125694700829362,-0.30364449134034355,50,5,188
1675214665910.0,2023-02-01 09:24:25:916135,72.73000000000002,-0.9,-0.78,1.2693779541879004,-0.01570796313445772,-0.013613568049863358,-0.10233,-0.01821,-0.0045000000000000005,-0.1193738,-0.3108364,9.8129458,31.02429721,121.432178179,15.36,350355.36989221245,3433350.0834298427,-900.7101077875705,-429.32657015742734,-0.09,-0.3,-0.01,-0.003120006267535766,-0.3131936550457089,50,5,188
1675214665930.0,2023-02-01 09:24:25:936158,72.73000000000002,-0.9,-0.78,1.2693779541879004,-0.01570796313445772,-0.013613568049863358,-0.07476000000000001,-0.050730000000000004,0.009930000000000001,-0.1326136,-0.25774,9.771844600000001,31.024297154000003,121.43217815800001,15.36,350355.3678000154,3433350.0772507954,-900.7121999846422,-429.3327492047101,-0.09,-0.31,-0.01,-0.006088755588063238,-0.3227428187510743,50,5,188
1675214665950.0,2023-02-01 09:24:25:956160,72.73000000000002,-0.9,-0.79,1.2693779541879004,-0.01570796313445772,-0.013788100973579555,-0.028690000000000004,-0.049850000000000005,-0.027250000000000003,-0.137298,-0.18385780000000002,9.7697572,31.024297098,121.43217813800001,15.359,350355.36580327374,3433350.0710704,-900.7141967262723,-429.33892960008234,-0.09,-0.31,-0.01,-0.006088755588063238,-0.3227428187510743,50,5,188
1675214665970.0,2023-02-01 09:24:25:976149,72.73000000000002,-0.9,-0.79,1.2693779541879004,-0.01570796313445772,-0.013788100973579555,-0.14446,-0.09488,-0.03629,-0.1499694,-0.0318108,9.744218400000001,31.02429704,121.432178117,15.359,350355.36370794685,3433350.064669661,-900.71629205317,-429.3453303389251,-0.1,-0.32,-0.01,0.0004916587967746661,-0.3352607317769672,50,5,188
1675214665990.0,2023-02-01 09:24:25:996099,72.73000000000002,-0.91,-0.79,1.2693779541879004,-0.01588249605817392,-0.013788100973579555,-0.32875000000000004,-0.06879,0.024390000000000002,-0.1585542,0.23648380000000002,9.6909848,31.024296982000003,121.432178096,15.359,350355.36161261995,3433350.058268924,-900.7183873800677,-429.3517310763709,-0.09,-0.32,-0.01,-0.009057504908590724,-0.3322919824564397,50,5,188
1675214666010.0,2023-02-01 09:24:26:016015,72.73000000000002,-0.92,-0.79,1.2693779541879004,-0.016057028981890115,-0.013788100973579555,-0.52732,-0.048150000000000005,0.00464,-0.12278420000000001,0.6030626,9.6072732,31.024296925,121.43217807500001,15.359,350355.35951885924,3433350.0519790296,-900.7204811407719,-429.35802097059786,-0.09,-0.31,-0.01,-0.006088755588063238,-0.3227428187510743,50,5,188
1675214666030.0,2023-02-01 09:24:26:035800,72.73000000000002,-0.93,-0.79,1.2693779541879004,-0.01623156190560631,-0.013788100973579555,-0.75858,-0.037820000000000006,0.02619,-0.1434524,1.0191020000000002,9.522415,31.024296906000004,121.43217806700001,15.358,350355.35872547864,3433350.0498837447,-900.7212745213765,-429.3601162554696,-0.09,-0.29,-0.02,-0.00015125694700829362,-0.30364449134034355,50,5,188
1675214666050.0,2023-02-01 09:24:26:055755,72.73000000000002,-0.9500000000000001,-0.79,1.2693779541879004,-0.016580627753038705,-0.013788100973579555,-1.0539500000000002,0.01624,0.00042,-0.1807512,1.4541926,9.4515708,31.024296855000003,121.432178049,15.358,350355.3569274737,3433350.044254882,-900.7230725263362,-429.3657451183535,-0.08,-0.26,-0.02,-0.0007941726907912533,-0.27202825090371996,50,5,188
1675214666070.0,2023-02-01 09:24:26:076030,72.74000000000001,-0.98,-0.79,1.2695524871116164,-0.017104226524187294,-0.013788100973579555,-1.2808400000000002,-0.031650000000000005,0.02219,-0.1736462,1.6472722,9.5289124,31.024296809000003,121.43217803200001,15.357000000000001,350355.3552327475,3433350.0391788995,-900.7247672525118,-429.37082110065967,-0.07,-0.24,-0.03,-0.004362211233674626,-0.24996193932907626,50,5,188
1675214666090.0,2023-02-01 09:24:26:096148,72.74000000000001,-1.01,-0.79,1.2695524871116164,-0.017627825295335887,-0.013788100973579555,-1.3848900000000002,-0.006410000000000001,0.00203,-0.18020239999999998,1.5665594,9.7125546,31.024296768000003,121.43217801700001,15.356,350355.3537367557,3433350.0346544473,-900.7262632443453,-429.3753455528058,-0.06,-0.21,-0.03,-0.00501064504251774,-0.21834581158395938,50,5,188
1675214666110.0,2023-02-01 09:24:26:116085,72.74000000000001,-1.03,-0.79,1.2695524871116164,-0.01797689114276828,-0.013788100973579555,-1.43382,0.0006100000000000001,0.045450000000000004,-0.2009686,1.5550738,9.882026,31.024296732000003,121.43217800400001,15.356,350355.3524395004,3433350.0306815295,-900.7275604996248,-429.379318470601,-0.05,-0.18,-0.03,-0.005659078851360827,-0.1867296838388425,50,5,188
1675214666130.0,2023-02-01 09:24:26:136108,72.74000000000001,-1.06,-0.79,1.2695524871116164,-0.01850048991391687,-0.013788100973579555,-1.36114,-0.06078000000000001,0.06237,-0.1933932,1.4999684000000002,9.9778112,31.0242967,121.43217799300001,15.355,350355.3513394181,3433350.027149298,-900.7286605819245,-429.3828507019207,-0.04,-0.16,-0.02,-0.009274595292062683,-0.164663237798145,50,5,188
1675214666150.0,2023-02-01 09:24:26:156125,72.74000000000001,-1.08,-0.79,1.2695524871116164,-0.018849555761349265,-0.013788100973579555,-1.14486,-0.023680000000000003,0.07618000000000001,-0.18107460000000003,1.431437,10.0935688,31.024296673000002,121.432177984,15.355,350355.35043807013,3433350.0241685985,-900.729561929882,-429.3858314016834,-0.04,-0.13,-0.02,-0.0003733473964864023,-0.1360141926848869,50,5,188
1675214666170.0,2023-02-01 09:24:26:176015,72.74000000000001,-1.1,-0.79,1.2695524871116164,-0.01919862160878166,-0.013788100973579555,-1.0176,-0.0407,0.06252,-0.17752700000000002,1.4627382000000002,10.0506546,31.024296650000004,121.432177976,15.354000000000001,350355.3496384348,3433350.0216299347,-900.7303615651908,-429.3883700654842,-0.03,-0.11,-0.01,-0.0039888638371882515,-0.11394774664418938,50,5,188
1675214666190.0,2023-02-01 09:24:26:196114,72.74000000000001,-1.12,-0.8,1.2695524871116164,-0.019547687456214054,-0.013962633897295752,-0.77692,-0.05833000000000001,0.08062000000000001,-0.16004379999999999,1.4511448,10.052810599999999,31.024296632000002,121.43217797000001,15.354000000000001,350355.3490375362,3433350.019642801,-900.7309624638292,-429.390357199125,-0.02,-0.09,0.0,-0.007604380277890101,-0.09188130060349188,50,5,188
1675214666210.0,2023-02-01 09:24:26:216076,72.75,-1.1300000000000001,-0.8,1.2697270200353323,-0.019722220379930253,-0.013962633897295752,-0.58498,-0.01582,0.048400000000000006,-0.155085,1.4717346000000002,9.9996946,31.024296631000002,121.43217796600001,15.353,350355.3486541383,3433350.0195373422,-900.7313458617427,-429.3904626579024,-0.01,-0.06,0.0,-0.008242295704271829,-0.060266612328248065,50,5,188
1675214666230.0,2023-02-01 09:24:26:235802,72.74000000000001,-1.1400000000000001,-0.8,1.2695524871116164,-0.019896753303646448,-0.013962633897295752,-0.42281,0.0055000000000000005,-0.030930000000000003,-0.1456476,1.4466662000000001,9.945980800000001,31.024296613,121.432177959,15.353,350355.3479577793,3433350.017551556,-900.7320422207122,-429.3924484439194,-0.01,-0.04,0.0,-0.0023186488230156708,-0.04116580944953625,50,5,188
1675214666250.0,2023-02-01 09:24:26:256103,72.74000000000001,-1.1400000000000001,-0.8,1.2695524871116164,-0.019896753303646448,-0.013962633897295752,-0.16996000000000003,0.042230000000000004,-0.0026400000000000004,-0.15012620000000002,1.395618,9.884446599999999,31.024296608,121.43217795700001,15.353,350355.347759045,3433350.0170000237,-900.7322409549961,-429.39299997640774,0.0,-0.02,0.0,-0.005934165263717522,-0.019099363408838745,50,5,188
1675214666270.0,2023-02-01 09:24:26:276080,72.74000000000001,-1.1500000000000001,-0.79,1.2695524871116164,-0.020071286227362647,-0.013788100973579555,-0.09901000000000001,0.05974,-0.01614,-0.150038,1.3793206,9.8211288,31.024296606000004,121.43217795700001,15.353,350355.3477559177,3433350.016778334,-900.7322440823191,-429.3932216661051,0.0,0.0,0.0,0.0,0.0,50,5,188
1675214666290.0,2023-02-01 09:24:26:296081,72.74000000000001,-1.1400000000000001,-0.79,1.2695524871116164,-0.019896753303646448,-0.013788100973579555,0.13734000000000002,0.023430000000000003,-0.09250000000000001,-0.150626,1.3076238,9.7359962,31.024296608,121.43217795800001,15.353,350355.34785450296,3433350.0169986775,-900.7321454970515,-429.3930013226345,0.0,0.02,0.0,0.005934165263717522,0.019099363408838745,50,5,188
1675214666310.0,2023-02-01 09:24:26:316089,72.74000000000001,-1.1400000000000001,-0.79,1.2695524871116164,-0.019896753303646448,-0.013788100973579555,0.26557000000000003,0.023870000000000002,-0.08897000000000001,-0.16135700000000003,1.0996482,9.776960200000001,31.024296614,121.43217796100001,15.353,350355.3481502613,3433350.0176597075,-900.7318497386877,-429.39234029268846,0.01,0.04,0.0,0.0023186488230156708,0.04116580944953625,50,5,188
1675214666330.0,2023-02-01 09:24:26:336086,72.74000000000001,-1.1300000000000001,-0.79,1.2695524871116164,-0.019722220379930253,-0.013788100973579555,0.43879,0.053770000000000005,-0.08046,-0.15531040000000002,0.764939,9.764132,31.024296623,121.432177964,15.354000000000001,350355.3484507106,3433350.0186532754,-900.7315492894268,-429.3913467247039,0.01,0.05,0.0,0.005285731454874432,0.05071549115395563,50,5,188
1675214666350.0,2023-02-01 09:24:26:356096,72.74000000000001,-1.12,-0.79,1.2695524871116164,-0.019547687456214054,-0.013788100973579555,0.62982,0.04284,-0.10268000000000001,-0.1526448,0.4599728,9.745276800000001,31.024296633000002,121.432177968,15.354000000000001,350355.34884818154,3433350.0197563404,-900.7311518184724,-429.3902436597273,0.01,0.05,0.0,0.005285731454874432,0.05071549115395563,50,5,188
1675214666370.0,2023-02-01 09:24:26:376133,72.74000000000001,-1.1,-0.79,1.2695524871116164,-0.01919862160878166,-0.013788100973579555,0.7405200000000001,0.06404,-0.056490000000000005,-0.15671179999999998,0.147833,9.7140148,31.024296643000003,121.432177972,15.354000000000001,350355.34924565494,3433350.020859405,-900.7307543450734,-429.3891405952163,0.01,0.05,0.0,0.005285731454874432,0.05071549115395563,50,5,188
1675214666390.0,2023-02-01 09:24:26:396129,72.73000000000002,-1.08,-0.79,1.2693779541879004,-0.018849555761349265,-0.013788100973579555,0.9019900000000001,0.06518,-0.047630000000000006,-0.1374646,-0.1210202,9.6659556,31.024296653,121.432177976,15.354000000000001,350355.3496431258,3433350.021962469,-900.7303568742354,-429.388037531171,0.01,0.05,0.0,0.00529458289727199,0.050714567847354425,50,5,188
1675214666410.0,2023-02-01 09:24:26:416201,72.73000000000002,-1.07,-0.79,1.2693779541879004,-0.01867502283763307,-0.013788100973579555,0.8829300000000001,0.07161000000000001,-0.03173,-0.1289778,-0.32286099999999995,9.6250798,31.024296677000002,121.43217798100001,15.352,350355.35015794856,3433350.0246160193,-900.7298420514562,-429.38538398081437,0.01,0.04,0.0,0.0023258335767445144,0.041165404141989034,50,5,188
1675214666430.0,2023-02-01 09:24:26:436079,72.73000000000002,-1.05,-0.79,1.2693779541879004,-0.018325956990200676,-0.013788100973579555,0.9554800000000001,0.0921,-0.023010000000000003,-0.1301636,-0.49712459999999997,9.6078514,31.024296686000003,121.43217798200001,15.352,350355.3502674796,3433350.025612279,-900.7297325204127,-429.3843877213076,0.01,0.02,-0.01,-0.003611665064310437,0.022067076731258253,50,5,188
1675214666450.0,2023-02-01 09:24:26:456177,72.73000000000002,-1.03,-0.78,1.2693779541879004,-0.01797689114276828,-0.013613568049863358,0.8860100000000001,0.0811,-0.019780000000000002,-0.1306144,-0.566783,9.619248800000001,31.024296690000003,121.432177984,15.352,350355.35046465264,3433350.0260529662,-900.7295353473746,-429.38394703390077,0.0,0.01,-0.01,0.0029687493205274758,0.009549163705365389,50,5,188
1675214666470.0,2023-02-01 09:24:26:476046,72.73000000000002,-1.01,-0.78,1.2693779541879004,-0.017627825295335887,-0.013613568049863358,0.8506800000000001,0.08503000000000001,-0.00987,-0.136465,-0.5755736,9.6144566,31.024296691000004,121.43217798500001,15.351,350355.3505616742,3433350.0261624656,-900.7294383257977,-429.3838375345804,0.0,0.0,-0.01,0.0,0.0,50,5,188
1675214666490.0,2023-02-01 09:24:26:495991,72.73000000000002,-1.0,-0.78,1.2693779541879004,-0.01745329237161969,-0.013613568049863358,0.85604,0.10051,0.006240000000000001,-0.1287524,-0.5003096,9.6413772,31.024296690000003,121.43217798500001,15.351,350355.3505601106,3433350.026051619,-900.7294398894301,-429.3839483810589,0.0,-0.01,-0.02,-0.0029687493205274758,-0.009549163705365389,50,5,188
1675214666510.0,2023-02-01 09:24:26:515995,72.73000000000002,-0.98,-0.78,1.2693779541879004,-0.017104226524187294,-0.013613568049863358,0.6524300000000001,0.06559000000000001,0.07631,-0.13674920000000002,-0.3565632,9.6604382,31.024296687000003,121.43217798500001,15.351,350355.3505554196,3433350.025719084,-900.7294445804437,-429.3842809163034,0.0,-0.02,-0.02,-0.0059374986410549516,-0.019098327410730778,50,5,188
1675214666530.0,2023-02-01 09:24:26:536079,72.73000000000002,-0.97,-0.78,1.2693779541879004,-0.0169296936004711,-0.013613568049863358,0.50487,0.0413,0.09491000000000001,-0.132643,-0.17493,9.7226976,31.024296682000003,121.432177984,15.35,350355.35045214323,3433350.0251662056,-900.729547856783,-429.38483379455283,0.0,-0.02,-0.02,-0.0059374986410549516,-0.019098327410730778,50,5,188
1675214666550.0,2023-02-01 09:24:26:556046,72.74000000000001,-0.97,-0.78,1.2695524871116164,-0.0169296936004711,-0.013613568049863358,0.33345,-0.01683,0.06680000000000001,-0.1262926,0.027734,9.7852216,31.024296676000002,121.432177983,15.35,350355.35034730076,3433350.02450248,-900.7296526992577,-429.3854975202121,0.0,-0.03,-0.02,-0.00890124789557628,-0.028649045113258116,50,5,188
1675214666570.0,2023-02-01 09:24:26:575778,72.74000000000001,-0.96,-0.78,1.2695524871116164,-0.0167551606767549,-0.013613568049863358,0.08869,-0.036000000000000004,0.07113000000000001,-0.12030479999999999,0.21834399999999998,9.853870599999999,31.024296671000002,121.43217798100001,15.349,350355.35014856653,3433350.023950949,-900.7298514334834,-429.3860490513034,0.0,-0.03,-0.02,-0.00890124789557628,-0.028649045113258116,50,5,188
1675214666590.0,2023-02-01 09:24:26:596046,72.74000000000001,-0.96,-0.78,1.2695524871116164,-0.0167551606767549,-0.013613568049863358,-0.01633,-0.11095000000000001,0.09188,-0.1134056,0.3918432,9.9098482,31.024296665,121.43217798,15.349,350355.3500437241,3433350.023287225,-900.7299562758999,-429.3867127751,0.0,-0.02,-0.02,-0.005934165263717522,-0.019099363408838745,50,5,188
1675214666610.0,2023-02-01 09:24:26:616069,72.74000000000001,-0.97,-0.78,1.2695524871116164,-0.0169296936004711,-0.013613568049863358,-0.14484000000000002,-0.0565,0.05679000000000001,-0.1096228,0.5120304,9.981476400000002,31.024296675000002,121.43217798100001,15.347,350355.3501548213,3433350.02439433,-900.729845178721,-429.38560567004606,0.0,-0.01,-0.01,-0.002967082631858761,-0.009549681704419373,50,5,188
1675214666630.0,2023-02-01 09:24:26:635776,72.74000000000001,-0.97,-0.79,1.2695524871116164,-0.0169296936004711,-0.013788100973579555,-0.34539000000000003,-0.13821,0.00337,-0.1013222,0.5861968,10.0256352,31.024296666,121.432177984,15.347,350355.3504271244,3433350.023392682,-900.7295728755998,-429.38660731818527,0.0,-0.01,-0.01,-0.002967082631858761,-0.009549681704419373,50,5,188
1675214666650.0,2023-02-01 09:24:26:655981,72.74000000000001,-0.98,-0.79,1.2695524871116164,-0.017104226524187294,-0.013788100973579555,-0.32731000000000005,-0.12412000000000001,-0.008110000000000001,-0.1013418,0.6036016,10.064168800000001,31.024296665,121.432177984,15.347,350355.35042556084,3433350.023281838,-900.729574439174,-429.38671816233546,0.0,0.0,0.0,0.0,0.0,50,5,188
1675214666670.0,2023-02-01 09:24:26:675961,72.74000000000001,-0.99,-0.79,1.2695524871116164,-0.017278759447903493,-0.013788100973579555,-0.4223,-0.13569,0.03926,-0.1019004,0.5556012,10.067638,31.024296665,121.432177984,15.347,350355.35042556084,3433350.023281838,-900.729574439174,-429.38671816233546,0.0,0.0,0.0,0.0,0.0,50,5,188
1675214666690.0,2023-02-01 09:24:26:695655,72.74000000000001,-1.0,-0.79,1.2695524871116164,-0.01745329237161969,-0.013788100973579555,-0.34330000000000005,-0.11928000000000001,-0.028970000000000003,-0.1103088,0.4680578,10.058337799999999,31.024296667,121.432177984,15.347,350355.3504286881,3433350.0235035275,-900.7295713119092,-429.3864964726381,0.0,0.01,0.0,0.002967082631858761,0.009549681704419373,50,5,188
1675214666710.0,2023-02-01 09:24:26:716011,72.74000000000001,-1.0,-0.8,1.2695524871116164,-0.01745329237161969,-0.013962633897295752,-0.26357,-0.09054000000000001,0.0178,-0.12193160000000001,0.3487918,10.0065448,31.024296669,121.432177984,15.347,350355.3504318155,3433350.0237252186,-900.729568184528,-429.38627478154376,0.0,0.01,0.0,0.002967082631858761,0.009549681704419373,50,5,188
1675214666730.0,2023-02-01 09:24:26:735718,72.74000000000001,-1.0,-0.8,1.2695524871116164,-0.01745329237161969,-0.013962633897295752,-0.21812,-0.09739,-0.09296,-0.1375038,0.22312640000000003,9.9130234,31.024296672000002,121.43217798500001,15.347,350355.35053196445,3433350.0240564076,-900.7294680355699,-429.385943592526,0.0,0.01,0.01,0.002967082631858761,0.009549681704419373,50,5,188
1675214666750.0,2023-02-01 09:24:26:756040,72.74000000000001,-1.01,-0.8,1.2695524871116164,-0.017627825295335887,-0.013962633897295752,-0.1552,-0.06863000000000001,-0.05126000000000001,-0.1527134,0.0926492,9.803880800000002,31.024296674000002,121.43217798600001,15.348,350355.35063055216,3433350.0242767506,-900.7293694478576,-429.3857232495211,0.0,0.01,0.01,0.002967082631858761,0.009549681704419373,50,5,188
1675214666770.0,2023-02-01 09:24:26:776078,72.74000000000001,-1.01,-0.8,1.2695524871116164,-0.017627825295335887,-0.013962633897295752,-0.027680000000000003,-0.008950000000000001,-0.07969000000000001,-0.1662962,-0.007438200000000001,9.7189246,31.024296676000002,121.43217798600001,15.348,350355.35063367954,3433350.0244984403,-900.7293663204764,-429.38550155982375,0.0,0.0,0.0,0.0,0.0,50,5,188
1675214666790.0,2023-02-01 09:24:26:796029,72.73000000000002,-1.01,-0.8,1.2693779541879004,-0.017627825295335887,-0.013962633897295752,-0.05942000000000001,-0.02219,-0.0821,-0.18399500000000002,-0.1033606,9.6507166,31.024296678000002,121.43217798600001,15.348,350355.3506368068,3433350.024720132,-900.7293631932116,-429.38527986826375,0.0,0.0,0.0,0.0,0.0,50,5,188
1675214666810.0,2023-02-01 09:24:26:815712,72.73000000000002,-1.01,-0.8,1.2693779541879004,-0.017627825295335887,-0.013962633897295752,0.02126,-0.017980000000000003,-0.044070000000000005,-0.18897339999999999,-0.1611806,9.596659800000001,31.024296693000004,121.43217798600001,15.347,350355.35066026193,3433350.026382809,-900.7293397380854,-429.3836171911098,0.0,0.0,0.0,0.0,0.0,50,5,188
1675214666830.0,2023-02-01 09:24:26:835687,72.73000000000002,-1.01,-0.8,1.2693779541879004,-0.017627825295335887,-0.013962633897295752,0.024130000000000002,-0.0011300000000000001,-0.050570000000000004,-0.1974406,-0.1651888,9.5477088,31.024296698,121.43217798600001,15.348,350355.3506680804,3433350.026937034,-900.7293319196324,-429.3830629661679,0.0,0.0,0.0,0.0,0.0,50,5,188
1675214666850.0,2023-02-01 09:24:26:855774,72.73000000000002,-1.01,-0.8,1.2693779541879004,-0.017627825295335887,-0.013962633897295752,0.020110000000000003,-0.00542,-0.023420000000000003,-0.1949808,-0.131222,9.540937,31.024296695,121.43217798600001,15.348,350355.3506633893,3433350.0266044987,-900.7293366107042,-429.38339550141245,0.0,-0.01,0.0,-0.0029687493205274758,-0.009549163705365389,50,5,188
1675214666870.0,2023-02-01 09:24:26:876162,72.73000000000002,-1.01,-0.8,1.2693779541879004,-0.017627825295335887,-0.013962633897295752,-0.07378000000000001,0.03526,0.03011,-0.1794772,-0.0358484,9.5370366,31.024296692000004,121.43217798600001,15.348,350355.35065869824,3433350.0262719635,-900.729341301776,-429.383728036657,0.0,-0.01,-0.01,-0.0029687493205274758,-0.009549163705365389,50,5,188
1675214666890.0,2023-02-01 09:24:26:895805,72.73000000000002,-1.01,-0.8,1.2693779541879004,-0.017627825295335887,-0.013962633897295752,-0.08312000000000001,0.09082000000000001,0.0805,-0.16577680000000003,0.0613872,9.5627224,31.024296689000003,121.43217798600001,15.348,350355.3506540073,3433350.0259394282,-900.7293459927314,-429.3840605719015,0.0,-0.02,-0.01,-0.0059374986410549516,-0.019098327410730778,50,5,188
1675214666910.0,2023-02-01 09:24:26:916152,72.74000000000001,-1.01,-0.8,1.2695524871116164,-0.017627825295335887,-0.013962633897295752,-0.18236000000000002,0.04505000000000001,0.02638,-0.147735,0.1772134,9.6347426,31.024296685000003,121.43217798600001,15.347,350355.3506477525,3433350.0254960475,-900.7293522474938,-429.3845039526932,0.0,-0.02,-0.01,-0.005934165263717522,-0.019099363408838745,50,5,188
1675214666930.0,2023-02-01 09:24:26:936087,72.74000000000001,-1.02,-0.8,1.2695524871116164,-0.017802358219052083,-0.013962633897295752,-0.24484000000000003,0.09019,0.049170000000000005,-0.1335054,0.2698724,9.714828200000001,31.024296682000003,121.43217798500001,15.347,350355.35054760124,3433350.025164859,-900.7294523987803,-429.3848351412453,0.0,-0.01,-0.02,-0.002967082631858761,-0.009549681704419373,50,5,188
1675214666950.0,2023-02-01 09:24:26:956010,72.74000000000001,-1.03,-0.79,1.2695524871116164,-0.01797689114276828,-0.013788100973579555,-0.26980000000000004,0.09091,0.06046000000000001,-0.1125628,0.31779440000000003,9.8515676,31.024296678000002,121.43217798600001,15.346,350355.3506368068,3433350.024720132,-900.7293631932116,-429.38527986826375,0.0,-0.01,-0.01,-0.002967082631858761,-0.009549681704419373,50,5,188
1675214666970.0,2023-02-01 09:24:26:976066,72.74000000000001,-1.03,-0.79,1.2695524871116164,-0.01797689114276828,-0.013788100973579555,-0.23703000000000002,0.06223000000000001,0.030900000000000004,-0.0962066,0.306495,9.921833600000001,31.024296676000002,121.43217798600001,15.346,350355.35063367954,3433350.0244984403,-900.7293663204764,-429.38550155982375,0.0,-0.01,-0.01,-0.002967082631858761,-0.009549681704419373,50,5,188
1675214666990.0,2023-02-01 09:24:26:996031,72.74000000000001,-1.03,-0.79,1.2695524871116164,-0.01797689114276828,-0.013788100973579555,-0.24273000000000003,0.11205000000000001,-0.01769,-0.089621,0.3062108,9.9904336,31.024296674000002,121.43217798600001,15.346,350355.35063055216,3433350.0242767506,-900.7293694478576,-429.3857232495211,0.0,-0.01,-0.01,-0.002967082631858761,-0.009549681704419373,50,5,188
1675214667010.0,2023-02-01 09:24:27:015981,72.75,-1.04,-0.79,1.2697270200353323,-0.018151424066484477,-0.013788100973579555,-0.07840000000000001,0.10716,-0.035370000000000006,-0.09039520000000001,0.2707054,10.0167368,31.024296672000002,121.43217798500001,15.346,350355.35053196445,3433350.0240564076,-900.7294680355699,-429.385943592526,0.0,0.0,0.0,0.0,0.0,50,5,188
1675214667030.0,2023-02-01 09:24:27:036065,72.75,-1.04,-0.79,1.2697270200353323,-0.018151424066484477,-0.013788100973579555,-0.036340000000000004,0.07291,-0.054920000000000004,-0.0976864,0.22981000000000001,10.025860600000001,31.024296688000003,121.432177971,15.344000000000001,350355.3492205599,3433350.025848782,-900.7307794401422,-429.38415121799335,0.0,0.0,0.0,0.0,0.0,50,5,188
1675214667050.0,2023-02-01 09:24:27:056096,72.75,-1.04,-0.79,1.2697270200353323,-0.018151424066484477,-0.013788100973579555,0.06774000000000001,0.004710000000000001,-0.027710000000000002,-0.10515400000000001,0.2310938,9.981290200000002,31.024296687000003,121.432177971,15.344000000000001,350355.3492189962,3433350.025737936,-900.7307810038328,-429.3842620640062,0.0,0.0,0.0,0.0,0.0,50,5,188
1675214667070.0,2023-02-01 09:24:27:075765,72.74000000000001,-1.03,-0.79,1.2695524871116164,-0.01797689114276828,-0.013788100973579555,0.21551,-0.027460000000000002,-0.08745000000000001,-0.10808419999999999,0.2204412,9.9086624,31.024296686000003,121.43217797000001,15.344000000000001,350355.34912197455,3433350.0256284387,-900.730878025468,-429.3843715614639,0.0,0.0,0.0,0.0,0.0,50,5,188
1675214667090.0,2023-02-01 09:24:27:096050,72.74000000000001,-1.03,-0.79,1.2695524871116164,-0.01797689114276828,-0.013788100973579555,0.22964,-0.048920000000000005,-0.07023,-0.1236662,0.20072360000000003,9.872814000000002,31.024296685000003,121.43217797000001,15.344000000000001,350355.34912041086,3433350.025517594,-900.7308795891586,-429.38448240607977,0.0,0.0,0.0,0.0,0.0,50,5,188
1675214667110.0,2023-02-01 09:24:27:115975,72.74000000000001,-1.02,-0.79,1.2695524871116164,-0.017802358219052083,-0.013788100973579555,0.23782000000000003,-0.011470000000000001,-0.08235,-0.139209,0.1468726,9.812299000000001,31.024296685000003,121.43217796900001,15.344000000000001,350355.3490249529,3433350.0255189403,-900.7309750471031,-429.384481059853,0.0,0.0,0.0,0.0,0.0,50,5,188
1675214667130.0,2023-02-01 09:24:27:136014,72.74000000000001,-1.02,-0.79,1.2695524871116164,-0.017802358219052083,-0.013788100973579555,0.23228000000000001,-0.07313,-0.04313,-0.1371608,0.1954904,9.758526400000001,31.024296684000003,121.43217796900001,15.344000000000001,350355.3490233893,3433350.0254080943,-900.7309766107355,-429.3845919058658,0.0,0.0,0.0,0.0,0.0,50,5,188
1675214667150.0,2023-02-01 09:24:27:156073,72.74000000000001,-1.01,-0.79,1.2695524871116164,-0.017627825295335887,-0.013788100973579555,0.21717000000000003,-0.021650000000000003,-0.030230000000000003,-0.1642186,0.1472058,9.7020294,31.024296683000003,121.43217796900001,15.344000000000001,350355.3490218256,3433350.0252972487,-900.7309781744261,-429.384702751413,0.0,0.0,0.0,0.0,0.0,50,5,188
1675214667170.0,2023-02-01 09:24:27:176041,72.74000000000001,-1.01,-0.79,1.2695524871116164,-0.017627825295335887,-0.013788100973579555,0.27202000000000004,0.00355,0.00413,-0.158515,0.1595146,9.712437000000001,31.024296682000003,121.432177968,15.344000000000001,350355.34892480157,3433350.0251877517,-900.7310751984478,-429.38481224840507,0.0,0.0,0.0,0.0,0.0,50,5,188
1675214667190.0,2023-02-01 09:24:27:195936,72.74000000000001,-1.01,-0.79,1.2695524871116164,-0.017627825295335887,-0.013788100973579555,0.08591,-0.055790000000000006,0.016220000000000002,-0.1669822,0.20857340000000002,9.6201994,31.024296681000003,121.432177968,15.344000000000001,350355.3489232379,3433350.0250769053,-900.7310767621384,-429.38492309488356,0.0,0.0,0.0,0.0,0.0,50,5,188
1675214667210.0,2023-02-01 09:24:27:215987,72.74000000000001,-1.0,-0.79,1.2695524871116164,-0.01745329237161969,-0.013788100973579555,0.06964000000000001,-0.04582000000000001,0.05433,-0.16818760000000002,0.26956860000000005,9.5840178,31.024296699,121.432177963,15.343,350355.34847409185,3433350.0270788507,-900.7315259081661,-429.38292114948854,0.0,0.0,0.0,0.0,0.0,50,5,188
1675214667230.0,2023-02-01 09:24:27:235922,72.74000000000001,-1.01,-0.79,1.2695524871116164,-0.017627825295335887,-0.013788100973579555,-0.060070000000000005,-0.013880000000000002,0.06035000000000001,-0.1628466,0.2565738,9.6208168,31.024296702,121.43217796,15.343,350355.3481924066,3433350.0274154255,-900.7318075934309,-429.38258457463235,0.0,0.0,0.0,0.0,0.0,50,5,188
1675214667250.0,2023-02-01 09:24:27:255986,72.74000000000001,-1.01,-0.79,1.2695524871116164,-0.017627825295335887,-0.013788100973579555,-0.11191000000000001,-0.028470000000000002,0.05416000000000001,-0.1457456,0.188944,9.709565600000001,31.024296702,121.43217796100001,15.343,350355.3482878645,3433350.02741408,-900.7317121355445,-429.3825859199278,0.0,0.0,-0.01,0.0,0.0,50,5,188
1675214667270.0,2023-02-01 09:24:27:275948,72.74000000000001,-1.01,-0.79,1.2695524871116164,-0.017627825295335887,-0.013788100973579555,-0.17714000000000002,0.01821,0.07112,-0.13899340000000002,0.16324840000000002,9.771678,31.024296702,121.43217796100001,15.343,350355.3482878645,3433350.02741408,-900.7317121355445,-429.3825859199278,0.0,0.0,-0.01,0.0,0.0,50,5,188
1675214667290.0,2023-02-01 09:24:27:295747,72.75,-1.01,-0.79,1.2697270200353323,-0.017627825295335887,-0.013788100973579555,-0.07818,-0.0036400000000000004,0.04662,-0.12396019999999999,0.1279488,9.8209426,31.024296702,121.43217796100001,15.343,350355.3482878645,3433350.02741408,-900.7317121355445,-429.3825859199278,0.0,0.0,-0.01,0.0,0.0,50,5,188
1675214667310.0,2023-02-01 09:24:27:315661,72.74000000000001,-1.01,-0.79,1.2695524871116164,-0.017627825295335887,-0.013788100973579555,-0.05258,0.00386,-0.022140000000000003,-0.125195,0.137102,9.838768799999999,31.024296702,121.43217796100001,15.343,350355.3482878645,3433350.02741408,-900.7317121355445,-429.3825859199278,0.0,0.0,-0.01,0.0,0.0,50,5,188
1675214667330.0,2023-02-01 09:24:27:335656,72.75,-1.01,-0.8,1.2697270200353323,-0.017627825295335887,-0.013962633897295752,0.0018800000000000002,-0.07697000000000001,0.009330000000000001,-0.1274588,0.14449120000000001,9.8349762,31.024296701,121.43217796100001,15.343,350355.3482863009,3433350.0273032347,-900.7317136991187,-429.382696765475,0.0,0.0,0.0,0.0,0.0,50,5,188
1675214667350.0,2023-02-01 09:24:27:356047,72.74000000000001,-1.01,-0.8,1.2695524871116164,-0.017627825295335887,-0.013962633897295752,0.02374,-0.050760000000000007,-0.052680000000000005,-0.1248422,0.1517138,9.8372204,31.024296701,121.43217796100001,15.342,350355.3482863009,3433350.0273032347,-900.7317136991187,-429.382696765475,0.0,0.0,0.0,0.0,0.0,50,5,188
1675214667370.0,2023-02-01 09:24:27:376065,72.74000000000001,-1.01,-0.8,1.2695524871116164,-0.017627825295335887,-0.013962633897295752,0.02824,0.02961,-0.0032400000000000003,-0.1273902,0.16381679999999998,9.8075656,31.024296701,121.43217796100001,15.342,350355.3482863009,3433350.0273032347,-900.7317136991187,-429.382696765475,0.0,0.0,0.0,0.0,0.0,50,5,188
1675214667390.0,2023-02-01 09:24:27:395557,72.74000000000001,-1.01,-0.8,1.2695524871116164,-0.017627825295335887,-0.013962633897295752,0.0458,0.04848,-0.04252,-0.13892480000000001,0.1591324,9.7948158,31.0242967,121.43217796100001,15.342,350355.3482847372,3433350.0271923896,-900.7317152628093,-429.3828076105565,0.0,0.0,0.0,0.0,0.0,50,5,188
1675214667410.0,2023-02-01 09:24:27:415986,72.74000000000001,-1.01,-0.8,1.2695524871116164,-0.017627825295335887,-0.013962633897295752,0.0016600000000000002,0.019170000000000003,-0.060500000000000005,-0.14929320000000001,0.17310720000000002,9.7903764,31.024296717000002,121.43217795800001,15.34,350355.3480249434,3433350.0290807975,-900.7319750566385,-429.38091920269653,0.0,0.0,0.0,0.0,0.0,50,5,188
1675214667430.0,2023-02-01 09:24:27:436018,72.74000000000001,-1.01,-0.79,1.2695524871116164,-0.017627825295335887,-0.013788100973579555,-0.03774,0.01931,-0.05541000000000001,-0.15511439999999999,0.19297180000000003,9.7830656,31.024296716000002,121.43217795800001,15.34,350355.3480233797,3433350.028969952,-900.7319766203291,-429.3810300482437,0.0,0.0,0.0,0.0,0.0,50,5,188
1675214667450.0,2023-02-01 09:24:27:456026,72.74000000000001,-1.01,-0.79,1.2695524871116164,-0.017627825295335887,-0.013788100973579555,-0.05836,0.03681,-0.02681,-0.1558004,0.2110724,9.777362,31.024296716000002,121.43217795800001,15.34,350355.3480233797,3433350.028969952,-900.7319766203291,-429.3810300482437,0.0,0.0,0.0,0.0,0.0,50,5,188
1675214667470.0,2023-02-01 09:24:27:476001,72.74000000000001,-1.02,-0.79,1.2695524871116164,-0.017802358219052083,-0.013788100973579555,-0.10326,0.052360000000000004,0.013680000000000001,-0.1522626,0.2337888,9.7627796,31.024296716000002,121.43217795800001,15.34,350355.3480233797,3433350.028969952,-900.7319766203291,-429.3810300482437,0.0,0.0,0.0,0.0,0.0,50,5,188
1675214667490.0,2023-02-01 09:24:27:495944,72.74000000000001,-1.02,-0.79,1.2695524871116164,-0.017802358219052083,-0.013788100973579555,-0.09371,0.051890000000000006,-0.004600000000000001,-0.14762720000000001,0.2562798,9.7643182,31.024296716000002,121.432177959,15.34,350355.34811883763,3433350.0289686047,-900.7318811623845,-429.3810313954018,0.0,0.0,0.0,0.0,0.0,50,5,188
1675214667510.0,2023-02-01 09:24:27:516011,72.74000000000001,-1.02,-0.79,1.2695524871116164,-0.017802358219052083,-0.013788100973579555,-0.13764,0.02542,0.00986,-0.1358868,0.2603664,9.77697,31.024296716000002,121.432177959,15.34,350355.34811883763,3433350.0289686047,-900.7318811623845,-429.3810313954018,0.0,0.0,0.0,0.0,0.0,50,5,188
1675214667530.0,2023-02-01 09:24:27:536000,72.74000000000001,-1.02,-0.79,1.2695524871116164,-0.017802358219052083,-0.013788100973579555,-0.13068000000000002,0.014620000000000001,0.01632,-0.12881120000000001,0.2851408,9.7610156,31.024296717000002,121.432177959,15.34,350355.3481204013,3433350.0290794508,-900.7318795986939,-429.380920549389,0.0,0.0,0.0,0.0,0.0,50,5,188
1675214667550.0,2023-02-01 09:24:27:555972,72.74000000000001,-1.02,-0.79,1.2695524871116164,-0.017802358219052083,-0.013788100973579555,-0.06979,0.011540000000000002,0.022650000000000003,-0.1279096,0.295274,9.7697964,31.024296717000002,121.43217796,15.339,350355.3482158617,3433350.029078104,-900.7317841383046,-429.3809218960814,0.0,0.0,-0.01,0.0,0.0,50,5,188
1675214667570.0,2023-02-01 09:24:27:576025,72.74000000000001,-1.03,-0.79,1.2695524871116164,-0.01797689114276828,-0.013788100973579555,-0.08757000000000001,-0.0171,0.02066,-0.1277626,0.29540140000000004,9.7855744,31.024296719000002,121.43217796100001,15.339,350355.348314447,3433350.0292984466,-900.7316855530371,-429.38070155354217,0.0,0.0,-0.01,0.0,0.0,50,5,188
1675214667590.0,2023-02-01 09:24:27:595983,72.74000000000001,-1.03,-0.79,1.2695524871116164,-0.01797689114276828,-0.013788100973579555,-0.0791,0.01572,0.051410000000000004,-0.1240484,0.35928760000000004,9.7521466,31.024296721000002,121.43217796200001,15.339,350355.3484130347,3433350.029518792,-900.7315869653248,-429.38048120820895,0.0,0.01,-0.01,0.002967082631858761,0.009549681704419373,50,5,188
1675214667610.0,2023-02-01 09:24:27:615649,72.74000000000001,-1.03,-0.79,1.2695524871116164,-0.01797689114276828,-0.013788100973579555,-0.10842,-0.00011,0.02383,-0.124558,0.40866979999999997,9.7275486,31.024296739,121.43217796100001,15.337,350355.34834572044,3433350.0315153496,-900.7316542795743,-429.378484650515,0.0,0.01,-0.01,0.002967082631858761,0.009549681704419373,50,5,188
1675214667630.0,2023-02-01 09:24:27:636043,72.74000000000001,-1.03,-0.79,1.2695524871116164,-0.01797689114276828,-0.013788100973579555,-0.11279000000000002,-0.033400000000000006,0.00434,-0.1259104,0.4023586,9.7438656,31.024296738,121.432177964,15.338000000000001,350355.3486305331,3433350.031400465,-900.7313694669283,-429.3785995352082,0.0,0.02,-0.01,0.005934165263717522,0.019099363408838745,50,5,188
1675214667650.0,2023-02-01 09:24:27:656019,72.74000000000001,-1.03,-0.79,1.2695524871116164,-0.01797689114276828,-0.013788100973579555,-0.15194000000000002,-0.053590000000000006,-0.01803,-0.1323392,0.4162844,9.7545672,31.024296743,121.43217796500001,15.338000000000001,350355.34873381176,3433350.0319533437,-900.7312661882606,-429.3780466564931,0.0,0.02,-0.01,0.005934165263717522,0.019099363408838745,50,5,188
1675214667670.0,2023-02-01 09:24:27:676012,72.74000000000001,-1.04,-0.79,1.2695524871116164,-0.018151424066484477,-0.013788100973579555,-0.21896000000000002,-0.06695000000000001,-0.04095,-0.1391894,0.476476,9.738064000000001,31.024296748,121.432177967,15.337,350355.348932546,3433350.0325048757,-900.7310674540349,-429.37749512447044,0.0,0.03,-0.01,0.00890124789557628,0.028649045113258116,50,5,188
1675214667690.0,2023-02-01 09:24:27:695989,72.74000000000001,-1.04,-0.8,1.2695524871116164,-0.018151424066484477,-0.013962633897295752,-0.22005000000000002,-0.03495,-0.022420000000000002,-0.1410416,0.508718,9.7429444,31.024296755,121.43217796900001,15.337,350355.34913441003,3433350.033278099,-900.7308655899833,-429.37672190135345,0.01,0.03,-0.01,-0.0006484338088430918,0.03161612774511688,50,5,188
1675214667710.0,2023-02-01 09:24:27:715964,72.74000000000001,-1.05,-0.8,1.2695524871116164,-0.018325956990200676,-0.013962633897295752,-0.2461,-0.07078000000000001,0.012960000000000001,-0.1476174,0.4931164,9.7711194,31.024296762000002,121.432177972,15.337,350355.3494317321,3433350.0340499743,-900.7305682679289,-429.3759500258602,0.01,0.04,-0.01,0.0023186488230156708,0.04116580944953625,50,5,188
1675214667730.0,2023-02-01 09:24:27:736002,72.74000000000001,-1.05,-0.8,1.2695524871116164,-0.018325956990200676,-0.013962633897295752,-0.21338000000000001,-0.04401,-0.026660000000000003,-0.1525958,0.5287198000000001,9.7836242,31.024296771000003,121.432177975,15.336,350355.3497321814,3433350.0350435413,-900.7302678186097,-429.374956458807,0.01,0.05,-0.01,0.005285731454874432,0.05071549115395563,50,5,188
1675214667750.0,2023-02-01 09:24:27:755733,72.74000000000001,-1.06,-0.8,1.2695524871116164,-0.01850048991391687,-0.013962633897295752,-0.22918000000000002,-0.03708,0.033830000000000006,-0.1573978,0.5461638,9.812201,31.024296781,121.432177979,15.336,350355.3501296523,3433350.036146606,-900.7298703477136,-429.373853394296,0.01,0.05,-0.01,0.005285731454874432,0.05071549115395563,50,5,188
1675214667770.0,2023-02-01 09:24:27:775641,72.74000000000001,-1.06,-0.8,1.2695524871116164,-0.01850048991391687,-0.013962633897295752,-0.26769000000000004,-0.01956,-0.023610000000000003,-0.1593872,0.5391568,9.815288,31.024296792,121.432177983,15.336,350355.3505286869,3433350.0373605164,-900.7294713131269,-429.3726394837722,0.02,0.06,-0.01,-0.0012968676176861836,0.06323225549023376,50,5,188
1675214667790.0,2023-02-01 09:24:27:796045,72.74000000000001,-1.07,-0.8,1.2695524871116164,-0.01867502283763307,-0.013962633897295752,-0.22579000000000002,-0.0123,0.014520000000000002,-0.15927940000000002,0.6288072,9.7822228,31.024296804000002,121.432177988,15.336,350355.3510247456,3433350.0386839244,-900.728975254402,-429.3713160757907,0.02,0.07,-0.01,0.0016702150141725824,0.07278193719465315,50,5,188
1675214667810.0,2023-02-01 09:24:27:815990,72.74000000000001,-1.07,-0.8,1.2695524871116164,-0.01867502283763307,-0.013962633897295752,-0.25438,-0.00939,0.01314,-0.1612002,0.646506,9.7907782,31.024296833,121.432177991,15.334,350355.3513564684,3433350.041894393,-900.72864353162,-429.3681056071073,0.02,0.08,-0.01,0.0046372976460313416,0.0823316188990725,50,5,188
1675214667830.0,2023-02-01 09:24:27:835709,72.74000000000001,-1.08,-0.8,1.2695524871116164,-0.018849555761349265,-0.013962633897295752,-0.16670000000000001,-0.017810000000000003,-0.00978,-0.16071020000000003,0.599515,9.84312,31.024296852000003,121.43217799700001,15.334,350355.35195893067,3433350.0439923713,-900.7280410693493,-429.36600762885064,0.02,0.09,-0.01,0.007604380277890101,0.09188130060349188,50,5,188
1675214667850.0,2023-02-01 09:24:27:856050,72.74000000000001,-1.08,-0.8,1.2695524871116164,-0.018849555761349265,-0.013962633897295752,-0.20078000000000001,0.007980000000000001,0.027920000000000004,-0.15700580000000003,0.6569332,9.8119462,31.02429687,121.432178003,15.333,350355.35255982936,3433350.045979504,-900.7274401706527,-429.36402049614117,0.03,0.1,-0.01,0.0010217812053294924,0.10439806493977001,50,5,188
1675214667870.0,2023-02-01 09:24:27:876026,72.74000000000001,-1.08,-0.8,1.2695524871116164,-0.018849555761349265,-0.013962633897295752,-0.19637000000000002,-0.0030700000000000002,0.043230000000000005,-0.1546538,0.704669,9.7995688,31.024296889000002,121.432178011,15.333,350355.3533532076,3433350.0480747875,-900.7266467924346,-429.3619252126664,0.03,0.11,-0.01,0.0039888638371882515,0.11394774664418938,50,5,188
1675214667890.0,2023-02-01 09:24:27:896047,72.74000000000001,-1.09,-0.8,1.2695524871116164,-0.019024088685065464,-0.013962633897295752,-0.11671000000000001,-0.012060000000000001,0.01957,-0.1499596,0.6389404,9.851969400000002,31.024296909,121.432178018,15.333,350355.3540526915,3433350.0502822646,-900.7259473085287,-429.359717735555,0.03,0.11,-0.01,0.0039888638371882515,0.11394774664418938,50,5,188
1675214667910.0,2023-02-01 09:24:27:915952,72.74000000000001,-1.09,-0.8,1.2695524871116164,-0.019024088685065464,-0.013962633897295752,-0.13642,-0.020980000000000002,-0.00045000000000000004,-0.1500282,0.662627,9.8355936,31.024296931000002,121.432178027,15.333,350355.35494622105,3433350.0527087376,-900.725053778966,-429.35729126259685,0.04,0.12,0.0,-0.0025937352353723672,0.12646451098046751,50,5,188
1675214667930.0,2023-02-01 09:24:27:935989,72.74000000000001,-1.09,-0.8,1.2695524871116164,-0.019024088685065464,-0.013962633897295752,-0.09126000000000001,0.00233,0.0069500000000000004,-0.143864,0.7335887999999999,9.806027,31.024296955,121.43217803600001,15.332,350355.35584287805,3433350.055356902,-900.7241571219638,-429.35464309807867,0.04,0.13,0.0,0.0003733473964864023,0.1360141926848869,50,5,188
1675214667950.0,2023-02-01 09:24:27:955966,72.74000000000001,-1.09,-0.8,1.2695524871116164,-0.019024088685065464,-0.013962633897295752,-0.07515000000000001,-0.01519,-0.005770000000000001,-0.1420314,0.6760334000000001,9.8303996,31.024296981000003,121.432178045,15.332,350355.35674266226,3433350.058226755,-900.7232573377551,-429.3517732452601,0.04,0.14,0.0,0.003340430028345165,0.1455638743893063,50,5,188
1675214667970.0,2023-02-01 09:24:27:975940,72.74000000000001,-1.09,-0.8,1.2695524871116164,-0.019024088685065464,-0.013962633897295752,-0.07450000000000001,-0.02833,-0.020530000000000003,-0.143472,0.7033166000000001,9.814700000000002,31.024297009,121.43217805600001,15.332,350355.35783649224,3433350.0613156054,-900.7221635077731,-429.3486843947321,0.05,0.15,0.0,-0.003242169044215454,0.15808063872558437,50,5,188
1675214667990.0,2023-02-01 09:24:27:995949,72.74000000000001,-1.09,-0.8,1.2695524871116164,-0.019024088685065464,-0.013962633897295752,-0.07757,0.00461,0.01434,-0.1456966,0.7772281999999999,9.7810958,31.024297038,121.432178066,15.332,350355.35883642547,3433350.0645166477,-900.721163574548,-429.34548335243016,0.05,0.16,0.0,-0.00027508641235669123,0.16763032043000375,50,5,188
1675214668010.0,2023-02-01 09:24:28:015951,72.75,-1.1,-0.8,1.2697270200353323,-0.01919862160878166,-0.013962633897295752,-0.03343,-0.03955,-0.048760000000000005,-0.1446774,0.7045514,9.800832999999999,31.024297069000003,121.432178078,15.332,350355.3600304044,3433350.0679366887,-900.7199695956078,-429.34206331148744,0.05,0.17,0.0,0.002661072434861106,0.17718046927778588,50,5,188
1675214668030.0,2023-02-01 09:24:28:035593,72.75,-1.1,-0.8,1.2697270200353323,-0.01919862160878166,-0.013962633897295752,-0.09801000000000001,0.0012900000000000001,0.018260000000000002,-0.14834260000000002,0.7538355999999999,9.784966800000001,31.024297096,121.432178073,15.332,350355.35959532904,3433350.07093624,-900.7204046709812,-429.33906376035884,0.05,0.18,0.0,0.005626488287668645,0.18673066869035929,50,5,188
1675214668050.0,2023-02-01 09:24:28:056015,72.75,-1.1,-0.8,1.2697270200353323,-0.01919862160878166,-0.013962633897295752,-0.05417,-0.040650000000000006,-0.017400000000000002,-0.1570646,0.7929474000000001,9.7653766,31.024297131,121.43217808600001,15.332,350355.36089102057,3433350.074798314,-900.7191089794505,-429.3352016862482,0.06,0.2,0.0,0.0020071205807103143,0.2087964833683137,50,5,188
1675214668070.0,2023-02-01 09:24:28:075927,72.75,-1.1,-0.8,1.2697270200353323,-0.01919862160878166,-0.013962633897295752,-0.010740000000000001,-0.028600000000000004,0.016370000000000003,-0.15453619999999998,0.7624498,9.799108200000001,31.024297168,121.43217809900001,15.332,350355.3621898419,3433350.078882076,-900.7178101580939,-429.3311179243028,0.06,0.21,0.0,0.004972536433517853,0.2183466827808871,50,5,188
1675214668090.0,2023-02-01 09:24:28:096020,72.75,-1.1,-0.81,1.2697270200353323,-0.01919862160878166,-0.014137166821011949,-0.11219000000000001,-0.017570000000000002,-0.013070000000000002,-0.1547518,0.7779338,9.8020188,31.024297207000004,121.43217811400001,15.331,350355.36368270405,3433350.0831848383,-900.7163172959699,-429.32681516185403,0.07,0.22,0.0,-0.001612247126248037,0.23086229804626807,50,5,188
1675214668110.0,2023-02-01 09:24:28:115931,72.75,-1.1,-0.81,1.2697270200353323,-0.01919862160878166,-0.014137166821011949,0.040850000000000004,-0.024130000000000002,-0.02076,-0.1618078,0.7628124,9.802352,31.024297248000003,121.43217812900001,15.331,350355.365178696,3433350.0877092895,-900.71482130402,-429.3222907106392,0.07,0.23,0.0,0.0013531687265595088,0.2404124974588415,50,5,188
1675214668130.0,2023-02-01 09:24:28:135945,72.75,-1.1,-0.81,1.2697270200353323,-0.01919862160878166,-0.014137166821011949,0.0398,0.00185,0.01472,-0.1539972,0.7308545999999999,9.8541352,31.024297291000003,121.432178144,15.331,350355.3666778152,3433350.092455431,-900.7133221848053,-429.3175445692614,0.07,0.24,0.0,0.004318584579367041,0.2499626968714149,50,5,188
1675214668150.0,2023-02-01 09:24:28:156013,72.75,-1.1,-0.81,1.2697270200353323,-0.01919862160878166,-0.014137166821011949,-0.04317000000000001,-0.046650000000000004,0.036410000000000005,-0.15635900000000003,0.750239,9.8292922,31.024297336000004,121.43217816100001,15.331,350355.36837098014,3433350.097420569,-900.7116290198755,-429.3125794311054,0.08,0.25,0.0,-0.0022661989803988286,0.26247831213679584,50,5,188
