gps_time,utc_time,heading,pitch,roll,heading_radians,pitch_radians,roll_radians,gyroX,gyroY,gyroZ,accX,accY,accZ,latitude,longitude,altitude,utm_x_position,utm_y_position,local_x,local_y,east_speed,north_speed,vertical_speed,vehicle_lat_speed,vehicle_lon_speed,position_type,GNSS_info1,GNSS_info2
1675217865530.0,2023-02-01 10:17:45:514083,111.90999999999997,0.19,-0.15,1.953197949307959,0.003316125550607741,-0.0026179938557429534,-0.02238,0.03411,0.009500000000000001,-0.034545,-0.0271754,9.7974814,31.030463338,121.44340422600001,16.036,351436.5662261647,3434018.504223784,180.48622616467765,239.09422378381714,0.0,0.0,0.0,-0.0,0.0,50,5,188
1675217865550.0,2023-02-01 10:17:45:530567,111.90999999999997,0.19,-0.15,1.953197949307959,0.003316125550607741,-0.0026179938557429534,0.031100000000000003,-0.0009600000000000001,-0.039110000000000006,-0.037739800000000004,-0.028077,9.803371199999999,31.030463337,121.44340422600001,16.036,351436.56622461195,3434018.5041129384,180.48622461193008,239.09411293826997,0.0,0.0,0.0,-0.0,0.0,50,5,188
1675217865570.0,2023-02-01 10:17:45:550579,111.90999999999997,0.19,-0.15,1.953197949307959,0.003316125550607741,-0.0026179938557429534,-0.0016200000000000001,0.045630000000000004,0.001,-0.035525,-0.028263200000000002,9.7997452,31.030463337,121.44340422500001,16.036,351436.56612916035,3434018.5041142753,180.48612916033017,239.09411427518353,0.0,0.0,0.0,-0.0,0.0,50,5,188
1675217865590.0,2023-02-01 10:17:45:570629,111.90999999999997,0.19,-0.15,1.953197949307959,0.003316125550607741,-0.0026179938557429534,-0.00799,0.02127,0.009000000000000001,-0.0365344,-0.024558800000000002,9.8127498,31.030463337,121.44340422500001,16.036,351436.56612916035,3434018.5041142753,180.48612916033017,239.09411427518353,0.0,0.0,0.0,-0.0,0.0,50,5,188
1675217865610.0,2023-02-01 10:17:45:590625,111.90999999999997,0.19,-0.15,1.953197949307959,0.003316125550607741,-0.0026179938557429534,0.01285,-0.00321,0.0034900000000000005,-0.0319382,-0.0293706,9.809780400000001,31.030463337,121.443404227,16.036,351436.56632006343,3434018.5041116015,180.4863200634136,239.09411160135642,0.0,0.0,0.0,-0.0,0.0,50,5,188
1675217865630.0,2023-02-01 10:17:45:610641,111.90999999999997,0.19,-0.15,1.953197949307959,0.003316125550607741,-0.0026179938557429534,0.055880000000000006,-0.035910000000000004,-0.0033200000000000005,-0.026871600000000002,-0.0389354,9.803479,31.030463336,121.443404227,16.036,351436.5663185107,3434018.5040007564,180.48631851066602,239.0940007562749,0.0,0.0,0.0,-0.0,0.0,50,5,188
1675217865650.0,2023-02-01 10:17:45:630583,111.90999999999997,0.19,-0.15,1.953197949307959,0.003316125550607741,-0.0026179938557429534,0.059730000000000005,-0.01255,0.01059,-0.025166400000000002,-0.048029800000000004,9.797158000000001,31.030463336,121.44340422600001,16.036,351436.5662230592,3434018.5040020933,180.48622305918252,239.09400209318846,0.0,0.0,0.0,-0.0,0.0,50,5,188
1675217865670.0,2023-02-01 10:17:45:650292,111.90999999999997,0.19,-0.15,1.953197949307959,0.003316125550607741,-0.0026179938557429534,0.00668,0.0028100000000000004,-0.018430000000000002,-0.0239414,-0.052655400000000005,9.784261200000001,31.030463336,121.44340422600001,16.036,351436.5662230592,3434018.5040020933,180.48622305918252,239.09400209318846,0.0,0.0,0.0,-0.0,0.0,50,5,188
1675217865690.0,2023-02-01 10:17:45:670582,111.90999999999997,0.19,-0.15,1.953197949307959,0.003316125550607741,-0.0026179938557429534,-0.0333,0.03939,0.0020900000000000003,-0.0261562,-0.0511364,9.7796062,31.030463336,121.44340422500001,16.036,351436.5661276076,3434018.5040034303,180.4861276075826,239.09400343010202,0.0,0.0,0.0,-0.0,0.0,50,5,188
1675217865710.0,2023-02-01 10:17:45:690644,111.90999999999997,0.19,-0.15,1.953197949307959,0.003316125550607741,-0.0026179938557429534,0.02356,0.06642,0.02646,-0.0264698,-0.0442862,9.7660822,31.030463335,121.44340422500001,16.036,351436.56612605485,3434018.5038925856,180.48612605483504,239.09389258548617,0.0,0.0,0.0,-0.0,0.0,50,5,188
1675217865730.0,2023-02-01 10:17:45:710664,111.90999999999997,0.19,-0.15,1.953197949307959,0.003316125550607741,-0.0026179938557429534,-0.01335,0.02986,-0.00478,-0.024529400000000003,-0.039494,9.759192800000001,31.030463335,121.443404224,16.036,351436.5660306009,3434018.5038939225,180.48603060090682,239.09389392239973,0.0,0.0,0.0,-0.0,0.0,50,5,188
1675217865750.0,2023-02-01 10:17:45:730623,111.90999999999997,0.19,-0.15,1.953197949307959,0.003316125550607741,-0.0026179938557429534,-0.06772,-0.00547,0.031180000000000003,-0.0264012,-0.0300566,9.762025,31.030463335,121.443404224,16.036,351436.5660306009,3434018.5038939225,180.48603060090682,239.09389392239973,0.0,0.0,0.0,-0.0,0.0,50,5,188
1675217865770.0,2023-02-01 10:17:45:750637,111.90999999999997,0.19,-0.15,1.953197949307959,0.003316125550607741,-0.0026179938557429534,0.02287,0.00015000000000000001,0.006600000000000001,-0.0260092,-0.02401,9.777705000000001,31.030463334,121.443404223,16.036,351436.5659335966,3434018.503784414,180.48593359655933,239.09378441376612,0.0,0.0,0.0,-0.0,0.0,50,5,188
1675217865790.0,2023-02-01 10:17:45:770651,111.90999999999997,0.19,-0.15,1.953197949307959,0.003316125550607741,-0.0026179938557429534,-0.049150000000000006,-0.011030000000000002,0.043840000000000004,-0.0229712,-0.0204722,9.7910232,31.030463334,121.443404223,16.036,351436.5659335966,3434018.503784414,180.48593359655933,239.09378441376612,0.0,0.0,0.0,-0.0,0.0,50,5,188
1675217865810.0,2023-02-01 10:17:45:790670,111.90999999999997,0.19,-0.15,1.953197949307959,0.003316125550607741,-0.0026179938557429534,-0.030740000000000003,-0.05691,-0.02715,-0.0199038,-0.0202958,9.8000588,31.030463334,121.44340422500001,16.036,351436.5661245021,3434018.50378174,180.48612450208748,239.093781739939,0.0,0.0,0.0,-0.0,0.0,50,5,188
1675217865830.0,2023-02-01 10:17:45:810659,111.90999999999997,0.19,-0.15,1.953197949307959,0.003316125550607741,-0.0026179938557429534,0.009080000000000001,-0.022740000000000003,0.032510000000000004,-0.019590200000000002,-0.024029599999999998,9.808320199999999,31.030463334,121.44340422500001,16.036,351436.5661245021,3434018.50378174,180.48612450208748,239.093781739939,0.0,0.0,0.0,-0.0,0.0,50,5,188
1675217865850.0,2023-02-01 10:17:45:830593,111.90999999999997,0.19,-0.15,1.953197949307959,0.003316125550607741,-0.0026179938557429534,-0.033280000000000004,-0.02186,-0.01744,-0.022491,-0.023921800000000003,9.814200200000002,31.030463334,121.443404224,16.036,351436.5660290482,3434018.503783077,180.48602904815925,239.09378307685256,0.0,0.0,0.0,-0.0,0.0,50,5,188
1675217865870.0,2023-02-01 10:17:45:850287,111.90999999999997,0.19,-0.15,1.953197949307959,0.003316125550607741,-0.0026179938557429534,-0.05582,-0.0034400000000000003,0.00027,-0.0262738,-0.022246000000000002,9.8148764,31.030463333000004,121.443404224,16.036,351436.5660274954,3434018.503672233,180.4860274954117,239.09367223270237,0.0,0.0,0.0,-0.0,0.0,50,5,188
1675217865890.0,2023-02-01 10:17:45:870641,111.90999999999997,0.19,-0.15,1.953197949307959,0.003316125550607741,-0.0026179938557429534,-0.04422,-0.01564,0.043100000000000006,-0.0307524,-0.0145432,9.806164200000001,31.030463333000004,121.443404223,16.036,351436.5659320438,3434018.5036735698,180.48593204381177,239.09367356961593,0.0,0.0,0.0,-0.0,0.0,50,5,188
1675217865910.0,2023-02-01 10:17:45:890248,111.90999999999997,0.19,-0.15,1.953197949307959,0.003316125550607741,-0.0026179938557429534,0.009760000000000001,-0.02772,0.00023,-0.0370146,-0.0121226,9.7880342,31.030463333000004,121.44340422200001,16.036,351436.5658365923,3434018.503674907,180.48583659227006,239.09367490699515,0.0,0.0,0.0,-0.0,0.0,50,5,188
1675217865930.0,2023-02-01 10:17:45:910237,111.90999999999997,0.19,-0.15,1.953197949307959,0.003316125550607741,-0.0026179938557429534,-0.01106,0.0076300000000000005,0.031700000000000006,-0.042796600000000004,-0.0122206,9.7824384,31.030463333000004,121.44340422200001,16.036,351436.5658365923,3434018.503674907,180.48583659227006,239.09367490699515,0.0,0.0,0.0,-0.0,0.0,50,5,188
1675217865950.0,2023-02-01 10:17:45:930673,111.90999999999997,0.19,-0.15,1.953197949307959,0.003316125550607741,-0.0026179938557429534,-0.01552,-0.01017,0.047790000000000006,-0.0480396,-0.022510600000000002,9.7886026,31.030463333000004,121.44340422100001,16.036,351436.56574113836,3434018.503676244,180.48574113834184,239.0936762439087,0.0,0.0,0.0,-0.0,0.0,50,5,188
1675217865970.0,2023-02-01 10:17:45:950635,111.90999999999997,0.19,-0.15,1.953197949307959,0.003316125550607741,-0.0026179938557429534,0.02451,-0.038060000000000004,0.024300000000000002,-0.0471184,-0.0292236,9.789955,31.030463333000004,121.44340422,16.036,351436.5656456868,3434018.503677581,180.48564568680013,239.09367758082226,0.0,0.0,0.0,-0.0,0.0,50,5,188
1675217865990.0,2023-02-01 10:17:45:970655,111.90999999999997,0.19,-0.15,1.953197949307959,0.003316125550607741,-0.0026179938557429534,0.00653,-0.03338,0.0114,-0.044962400000000007,-0.0429436,9.7872208,31.030463333000004,121.44340422,16.036,351436.5656456868,3434018.503677581,180.48564568680013,239.09367758082226,0.0,0.0,0.0,-0.0,0.0,50,5,188
1675217866010.0,2023-02-01 10:17:45:990609,111.92000000000002,0.19,-0.16,1.953372482231676,0.003316125550607741,-0.0027925267794591505,0.014650000000000002,-0.04433,0.029970000000000004,-0.0465696,-0.0486276,9.7739516,31.030463332000004,121.443404219,16.036,351436.56554868,3434018.5035680733,180.48554868000792,239.09356807311997,0.0,0.0,0.0,-0.0,0.0,50,5,188
1675217866030.0,2023-02-01 10:17:46:010574,111.90999999999997,0.19,-0.16,1.953197949307959,0.003316125550607741,-0.0027925267794591505,-0.03527,-0.03892,-0.02082,-0.0406896,-0.0443548,9.773442000000001,31.030463333000004,121.44340422100001,16.036,351436.56574113836,3434018.503676244,180.48574113834184,239.0936762439087,0.0,0.0,0.0,-0.0,0.0,50,5,188
1675217866050.0,2023-02-01 10:17:46:030617,111.90999999999997,0.19,-0.16,1.953197949307959,0.003316125550607741,-0.0027925267794591505,-0.005960000000000001,-0.03128,0.0037700000000000003,-0.0414344,-0.0323988,9.7610058,31.030463333000004,121.44340422100001,16.036,351436.56574113836,3434018.503676244,180.48574113834184,239.0936762439087,0.0,0.0,0.0,-0.0,0.0,50,5,188
1675217866070.0,2023-02-01 10:17:46:050601,111.92000000000002,0.19,-0.16,1.953372482231676,0.003316125550607741,-0.0027925267794591505,-0.08263000000000001,-0.04154,0.02977,-0.038455199999999995,-0.0210014,9.753038400000001,31.030463333000004,121.44340422100001,16.036,351436.56574113836,3434018.503676244,180.48574113834184,239.0936762439087,0.0,0.0,0.0,-0.0,0.0,50,5,188
1675217866090.0,2023-02-01 10:17:46:070635,111.92000000000002,0.19,-0.16,1.953372482231676,0.003316125550607741,-0.0027925267794591505,-0.0912,-0.021900000000000003,0.01803,-0.038925600000000005,-0.0095746,9.7483638,31.030463333000004,121.44340422,16.036,351436.5656456868,3434018.503677581,180.48564568680013,239.09367758082226,0.0,0.0,0.0,-0.0,0.0,50,5,188
1675217866110.0,2023-02-01 10:17:46:090601,111.92000000000002,0.19,-0.16,1.953372482231676,0.003316125550607741,-0.0027925267794591505,-0.08494,0.018750000000000003,0.02687,-0.040082,-0.0105448,9.758203,31.030463333000004,121.44340422,16.036,351436.5656456868,3434018.503677581,180.48564568680013,239.09367758082226,0.0,0.0,0.0,-0.0,0.0,50,5,188
1675217866130.0,2023-02-01 10:17:46:110610,111.92000000000002,0.18,-0.16,1.953372482231676,0.0031415926268915442,-0.0027925267794591505,-0.12571000000000002,-0.01873,0.006,-0.039915400000000004,-0.0138278,9.7793612,31.030463333000004,121.44340422,16.036,351436.5656456868,3434018.503677581,180.48564568680013,239.09367758082226,0.0,0.0,0.0,-0.0,0.0,50,5,188
1675217866150.0,2023-02-01 10:17:46:130599,111.92000000000002,0.18,-0.16,1.953372482231676,0.0031415926268915442,-0.0027925267794591505,-0.18622000000000002,-0.027290000000000002,0.016810000000000002,-0.033261200000000005,-0.0155036,9.791336800000002,31.030463333000004,121.443404219,16.036,351436.5655502328,3434018.503678918,180.4855502327555,239.09367891773582,0.0,0.0,0.0,-0.0,0.0,50,5,188
1675217866170.0,2023-02-01 10:17:46:150621,111.92000000000002,0.18,-0.16,1.953372482231676,0.0031415926268915442,-0.0027925267794591505,-0.10906,-0.00504,-0.01836,-0.0315756,0.0001274,9.794022,31.030463334,121.443404219,16.035,351436.5655517855,3434018.503789763,180.48555178550305,239.09378976281732,0.0,0.0,0.0,-0.0,0.0,50,5,188
1675217866190.0,2023-02-01 10:17:46:170653,111.92000000000002,0.18,-0.16,1.953372482231676,0.0031415926268915442,-0.0027925267794591505,-0.11434000000000001,-0.02721,0.00884,-0.0326732,0.0387688,9.7782636,31.030463334,121.44340421800001,16.035,351436.56545633404,3434018.5037911,180.48545633401955,239.09379109973088,0.0,0.0,0.0,-0.0,0.0,50,5,188
1675217866210.0,2023-02-01 10:17:46:190636,111.92000000000002,0.17,-0.16,1.953372482231676,0.0029670597031753476,-0.0027925267794591505,-0.08473000000000001,-0.009290000000000001,-0.032720000000000006,-0.0240198,0.0716772,9.771531,31.030463336,121.44340422,16.036,351436.56565034506,3434018.504010117,180.4856503450428,239.0940101169981,0.0,0.0,0.0,-0.0,0.0,50,5,188
1675217866230.0,2023-02-01 10:17:46:210564,111.90999999999997,0.17,-0.16,1.953197949307959,0.0029670597031753476,-0.0027925267794591505,-0.10937000000000001,-0.0032,-0.03143,-0.0270186,0.0698642,9.8002646,31.030463336,121.44340422200001,16.036,351436.5658412506,3434018.504007442,180.48584125057096,239.094007441774,0.0,0.0,0.0,-0.0,0.0,50,5,188
1675217866250.0,2023-02-01 10:17:46:230498,111.90999999999997,0.17,-0.16,1.953197949307959,0.0029670597031753476,-0.0027925267794591505,-0.13471000000000002,-0.07260000000000001,-0.06398000000000001,-0.0146412,0.0641606,9.8156016,31.030463337,121.44340422,16.036,351436.56565189775,3434018.5041209613,180.48565189773217,239.0941209611483,0.0,0.0,0.0,-0.0,0.0,50,5,188
1675217866270.0,2023-02-01 10:17:46:250474,111.90999999999997,0.17,-0.16,1.953197949307959,0.0029670597031753476,-0.0027925267794591505,-0.07815000000000001,-0.0577,-0.06003000000000001,-0.007732200000000001,0.052126200000000004,9.8261758,31.030463339,121.443404219,16.036,351436.56555954926,3434018.504343988,180.48555954924086,239.0943439877592,0.0,0.0,0.0,-0.0,0.0,50,5,188
1675217866290.0,2023-02-01 10:17:46:270317,111.90999999999997,0.17,-0.16,1.953197949307959,0.0029670597031753476,-0.0027925267794591505,-0.08052000000000001,-0.02154,-0.08368,-0.0152096,0.0572418,9.8384356,31.030463341,121.44340421800001,16.036,351436.5654672032,3434018.504567013,180.48546720319428,239.09456701297313,0.0,0.01,0.0,-0.00373149699469581,0.009277711473126126,50,5,188
1675217866310.0,2023-02-01 10:17:46:290558,111.90999999999997,0.17,-0.16,1.953197949307959,0.0029670597031753476,-0.0027925267794591505,-0.041490000000000006,-0.0033200000000000005,-0.07369,-0.010711400000000001,0.0754894,9.8237356,31.030463343,121.443404216,16.036,351436.56527940324,3434018.504791378,180.48527940321947,239.09479137789458,0.0,0.01,0.0,-0.00373149699469581,0.009277711473126126,50,5,188
1675217866330.0,2023-02-01 10:17:46:310546,111.90999999999997,0.17,-0.16,1.953197949307959,0.0029670597031753476,-0.0027925267794591505,-0.01862,-0.004900000000000001,-0.11108000000000001,-0.0089082,0.0897288,9.821197399999999,31.030463345,121.44340421400001,16.035,351436.5650916056,3434018.505015744,180.48509160557296,239.09501574374735,-0.01,0.01,0.0,0.005546214478430316,0.013009208467821935,50,5,188
1675217866350.0,2023-02-01 10:17:46:330536,111.89999999999998,0.16,-0.17,1.9530234163842428,0.0027925267794591505,-0.0029670597031753476,-0.049460000000000004,-0.08711,-0.11672,-0.014455,0.1128862,9.7882596,31.030463348,121.443404211,16.035,351436.5648099068,3434018.5053522903,180.484809906804,239.0953522901982,-0.01,0.01,0.0,0.005548484929134234,0.0130082402726568,50,5,188
1675217866370.0,2023-02-01 10:17:46:350494,111.89999999999998,0.16,-0.17,1.9530234163842428,0.0027925267794591505,-0.0029670597031753476,-0.08393,-0.08589000000000001,-0.19503,-0.020668199999999998,0.21132720000000002,9.736692,31.030463352,121.44340420900001,16.035,351436.5646252122,3434018.5057983436,180.4846252122079,239.09579834342003,-0.01,0.02,0.0,0.001818607257372951,0.022286602873552316,50,5,188
1675217866390.0,2023-02-01 10:17:46:370544,111.89999999999998,0.16,-0.17,1.9530234163842428,0.0027925267794591505,-0.0029670597031753476,-0.11312000000000001,-0.13411,-0.20213,-0.0208446,0.3012324,9.6965022,31.030463356000002,121.44340420500001,16.035,351436.5642496146,3434018.506247072,180.4842496145866,239.09624707186595,-0.01,0.02,0.0,0.001818607257372951,0.022286602873552316,50,5,188
1675217866410.0,2023-02-01 10:17:46:390637,111.88999999999999,0.16,-0.18,1.9528488834605269,0.0027925267794591505,-0.0031415926268915442,-0.13424,-0.25113,-0.24155000000000001,-0.0188454,0.29530340000000005,9.7487656,31.030463362000003,121.44340420600001,16.035,351436.5643543851,3434018.5069108047,180.4843543850584,239.09691080451012,-0.01,0.03,0.0,-0.0019057612595947387,0.03156529857329767,50,5,188
1675217866430.0,2023-02-01 10:17:46:410549,111.88,0.15,-0.18,1.9526743505368107,0.0026179938557429534,-0.0031415926268915442,-0.25474,-0.20123000000000002,-0.30544000000000004,-0.017248,0.2780358,9.77844,31.030463372000003,121.443404204,16.035,351436.56417900696,3434018.508021929,180.48417900694767,239.09802192868665,-0.02,0.03,0.0,0.00737941196176089,0.03529226939569939,50,5,188
1675217866450.0,2023-02-01 10:17:46:430597,111.88,0.15,-0.18,1.9526743505368107,0.0026179938557429534,-0.0031415926268915442,-0.20886000000000002,-0.16925,-0.37201,-0.0187474,0.331779,9.7713644,31.03046338,121.44340419900001,16.035,351436.5637141663,3434018.508915373,180.48371416627197,239.09891537297517,-0.02,0.04,0.0,0.003652773276675035,0.04457193340420862,50,5,188
1675217866470.0,2023-02-01 10:17:46:450542,111.87,0.15,-0.19,1.9524998176130948,0.0026179938557429534,-0.003316125550607741,-0.19192,-0.15893000000000002,-0.46431000000000006,-0.027645799999999998,0.36201200000000006,9.7945512,31.030463389,121.443404193,16.035,351436.56315542693,3434018.5099210013,180.48315542691853,239.0999210011214,-0.02,0.05,0.0,-6.446653059028612e-05,0.053851609484456775,50,5,188
1675217866490.0,2023-02-01 10:17:46:470552,111.86000000000001,0.14,-0.19,1.9523252846893788,0.0024434609320267567,-0.003316125550607741,-0.19110000000000002,-0.13075,-0.44348000000000004,-0.037779,0.3487428,9.8314874,31.030463399000002,121.44340418700001,16.035,351436.56259824027,3434018.5110374726,180.48259824025445,239.1010374724865,-0.03,0.05,0.0,0.009225896634618057,0.05757501916011269,50,5,188
1675217866510.0,2023-02-01 10:17:46:490561,111.84999999999997,0.14,-0.19,1.9521507517656618,0.0024434609320267567,-0.003316125550607741,-0.08736000000000001,-0.11333000000000001,-0.46414000000000005,-0.0410326,0.3461458,9.8333592,31.030463410000003,121.44340418,16.035,351436.56194715475,3434018.5122661265,180.481947154738,239.10226612631232,-0.03,0.06,0.0,0.005514165876678901,0.0668550220603095,50,5,188
1675217866530.0,2023-02-01 10:17:46:510628,111.83999999999997,0.14,-0.19,1.9519762188419456,0.0024434609320267567,-0.003316125550607741,-0.08377000000000001,-0.08143,-0.5243500000000001,-0.052400600000000006,0.3863062,9.8224616,31.030463423,121.443404173,16.035,351436.5612991748,3434018.513716471,180.4812991747749,239.1037164707668,-0.03,0.07,0.0,0.0018056748452085318,0.07613632207004344,50,5,188
1675217866550.0,2023-02-01 10:17:46:530555,111.82999999999998,0.14,-0.2,1.9518016859182297,0.0024434609320267567,-0.003490658474323938,-0.04902,-0.09121000000000001,-0.5474100000000001,-0.0640724,0.3902066,9.8265384,31.030463437,121.443404165,16.035,351436.5605572936,3434018.515278998,180.48055729357293,239.10527899768203,-0.03,0.08,0.0,-0.001899576120131495,0.08541891834110187,50,5,188
1675217866570.0,2023-02-01 10:17:46:550556,111.82,0.14,-0.2,1.9516271529945135,0.0024434609320267567,-0.003490658474323938,-0.019760000000000003,-0.09401000000000001,-0.56555,-0.06581680000000001,0.3586996,9.8303408,31.030463452000003,121.44340415600001,16.035,351436.559721516,3434018.516953705,180.47972151596332,239.10695370472968,-0.04,0.08,0.0,0.007398893768807171,0.08913616758083054,50,5,188
1675217866590.0,2023-02-01 10:17:46:570544,111.80000000000001,0.14,-0.2,1.9512780871470816,0.0024434609320267567,-0.003490658474323938,-0.009840000000000002,-0.02006,-0.5937300000000001,-0.0719712,0.37898560000000003,9.809986199999999,31.030463469,121.44340414700001,16.035,351436.5588888415,3434018.518850105,180.47888884146232,239.1088501047343,-0.04,0.09,0.0,0.0037163295077469113,0.09841843777966529,50,5,188
1675217866610.0,2023-02-01 10:17:46:590621,111.79000000000002,0.14,-0.2,1.9511035542233655,0.0024434609320267567,-0.003490658474323938,-0.015590000000000001,-0.0013100000000000002,-0.56667,-0.0595252,0.3855614,9.774471,31.030463488000002,121.44340414300001,16.035,351436.55853653257,3434018.520961506,180.47853653255152,239.11096150567755,-0.04,0.1,0.0,2.1449077239603376e-05,0.10770329400690161,50,5,188
1675217866630.0,2023-02-01 10:17:46:610621,111.77999999999997,0.14,-0.2,1.9509290212996484,0.0024434609320267567,-0.003490658474323938,-0.03803,-0.004260000000000001,-0.62934,-0.036064,0.4282796,9.7312236,31.030463509,121.443404141,16.035,351436.55837823474,3434018.5232919254,180.4783782347222,239.113291925285,-0.05,0.11,0.0,0.005615963982132578,0.12069987965425397,50,5,188
1675217866650.0,2023-02-01 10:17:46:630544,111.76999999999998,0.13,-0.2,1.9507544883759325,0.0022689280083105596,-0.003490658474323938,-0.06833,-0.01433,-0.68269,-0.0386414,0.4392556,9.7353298,31.030463531000002,121.44340413,16.035,351436.5573624209,3434018.5257452223,180.47736242087558,239.11574522219598,-0.05,0.12,0.0,0.0019282138470952809,0.12998569918017855,50,5,188
1675217866670.0,2023-02-01 10:17:46:650633,111.75,0.13,-0.2,1.9504054225285004,0.0022689280083105596,-0.003490658474323938,-0.06505000000000001,0.01873,-0.7439,-0.017591,0.4258982,9.7397496,31.030463553,121.443404118,16.035,351436.55625115306,3434018.528199857,180.47625115304254,239.11819985695183,-0.05,0.12,0.0,0.0019735872969387294,0.1299850181874102,50,5,188
1675217866690.0,2023-02-01 10:17:46:670605,111.74000000000001,0.13,-0.2,1.9502308896047842,0.0022689280083105596,-0.003490658474323938,-0.15832000000000002,0.045000000000000005,-0.79798,0.003332,0.456778,9.756194,31.030463577000003,121.443404106,16.035,351436.55514299066,3434018.530876181,180.47514299064642,239.12087618093938,-0.06,0.13,0.0,0.007581063039164497,0.14297736703127603,50,5,188
1675217866710.0,2023-02-01 10:17:46:690635,111.71999999999997,0.13,-0.2,1.9498818237573512,0.0022689280083105596,-0.003490658474323938,-0.14718,0.054090000000000006,-0.9233500000000001,-0.0087514,0.4478012,9.75933,31.030463603,121.44340409200001,16.035,351436.55384703074,3434018.533776869,180.4738470307202,239.12377686891705,-0.06,0.14,0.0,0.0039302606140932325,0.15226474658142414,50,5,188
1675217866730.0,2023-02-01 10:17:46:710540,111.69999999999999,0.12,-0.2,1.949532757909919,0.0020943950845943625,-0.003490658474323938,-0.19319000000000003,0.08048000000000001,-1.06482,0.0013524000000000001,0.4504962,9.7850844,31.030463630000003,121.44340407800001,16.035,351436.55255262344,3434018.5367884035,180.47255262342514,239.1267884033732,-0.07,0.15,0.0,0.0095772691541655,0.16525215858060271,50,5,188
1675217866750.0,2023-02-01 10:17:46:730628,111.67000000000002,0.12,-0.19,1.949009159138771,0.0020943950845943625,-0.003316125550607741,-0.2635,0.08948,-1.0506300000000002,-0.009251200000000001,0.485443,9.78236,31.030463659000002,121.443404063,16.034,351436.5511658653,3434018.5400229637,180.47116586531047,239.13002296350896,-0.07,0.16,0.0,0.005971191679118505,0.17454038177433676,50,5,188
1675217866770.0,2023-02-01 10:17:46:750639,111.64999999999998,0.11,-0.19,1.948660093291338,0.0019198621608781659,-0.003316125550607741,-0.23195000000000002,0.11651000000000002,-1.20018,-0.0298606,0.48689340000000003,9.7804392,31.030463689,121.443404047,16.034,351436.5496852108,3434018.5433697044,180.46968521078816,239.1333697042428,-0.07,0.17,0.0,0.002342759599695765,0.18383283568899772,50,5,188
1675217866790.0,2023-02-01 10:17:46:770613,111.63,0.11,-0.19,1.948311027443906,0.0019198621608781659,-0.003316125550607741,-0.21194000000000002,0.10222,-1.2454800000000001,-0.045726800000000005,0.5170186,9.78726,31.030463721,121.44340403000001,16.034,351436.54811221024,3434018.546939474,180.46811221021926,239.13693947391585,-0.08,0.18,0.0,0.008016652203685512,0.19681395602813623,50,5,188
1675217866810.0,2023-02-01 10:17:46:790650,111.59999999999997,0.11,-0.19,1.9477874286727568,0.0019198621608781659,-0.003316125550607741,-0.21675000000000003,0.13438,-1.36478,-0.0633766,0.5325908,9.7756764,31.030463755000003,121.443404017,16.034,351436.54692412383,3434018.5507255862,180.46692412381526,239.1407255860977,-0.08,0.19,0.0,0.004438457272651186,0.20610749646007262,50,5,188
1675217866830.0,2023-02-01 10:17:46:810610,111.57,0.1,-0.19,1.9472638299016087,0.001745329237161969,-0.003316125550607741,-0.26080000000000003,0.09843,-1.3347000000000002,-0.0921592,0.5336786,9.787211000000001,31.030463790000002,121.44340400300001,16.034,351436.54564213613,3434018.5546238786,180.46564213611418,239.14462387841195,-0.08,0.2,0.0,0.0008699977209163795,0.21540483537740188,50,5,188
1675217866850.0,2023-02-01 10:17:46:830615,111.54000000000002,0.09,-0.18,1.9467402311304605,0.0015707963134457721,-0.0031415926268915442,-0.29445000000000005,0.11876,-1.3223,-0.109613,0.5553072,9.781762200000001,31.030463827000002,121.44340398400001,16.034,351436.54388599383,3434018.558750547,180.46388599381316,239.148750546854,-0.09,0.21,0.0,0.006612891356079467,0.22837747189228774,50,5,188
1675217866870.0,2023-02-01 10:17:46:850593,111.51999999999998,0.09,-0.18,1.9463911652830275,0.0015707963134457721,-0.0031415926268915442,-0.30241,0.0903,-1.34562,-0.1181488,0.5720554,9.7606922,31.030463867,121.44340396400001,16.034,351436.5420390582,3434018.563211087,180.46203905815491,239.15321108698845,-0.09,0.22,0.0,0.0030243500673328844,0.2376780454873151,50,5,188
1675217866890.0,2023-02-01 10:17:46:870555,111.49000000000001,0.08,-0.18,1.9458675665118794,0.0013962633897295752,-0.0031415926268915442,-0.30287000000000003,0.056760000000000005,-1.3109300000000002,-0.1106126,0.5700268,9.774353399999999,31.030463909,121.44340394400001,16.034,351436.5401952256,3434018.567893318,180.46019522560528,239.1578933177516,-0.09,0.23,0.0,-0.0005145905929407196,0.24698124462501536,50,5,188
1675217866910.0,2023-02-01 10:17:46:890660,111.46999999999997,0.07,-0.18,1.9455185006644462,0.0012217304660133784,-0.0031415926268915442,-0.35953,0.03715,-1.3086200000000001,-0.1068004,0.589568,9.7677188,31.030463953,121.443403923,16.034,351436.53825904697,3434018.572798576,180.45825904695084,239.16279857605696,-0.1,0.25,0.0,0.0015574357024693286,0.26925373608184655,50,5,188
1675217866930.0,2023-02-01 10:17:46:910307,111.44,0.07,-0.18,1.9449949018932982,0.0012217304660133784,-0.0031415926268915442,-0.32813000000000003,0.030390000000000004,-1.3085,-0.0889252,0.593929,9.7892396,31.030463999000002,121.44340390100001,16.033,351436.5362305247,3434018.5779268593,180.45623052469455,239.1679268591106,-0.1,0.26,0.0,-0.0019568503877374355,0.27856089233156905,50,5,188
1675217866950.0,2023-02-01 10:17:46:930586,111.40999999999997,0.06,-0.18,1.944471303122149,0.0010471975422971813,-0.0031415926268915442,-0.34128000000000003,0.06435,-1.35085,-0.0645624,0.5919592,9.7927774,31.030464047000002,121.443403879,16.033,351436.53420510306,3434018.583276834,180.45420510304393,239.17327683372423,-0.1,0.27,0.0,-0.005461388618146781,0.2878717999984743,50,5,188
1675217866970.0,2023-02-01 10:17:46:950199,111.38,0.05,-0.18,1.943947704351001,0.0008726646185809845,-0.0031415926268915442,-0.32776000000000005,0.08302000000000001,-1.36382,-0.0423066,0.6070316,9.795550800000001,31.030464097000003,121.44340385500001,16.033,351436.5319918863,3434018.5888511715,180.45199188630795,239.17885117139667,-0.11,0.28,0.0,0.00035565528676048674,0.30083196889512426,50,5,188
1675217866990.0,2023-02-01 10:17:46:970484,111.36000000000001,0.05,-0.18,1.9435986385035688,0.0008726646185809845,-0.0031415926268915442,-0.34665,0.06807,-1.3983400000000001,-0.0306446,0.6160672,9.7818798,31.03046415,121.44340383100001,16.033,351436.5297833254,3434018.594758045,180.44978332536994,239.1847580447793,-0.11,0.29,0.0,-0.003181601375974244,0.3101449296904342,50,5,188
1675217867010.0,2023-02-01 10:17:46:990552,111.32999999999998,0.04,-0.18,1.9430750397324197,0.0006981316948647876,-0.0031415926268915442,-0.33922,0.04549,-1.4734,-0.015974000000000002,0.6317178,9.789249400000001,31.030464204,121.443403805,16.033,351436.52738541405,3434018.6007784377,180.44738541403785,239.1907784375362,-0.12,0.3,0.0,0.0026584096600531376,0.3230989521154151,50,5,188
1675217867030.0,2023-02-01 10:17:47:010461,111.30000000000001,0.03,-0.18,1.9425514409612716,0.0005235987711485906,-0.0031415926268915442,-0.33812000000000003,-0.01878,-1.5976700000000001,-0.0180124,0.6626858000000001,9.7727364,31.030464272000003,121.443403778,16.032,351436.52491378726,3434018.6083519966,180.44491378724342,239.19835199648514,-0.12,0.32,-0.01,-0.0044374407996436716,0.34173134055738824,50,5,188
1675217867050.0,2023-02-01 10:17:47:030527,111.26999999999998,0.03,-0.18,1.9420278421901225,0.0005235987711485906,-0.0031415926268915442,-0.32697000000000004,-0.05280000000000001,-1.6297100000000002,-0.0130536,0.6670566000000001,9.7731186,31.030464331,121.44340375,16.032,351436.5223327342,3434018.614929288,180.44233273417922,239.20492928801104,-0.13,0.33,-0.01,0.0014326696185678056,0.35468006351889025,50,5,188
1675217867070.0,2023-02-01 10:17:47:050218,111.23000000000002,0.02,-0.18,1.9413297104952585,0.0003490658474323938,-0.0031415926268915442,-0.3925,-0.11923000000000002,-1.7116500000000001,-0.011025,0.6583934,9.7769112,31.030464392000003,121.44340372100001,16.032,351436.5196593349,3434018.6217296077,180.4396593348938,239.21172960754484,-0.14,0.34,-0.01,0.007380499288237807,0.36762144691279414,50,5,188
1675217867090.0,2023-02-01 10:17:47:070622,111.19999999999999,0.01,-0.18,1.9408061117241093,0.0001745329237161969,-0.0031415926268915442,-0.34195000000000003,-0.12290000000000001,-1.85783,-0.0237748,0.6793458,9.775255000000001,31.030464455,121.44340369100001,16.032,351436.5168935873,3434018.6287529524,180.4368935872917,239.21875295229256,-0.14,0.35000000000000003,-0.01,0.003956738858544084,0.3769407701716615,50,5,188
1675217867110.0,2023-02-01 10:17:47:090621,111.15999999999997,0.01,-0.19,1.9401079800292442,0.0001745329237161969,-0.003316125550607741,-0.35516000000000003,-0.13761,-1.9206600000000003,-0.022736000000000003,0.7037380000000001,9.7631716,31.030464521000003,121.44340366,16.032,351436.5140370464,3434018.6361101684,180.43403704639059,239.22611016826704,-0.15,0.37,-0.01,0.006326180950244925,0.3991991726376506,50,5,188
1675217867130.0,2023-02-01 10:17:47:110565,111.12,0.0,-0.19,1.93940984833438,0.0,-0.003316125550607741,-0.33456,-0.09147000000000001,-2.00259,-0.028018200000000004,0.71197,9.768689,31.030464589,121.44340362800001,16.031,351436.51108815946,3434018.6436904143,180.43108815944288,239.23369041411206,-0.15,0.38,-0.01,0.0030016486506804774,0.40852293706152887,50,5,188
1675217867150.0,2023-02-01 10:17:47:130605,111.07999999999998,0.0,-0.19,1.938711716639515,0.0,-0.003316125550607741,-0.39591000000000004,-0.05795,-2.0409900000000003,-0.049774200000000005,0.7205744000000001,9.764867,31.030464659000003,121.443403594,16.031,351436.5079514725,3434018.651495022,180.42795147246215,239.2414950216189,-0.16,0.39,-0.01,0.009020931085469697,0.4214482445121242,50,5,188
1675217867170.0,2023-02-01 10:17:47:150504,111.04000000000002,-0.01,-0.19,1.9380135849446507,-0.0001745329237161969,-0.003316125550607741,-0.34914,0.0037900000000000004,-2.08888,-0.0666988,0.6995436,9.786113400000001,31.030464732000002,121.44340356000001,16.031,351436.5048194437,3434018.659632167,180.4248194436659,239.24963216669858,-0.16,0.41000000000000003,-0.01,0.0021347630628733016,0.44010844434828267,50,5,188
1675217867190.0,2023-02-01 10:17:47:170556,110.99000000000001,-0.01,-0.19,1.9371409203260694,-0.0001745329237161969,-0.003316125550607741,-0.40225000000000005,0.005200000000000001,-2.0896700000000004,-0.07992880000000001,0.6719468000000001,9.8290276,31.030464807,121.44340352500001,16.031,351436.50159506896,3434018.6679923376,180.4215950689395,239.25799233745784,-0.17,0.42,-0.01,0.00827320903885026,0.453024893369227,50,5,188
1675217867210.0,2023-02-01 10:17:47:190615,110.94999999999999,-0.02,-0.19,1.9364427886312043,-0.0003490658474323938,-0.003316125550607741,-0.34299,0.05621,-2.10734,-0.086975,0.6660275999999999,9.8430906,31.030464884,121.44340349500001,16.031,351436.4988510598,3434018.6765675116,180.41885105980327,239.26656751148403,-0.17,0.43,-0.01,0.005013947081552589,0.4623579352997668,50,5,188
1675217867230.0,2023-02-01 10:17:47:210644,110.90999999999997,-0.03,-0.19,1.9357446569363392,-0.0005235987711485906,-0.003316125550607741,-0.24026000000000003,0.04275,-2.11871,-0.0972552,0.6662627999999999,9.8290178,31.030464958000003,121.443403466,16.03,351436.49619784637,3434018.684808814,180.4161978463526,239.2748088138178,-0.17,0.44,-0.01,0.0017677222828905992,0.4716957442652314,50,5,188
1675217867250.0,2023-02-01 10:17:47:230562,110.87,-0.03,-0.19,1.935046525241475,-0.0005235987711485906,-0.003316125550607741,-0.33463000000000004,0.042050000000000004,-2.10284,-0.125979,0.685755,9.791474000000001,31.030465040000003,121.44340342800001,16.03,351436.49269798375,3434018.6939489115,180.41269798373105,239.28394891135395,-0.18,0.46,-0.01,0.004315963236550313,0.49394470587439315,50,5,188
1675217867270.0,2023-02-01 10:17:47:250582,110.82,-0.04,-0.19,1.934173860622894,-0.0006981316948647876,-0.003316125550607741,-0.23998000000000003,0.020290000000000002,-2.08895,-0.10991680000000001,0.686392,9.766248800000001,31.030465124000003,121.44340339000001,16.03,351436.4892012267,3434018.703310698,180.40920122666284,239.29331069765612,-0.18,0.47000000000000003,-0.01,0.0011926771955654836,0.5032877681020146,50,5,188
1675217867290.0,2023-02-01 10:17:47:270541,110.79000000000002,-0.04,-0.18,1.9336502618517457,-0.0006981316948647876,-0.0031415926268915442,-0.30015000000000003,0.05097,-1.98808,-0.0894054,0.6679582000000001,9.7650434,31.030465211000003,121.443403351,16.029,351436.48561367387,3434018.713006356,180.4056136738509,239.30300635565072,-0.18,0.48,-0.01,-0.002093239960830162,0.5126359510866033,50,5,188
1675217867310.0,2023-02-01 10:17:47:290612,110.74000000000001,-0.05,-0.18,1.9327775972331647,-0.0008726646185809845,-0.0031415926268915442,-0.23743000000000003,0.06618,-2.0443700000000002,-0.0686,0.669291,9.745757,31.030465299000003,121.44340331100001,16.029,351436.48193222226,3434018.7228141963,180.4019322222448,239.31281419610605,-0.19,0.5,-0.01,0.0006235342961118939,0.5348828013733303,50,5,188
1675217867330.0,2023-02-01 10:17:47:310650,110.69999999999999,-0.05,-0.18,1.9320794655382996,-0.0008726646185809845,-0.0031415926268915442,-0.27863000000000004,0.0461,-1.9962400000000002,-0.0566146,0.6609512,9.7510098,31.030465391000003,121.44340327,16.029,351436.47816153005,3434018.733066755,180.39816153002903,239.32306675473228,-0.19,0.51,-0.01,-0.002537795533694015,0.5442366760829603,50,5,188
1675217867350.0,2023-02-01 10:17:47:330557,110.65999999999997,-0.06,-0.18,1.9313813338434342,-0.0010471975422971813,-0.0031415926268915442,-0.32265000000000005,0.07300000000000001,-2.03589,-0.0308504,0.6547282,9.758007,31.030465484,121.44340322800001,16.029,351436.4742969391,3434018.743431493,180.39429693907732,239.33343149302527,-0.2,0.52,-0.01,0.0036708429412719568,0.5571234377694951,50,5,188
1675217867370.0,2023-02-01 10:17:47:350515,110.62,-0.07,-0.18,1.9306832021485703,-0.0012217304660133784,-0.0031415926268915442,-0.28944000000000003,0.07013000000000001,-2.03939,-0.034251000000000004,0.6805218000000001,9.7293812,31.030465579,121.44340318500001,16.028,351436.4703399996,3434018.7540192595,180.3903399995761,239.34401925932616,-0.2,0.53,-0.01,0.0005381039647329722,0.5664801059561785,50,5,188
1675217867390.0,2023-02-01 10:17:47:370613,110.57999999999998,-0.07,-0.18,1.929985070453705,-0.0012217304660133784,-0.0031415926268915442,-0.36115,0.061250000000000006,-2.05213,-0.031458,0.6719566000000001,9.745962800000001,31.030465677000002,121.443403141,16.028,351436.4662922669,3434018.764940898,180.38629226689227,239.35494089778513,-0.21,0.54,-0.01,0.006780255869703239,0.5793565638968298,50,5,188
1675217867410.0,2023-02-01 10:17:47:390626,110.54000000000002,-0.08,-0.18,1.929286938758841,-0.0013962633897295752,-0.0031415926268915442,-0.37709000000000004,0.07847000000000001,-2.03011,-0.0495978,0.6450654,9.790601800000001,31.030465778000003,121.44340310400001,16.028,351436.4629173581,3434018.7761857114,180.38291735807434,239.36618571123108,-0.21,0.56,-0.01,0.00016749734326196308,0.598080238717716,50,5,188
1675217867430.0,2023-02-01 10:17:47:410502,110.5,-0.09,-0.18,1.9285888070639756,-0.0015707963134457721,-0.0031415926268915442,-0.34095000000000003,0.04798,-2.0033800000000004,-0.0762244,0.6327958000000001,9.8300272,31.030465884,121.44340307300001,16.028,351436.4601229272,3434018.7879767264,180.38012292719213,239.37797672627494,-0.21,0.5700000000000001,-0.01,-0.0029170376198282555,0.6074466979838845,50,5,188
1675217867450.0,2023-02-01 10:17:47:430530,110.45999999999998,-0.09,-0.17,1.9278906753691105,-0.0015707963134457721,-0.0029670597031753476,-0.3365,0.09179000000000001,-1.94588,-0.1007734,0.6271216,9.8590548,31.030465988000003,121.443403027,16.028,351436.4558936055,3434018.79956611,180.37589360546554,239.3895661099814,-0.22,0.58,-0.01,0.0033806718243776235,0.6203132846054611,50,5,188
1675217867470.0,2023-02-01 10:17:47:450608,110.42000000000002,-0.1,-0.17,1.9271925436742465,-0.001745329237161969,-0.0029670597031753476,-0.34653,0.05555,-1.9146800000000002,-0.0871416,0.6146658,9.8401408,31.030466094,121.44340298,16.028,351436.45157193765,3434018.811378519,180.37157193763414,239.40137851890177,-0.22,0.59,-0.01,0.0003247394914289714,0.6296823759200051,50,5,188
1675217867490.0,2023-02-01 10:17:47:470603,110.38999999999999,-0.11,-0.17,1.9266689449030974,-0.0019198621608781659,-0.0029670597031753476,-0.27807000000000004,0.03823,-1.8604300000000003,-0.11024020000000001,0.6136858000000001,9.8113974,31.030466202000003,121.44340293200001,16.027,351436.44715792383,3434018.823413956,180.36715792381437,239.41341395583004,-0.22,0.6,-0.01,-0.0028296440508914777,0.6390555477535151,50,5,188
1675217867510.0,2023-02-01 10:17:47:490577,110.34999999999997,-0.11,-0.17,1.9259708132082323,-0.0019198621608781659,-0.0029670597031753476,-0.27423000000000003,0.02458,-1.86301,-0.1119944,0.606375,9.763563600000001,31.030466313,121.44340288400001,16.027,351436.4427485658,3434018.8357819268,180.36274856579257,239.42578192660585,-0.23,0.61,-0.01,0.00351482011743548,0.6519107653962635,50,5,188
1675217867530.0,2023-02-01 10:17:47:510613,110.31,-0.12,-0.17,1.925272681513368,-0.0020943950845943625,-0.0029670597031753476,-0.26005,-0.0158,-1.8262600000000002,-0.1010674,0.5752404000000001,9.7910918,31.030466425,121.443402835,16.027,351436.43824530917,3434018.848262079,180.35824530915124,239.43826207891107,-0.23,0.63,-0.01,-0.002972047677392703,0.6706647202086922,50,5,188
1675217867550.0,2023-02-01 10:17:47:530603,110.27999999999997,-0.12,-0.17,1.924749082742219,-0.0020943950845943625,-0.0029670597031753476,-0.28814,-0.058910000000000004,-1.7447400000000002,-0.093688,0.5613538,9.8133476,31.030466539000003,121.443402785,16.027,351436.4336497063,3434018.8609652612,180.3536497062887,239.45096526108682,-0.23,0.64,-0.01,-0.006086970363698763,0.6800462843011433,50,5,188
1675217867570.0,2023-02-01 10:17:47:550220,110.24000000000001,-0.13,-0.17,1.9240509510473547,-0.0022689280083105596,-0.0029670597031753476,-0.32055,-0.06679,-1.74825,-0.0666596,0.5460853999999999,9.807399000000002,31.030466655,121.443402735,16.027,351436.429057209,3434018.873890131,180.3490572089795,239.46389013063163,-0.23,0.65,-0.01,-0.009071739965729991,0.6894328854457077,50,5,188
1675217867590.0,2023-02-01 10:17:47:570611,110.20999999999998,-0.14,-0.18,1.9235273522762057,-0.0024434609320267567,-0.0031415926268915442,-0.32598000000000005,-0.05,-1.70778,-0.0400428,0.560854,9.844149,31.030466773,121.44340268500001,16.026,351436.4244678172,3434018.8870366914,180.34446781716542,239.47703669127077,-0.24,0.66,-0.01,-0.002781044808305849,0.7022764881368123,50,5,188
1675217867610.0,2023-02-01 10:17:47:590555,110.17000000000002,-0.14,-0.18,1.9228292205813415,-0.0024434609320267567,-0.0031415926268915442,-0.23818000000000003,-0.03502,-1.7105500000000002,-0.001176,0.5662832,9.8315658,31.030466893000003,121.443402637,16.026,351436.42007243645,3434018.9004022665,180.34007243643282,239.49040226638317,-0.24,0.67,0.0,-0.0057388301210015424,0.711664995506202,50,5,188
1675217867630.0,2023-02-01 10:17:47:610538,110.13999999999999,-0.15,-0.18,1.9223056218101924,-0.0026179938557429534,-0.0031415926268915442,-0.21978000000000003,-0.054200000000000005,-1.7547000000000001,-0.0474908,0.549241,9.8649348,31.030467011000002,121.44340257300001,16.027,351436.41414671333,3434018.913567547,180.3341467133141,239.50356754707173,-0.25,0.68,0.0,0.0005791865882141811,0.7244995959577176,50,5,188
1675217867650.0,2023-02-01 10:17:47:630217,110.09999999999997,-0.15,-0.18,1.9216074901153273,-0.0026179938557429534,-0.0031415926268915442,-0.19731,0.01284,-1.7635,-0.0405818,0.5404602000000001,9.8226772,31.030467134000002,121.443402519,16.027,351436.40918327426,3434018.927273681,180.32918327423977,239.51727368077263,-0.25,0.68,0.0,0.0010849825368385024,0.7244990150530881,50,5,188
1675217867670.0,2023-02-01 10:17:47:650502,110.07,-0.15,-0.18,1.9210838913441792,-0.0026179938557429534,-0.0031415926268915442,-0.22475,-0.18635000000000002,-1.81665,-0.0272636,0.5516714,9.7859566,31.030467259,121.443402465,16.027,351436.4042229431,3434018.9412015043,180.32422294310527,239.5312015041709,-0.25,0.6900000000000001,0.0,-0.0019673500708903557,0.7338910883323891,50,5,188
1675217867690.0,2023-02-01 10:17:47:670628,110.02999999999997,-0.16,-0.19,1.920385759649314,-0.0027925267794591505,-0.003316125550607741,-0.22189000000000003,-0.24361000000000002,-1.84075,-0.0401506,0.5257602,9.7591144,31.030467386,121.44340241100001,16.027,351436.39926571515,3434018.9553510174,180.3192657151376,239.5453510172665,-0.26,0.7000000000000001,0.0,0.004515016128786048,0.7467125381492914,50,5,188
1675217867710.0,2023-02-01 10:17:47:690497,109.99000000000001,-0.16,-0.19,1.91968762795445,-0.0027925267794591505,-0.003316125550607741,-0.23868000000000003,-0.30203,-1.9026200000000002,-0.0506268,0.5314246,9.769473,31.030467514,121.443402355,16.027,351436.3941191368,3434018.96961405,180.31411913677584,239.5596140497364,-0.26,0.71,0.0,0.001617757521151092,0.7561067271626426,50,5,188
1675217867730.0,2023-02-01 10:17:47:710579,109.94999999999999,-0.17,-0.2,1.9189894962595846,-0.0029670597031753476,-0.003490658474323938,-0.28634000000000004,-0.35562000000000005,-1.91328,-0.026224800000000003,0.5404405999999999,9.7378386,31.030467645,121.44340229900001,16.026,351436.3889772191,3434018.984209617,180.3089772191015,239.57420961698517,-0.27,0.72,0.0,0.008133526915220651,0.7689173204837562,50,5,188
1675217867750.0,2023-02-01 10:17:47:730653,109.90999999999997,-0.17,-0.21,1.9182913645647195,-0.0029670597031753476,-0.0036651913980401346,-0.27224000000000004,-0.29484000000000005,-1.9735500000000001,-0.0318598,0.5451936000000001,9.7561842,31.030467776000002,121.443402242,16.026,351436.38373984507,3434018.998806521,180.30373984505422,239.58880652068183,-0.27,0.73,0.0,0.005264894032310202,0.7783137419388332,50,5,188
1675217867770.0,2023-02-01 10:17:47:750620,109.87,-0.18,-0.21,1.9175932328698555,-0.0031415926268915442,-0.0036651913980401346,-0.28568000000000005,-0.20076000000000002,-1.9903600000000001,-0.0849464,0.5349036,9.7370938,31.030467910000002,121.443402184,16.026,351436.37841168017,3434019.0137372967,180.29841168015264,239.60373729653656,-0.27,0.74,-0.01,0.0024093866515558227,0.787714538939052,50,5,188
1675217867790.0,2023-02-01 10:17:47:770563,109.82999999999998,-0.19,-0.21,1.9168951011749902,-0.003316125550607741,-0.0036651913980401346,-0.25539,-0.14709,-1.98049,-0.0883568,0.5491332000000001,9.758252,31.030468045000003,121.443402125,16.026,351436.37298961414,3434019.0287802564,180.2929896141286,239.618780256249,-0.27,0.75,-0.01,-0.00043299051896400487,0.7971196977363002,50,5,188
1675217867810.0,2023-02-01 10:17:47:790604,109.79000000000002,-0.19,-0.21,1.9161969694801262,-0.003316125550607741,-0.0036651913980401346,-0.27296000000000004,-0.12139000000000001,-1.95958,-0.1009106,0.533806,9.752666000000001,31.030468184000004,121.44340207600001,16.026,351436.3685282817,3434019.0442532226,180.28852828167146,239.63425322249532,-0.28,0.76,-0.01,0.006147166026596318,0.8099149414289388,50,5,188
1675217867830.0,2023-02-01 10:17:47:810619,109.75,-0.2,-0.21,1.9154988377852609,-0.003490658474323938,-0.0036651913980401346,-0.27992,-0.01331,-1.9931,-0.1322902,0.5268872,9.7777442,31.03046832,121.44340201600001,16.026,351436.3630123168,3434019.059408363,180.28301231679507,239.64940836280584,-0.28,0.77,-0.01,0.0033334247465716116,0.8193222127340738,50,5,188
1675217867850.0,2023-02-01 10:17:47:830542,109.71999999999997,-0.2,-0.21,1.914975239014112,-0.003490658474323938,-0.0036651913980401346,-0.27599,0.025120000000000003,-1.9465400000000002,-0.1457358,0.5296018,9.7322036,31.03046846,121.443401957,16.026,351436.3575980145,3434019.0750055467,180.27759801450884,239.66500554652885,-0.28,0.78,-0.01,0.00038818179603261616,0.8287338832911886,50,5,188
1675217867870.0,2023-02-01 10:17:47:850607,109.68,-0.21,-0.21,1.9142771073192477,-0.0036651913980401346,-0.0036651913980401346,-0.28065,-0.01335,-1.9222100000000002,-0.11595359999999999,0.5332376,9.7738634,31.030468603000003,121.443401897,16.025,351436.3520929165,3434019.090936602,180.27209291647887,239.68093660194427,-0.28,0.79,-0.01,-0.002400918828614207,0.8381492919455211,50,5,188
1675217867890.0,2023-02-01 10:17:47:870599,109.63999999999999,-0.21,-0.22,1.9135789756243826,-0.0036651913980401346,-0.0038397243217563317,-0.22551000000000002,-0.07650000000000001,-1.91392,-0.1025178,0.5114032,9.7385932,31.030468747,121.443401836,16.025,351436.3464939222,3434019.1069798395,180.26649392215768,239.69697983935475,-0.28,0.8,-0.01,-0.005176871233370184,0.8475689942442639,50,5,188
1675217867910.0,2023-02-01 10:17:47:890617,109.59999999999997,-0.22,-0.22,1.9128808439295175,-0.0038397243217563317,-0.0038397243217563317,-0.33674000000000004,-0.13632000000000002,-1.9705700000000002,-0.0679238,0.5289942000000001,9.7930322,31.030468893000002,121.44340177500001,16.025,351436.3408980333,3434019.123244767,180.2608980332734,239.71324476692826,-0.29,0.81,-0.01,0.0014809037966486138,0.8603474919612105,50,5,188
1675217867930.0,2023-02-01 10:17:47:910521,109.56,-0.23,-0.22,1.9121827122346533,-0.004014257245472529,-0.0038397243217563317,-0.28642,-0.12783,-2.0580600000000002,-0.0760088,0.5271028000000001,9.7712272,31.030469040000003,121.443401714,16.025,351436.33530369477,3434019.139620539,180.25530369475018,239.72962053865194,-0.29,0.8200000000000001,-0.01,-0.001266398686012582,0.8697691626140629,50,5,188
1675217867950.0,2023-02-01 10:17:47:930575,109.51999999999998,-0.23,-0.22,1.9114845805397882,-0.004014257245472529,-0.0038397243217563317,-0.27022,-0.07703,-2.05378,-0.054929,0.5395096,9.818717999999999,31.030469189,121.443401651,16.024,351436.3295215563,3434019.1562206754,180.24952155631036,239.74622067529708,-0.29,0.8300000000000001,-0.01,-0.004000543682420199,0.8791950839547757,50,5,188
1675217867970.0,2023-02-01 10:17:47:950622,109.46999999999997,-0.24,-0.22,1.910611915921207,-0.004188790169188725,-0.0038397243217563317,-0.28800000000000003,-0.041370000000000004,-2.13978,-0.0705992,0.5390294,9.7619956,31.030469340000003,121.443401589,16.024,351436.3238379797,3434019.1730411653,180.2438379796804,239.76304116519168,-0.3,0.84,-0.01,0.002861729344930064,0.8919595341186484,50,5,188
1675217867990.0,2023-02-01 10:17:47:970601,109.43,-0.24,-0.22,1.9099137842263427,-0.004188790169188725,-0.0038397243217563317,-0.31306,0.033850000000000005,-2.17321,-0.0172284,0.5261032,9.7915524,31.030469493000002,121.44340152500001,16.024,351436.31796660065,3434019.1900860183,180.2379666006309,239.78008601814508,-0.3,0.85,-0.01,0.00015788440575187357,0.9013878050387161,50,5,188
1675217868010.0,2023-02-01 10:17:47:990584,109.38999999999999,-0.25,-0.22,1.9092156525314776,-0.004363323092904922,-0.0038397243217563317,-0.33480000000000004,0.09314000000000001,-2.2368300000000003,-0.042718200000000005,0.5417930000000001,9.8047726,31.030469647,121.44340146100001,16.023,351436.3120967769,3434019.207241715,180.2320967768901,239.797241714783,-0.3,0.86,-0.01,-0.002532793168888936,0.9108202813721067,50,5,188
1675217868030.0,2023-02-01 10:17:48:010564,109.34999999999997,-0.26,-0.22,1.9085175208366125,-0.004537856016621119,-0.0038397243217563317,-0.29345000000000004,0.16490000000000002,-2.25936,-0.0861126,0.5440862000000001,9.805791800000002,31.030469799000002,121.443401413,16.023,351436.307751082,3434019.224154331,180.22775108198402,239.81415433064103,-0.31,0.87,-0.01,0.004224822865863009,0.9235703280594023,50,5,188
1675217868050.0,2023-02-01 10:17:48:030514,109.30000000000001,-0.26,-0.22,1.9076448562180324,-0.004537856016621119,-0.0038397243217563317,-0.28715,0.10130000000000002,-2.27327,-0.053655,0.5278868,9.7955116,31.030469956,121.44340134800001,16.023,351436.30179046246,3434019.241643901,180.22179046244128,239.83164390083402,-0.31,0.88,-0.01,0.0017256445288157951,0.9330042991063655,50,5,188
1675217868070.0,2023-02-01 10:17:48:050574,109.25,-0.27,-0.21,1.906772191599451,-0.004712388940337316,-0.0036651913980401346,-0.29427000000000003,0.1322,-2.28236,-0.06632640000000001,0.5523084,9.7406218,31.030470115000004,121.443401281,16.023,351436.29564204544,3434019.2593578356,180.21564204542665,239.8493578354828,-0.31,0.89,-0.01,-0.000757062690432353,0.9424433281933098,50,5,188
1675217868090.0,2023-02-01 10:17:48:070543,109.20999999999998,-0.27,-0.21,1.906074059904586,-0.004712388940337316,-0.0036651913980401346,-0.30600000000000005,0.20505,-2.32032,-0.11493439999999999,0.5402446,9.721649,31.030470276000003,121.44340121500001,16.022000000000002,351436.28959218547,3434019.2772921226,180.20959218544886,239.86729212244973,-0.31,0.9,-0.01,-0.0033894275133882212,0.9518868166862758,50,5,188
1675217868110.0,2023-02-01 10:17:48:090566,109.15999999999997,-0.28,-0.2,1.9052013952860047,-0.0048869218640535134,-0.003490658474323938,-0.32964000000000004,0.15832000000000002,-2.23245,-0.1097894,0.530768,9.7380836,31.030470439000002,121.443401148,16.022000000000002,351436.28344997705,3434019.2954494357,180.20344997703796,239.8854494355619,-0.32,0.9,-0.01,0.006887308993847929,0.9551714845905017,50,5,188
1675217868130.0,2023-02-01 10:17:48:110620,109.12,-0.29,-0.2,1.9045032635911405,-0.00506145478776971,-0.003490658474323938,-0.31804000000000004,0.20993,-2.20128,-0.09963659999999999,0.5559442,9.742052600000001,31.030470604,121.44340108,16.022000000000002,351436.27721542254,3434019.313829777,180.19721542252228,239.90382977668196,-0.32,0.91,-0.01,0.004278665617302391,0.9646147899656813,50,5,188
1675217868150.0,2023-02-01 10:17:48:130165,109.07999999999998,-0.29,-0.19,1.9038051318962754,-0.00506145478776971,-0.003316125550607741,-0.3561,0.33011,-2.1035500000000003,-0.1394834,0.5308072,9.7318312,31.03047077,121.44340101200001,16.021,351436.2709824233,3434019.3323209644,180.19098242325708,239.92232096428052,-0.32,0.92,-0.01,0.001683212534478451,0.9740621986277693,50,5,188
1675217868170.0,2023-02-01 10:17:48:150579,109.04000000000002,-0.3,-0.19,1.9031070002014114,-0.005235987711485907,-0.003316125550607741,-0.34728000000000003,0.4293,-1.9817000000000002,-0.1825446,0.5124714,9.763896800000001,31.030470938,121.443400944,16.021,351436.2647525272,3434019.3510338394,180.1847525271587,239.94103383924812,-0.32,0.93,-0.01,-0.0008990457999933366,0.9835136967610819,50,5,188
1675217868190.0,2023-02-01 10:17:48:170166,109.0,-0.31,-0.18,1.9024088685065461,-0.005410520635202104,-0.0031415926268915442,-0.41612000000000005,0.43728000000000006,-1.7963600000000002,-0.15787800000000002,0.5282788,9.7495692,31.030471108,121.44340087600001,16.02,351436.2585257365,3434019.3699684045,180.17852573649725,239.95996840437874,-0.32,0.9400000000000001,-0.02,-0.0034681049443404666,0.9929692705457179,50,5,188
1675217868210.0,2023-02-01 10:17:48:190594,108.96999999999997,-0.32,-0.17,1.9018852697353972,-0.005585053558918301,-0.0029670597031753476,-0.43129000000000006,0.41156000000000004,-1.6065900000000002,-0.1776446,0.5195666,9.7234816,31.030471283,121.44340081700001,16.02,351436.2531657808,3434019.389445162,180.17316578078317,239.97944516176358,-0.32,0.9500000000000001,-0.02,-0.006198917224831291,1.0024278395102761,50,5,188
1675217868230.0,2023-02-01 10:17:48:210219,108.94,-0.33,-0.16,1.901361670964249,-0.005759586482634498,-0.0027925267794591505,-0.5095500000000001,0.43016000000000004,-1.46171,-0.1538306,0.519841,9.750774600000002,31.030471463,121.443400753,16.02,351436.24733632634,3434019.4094828283,180.1673363263253,239.9994828281924,-0.32,0.96,-0.02,-0.008919824575196356,1.011889537810105,50,5,188
1675217868250.0,2023-02-01 10:17:48:230521,108.90999999999997,-0.34,-0.15,1.9008380721930997,-0.005934119406350695,-0.0026179938557429534,-0.5347500000000001,0.33261,-1.23934,-0.1484112,0.5028968,9.7506962,31.030471638,121.44340068400001,16.019000000000002,351436.24102184793,3434019.428972957,180.16102184791816,240.01897295704111,-0.32,0.97,-0.02,-0.011630824468427725,1.0213543576654405,50,5,188
1675217868270.0,2023-02-01 10:17:48:250246,108.88999999999999,-0.35000000000000003,-0.15,1.9004890063456679,-0.006108652330066892,-0.0026179938557429534,-0.4807,0.34605,-1.0449000000000002,-0.1128274,0.4958114,9.8397684,31.030471815000002,121.443400616,16.019000000000002,351436.2348059267,3434019.448683437,180.15480592666427,240.03868343681097,-0.32,0.98,-0.02,-0.01451182659208261,1.0308197742035032,50,5,188
1675217868290.0,2023-02-01 10:17:48:270166,108.88,-0.36,-0.14,1.9003144734219517,-0.0062831852537830885,-0.0024434609320267567,-0.52541,0.33971,-0.9006600000000001,-0.07770420000000001,0.5137258,9.777215,31.030471993000003,121.44340054700001,16.018,351436.228496109,3434019.4685061006,180.14849610900274,240.05850610043854,-0.33,0.99,-0.02,-0.008105802004737095,1.043520146414941,50,5,188
1675217868310.0,2023-02-01 10:17:48:290564,108.86000000000001,-0.37,-0.13,1.8999654075745196,-0.0064577181774992855,-0.0022689280083105596,-0.45831000000000005,0.27953,-0.7849100000000001,-0.0037632000000000004,0.5202134,9.8020678,31.030472173000003,121.44340047700001,16.018,351436.2220939406,3434019.4885517904,180.1420939405798,240.07855179021135,-0.33,1.0,-0.02,-0.010974112592628038,1.052986025003563,50,5,188
1675217868330.0,2023-02-01 10:17:48:310576,108.84999999999997,-0.38,-0.13,1.8997908746508025,-0.006632251101215482,-0.0022689280083105596,-0.52486,0.25532000000000005,-0.6682400000000001,-0.014797999999999999,0.5024852000000001,9.9059968,31.030472354,121.44340040600001,16.018,351436.2155978733,3434019.508709662,180.1355978733045,240.09870966197923,-0.33,1.01,-0.01,-0.01402124834143259,1.0624516010599956,50,5,188
1675217868350.0,2023-02-01 10:17:48:330584,108.82999999999998,-0.39,-0.12,1.8994418088033707,-0.006806784024931679,-0.0020943950845943625,-0.44237000000000004,0.22296000000000002,-0.5834,-0.0329868,0.4573758,9.9501458,31.030472537,121.443400335,16.017,351436.2091049116,3434019.529089224,180.12910491158254,240.11908922391012,-0.33,1.01,-0.01,-0.01365038192626139,1.062456430670579,50,5,188
1675217868370.0,2023-02-01 10:17:48:350162,108.82999999999998,-0.4,-0.12,1.8994418088033707,-0.006981316948647876,-0.0020943950845943625,-0.41314,0.21889000000000003,-0.42594000000000004,-0.0219128,0.46563720000000003,9.917551000000001,31.030472721000002,121.443400264,16.017,351436.2026135027,3434019.5495796297,180.12261350266635,240.13957962952554,-0.34,1.02,-0.01,-0.007413190951285287,1.0751488476485103,50,5,188
1675217868390.0,2023-02-01 10:17:48:370491,108.82,-0.4,-0.12,1.8992672758796545,-0.006981316948647876,-0.0020943950845943625,-0.3815,0.14398000000000002,-0.39506,0.0016268,0.4875402,9.843855000000001,31.030472906000004,121.44340019200001,16.017,351436.1960281974,3434019.570182218,180.11602819740074,240.16018221806735,-0.34,1.03,-0.01,-0.010451502999934581,1.084615492275969,50,5,188
1675217868410.0,2023-02-01 10:17:48:390493,108.81,-0.41000000000000003,-0.12,1.8990927429559386,-0.007155849872364073,-0.0020943950845943625,-0.27654,0.043530000000000006,-0.40497000000000005,0.006321,0.45196620000000004,9.861994800000002,31.030473095,121.443400131,16.016000000000002,351436.19049907493,3434019.59121348,180.11049907491542,240.18121347995475,-0.34,1.04,-0.01,-0.013486510693822062,1.0940832299369667,50,5,188
1675217868430.0,2023-02-01 10:17:48:410551,108.80000000000001,-0.41000000000000003,-0.12,1.8989182100322224,-0.007155849872364073,-0.0020943950845943625,-0.30322000000000005,-0.14200000000000002,-0.37624,0.004018,0.4365606,9.895579399999999,31.030473282000003,121.44340007000001,16.016000000000002,351436.184966847,3434019.61202305,180.1049668469932,240.2020230498165,-0.35000000000000003,1.04,0.0,-0.0038290642913075823,1.0973082239127951,50,5,188
1675217868450.0,2023-02-01 10:17:48:430495,108.79000000000002,-0.42,-0.12,1.8987436771085064,-0.007330382796080269,-0.0020943950845943625,-0.27494,-0.19618000000000002,-0.44281000000000004,0.081928,0.48066060000000005,9.898343,31.030473471,121.44339999600001,16.016000000000002,351436.1781968473,3434019.6330716917,180.0981968473061,240.22307169158012,-0.35000000000000003,1.05,0.0,-0.006858552357245862,1.1067759304663085,50,5,188
1675217868470.0,2023-02-01 10:17:48:450560,108.77999999999997,-0.42,-0.13,1.8985691441847894,-0.007330382796080269,-0.0022689280083105596,-0.22281,-0.30079,-0.54996,0.11838399999999999,0.5026518,9.803567200000002,31.030473662000002,121.44339992100001,16.016000000000002,351436.17133449914,3434019.654343362,180.0913344991277,240.2443433618173,-0.36,1.06,0.0,-0.0004171185928757981,1.1194640798221618,50,5,188
1675217868490.0,2023-02-01 10:17:48:470798,108.76999999999998,-0.43,-0.14,1.8983946112610735,-0.007504915719796466,-0.0024434609320267567,-0.22795,-0.3965,-0.66215,0.049882,0.4676168,9.7505786,31.030473853,121.443399845,16.016000000000002,351436.1643766971,3434019.6756163687,180.08437669707928,240.26561636850238,-0.36,1.06,0.0,-0.00022173524866841987,1.1194641355726764,50,5,188
1675217868510.0,2023-02-01 10:17:48:490532,108.75,-0.43,-0.14,1.8980455454136413,-0.007504915719796466,-0.0024434609320267567,-0.31342000000000003,-0.33399,-0.8086300000000001,0.0462462,0.4605118,9.753989,31.030474046000002,121.443399768,16.015,351436.15732654906,3434019.6971124024,180.07732654904248,240.28711240226403,-0.36,1.07,0.0,-0.0030453630462315417,1.1289334461180238,50,5,188
1675217868530.0,2023-02-01 10:17:48:510552,108.73000000000002,-0.44,-0.15,1.8976964795662092,-0.0076794486435126635,-0.0026179938557429534,-0.29097,-0.38902000000000003,-0.91917,0.03479,0.5234082,9.688966,31.03047424,121.44339969,16.015,351436.1501825022,3434019.718720619,180.07018250221154,240.30872061895207,-0.37,1.08,-0.01,0.0036080431517521716,1.141615952071718,50,5,188
1675217868550.0,2023-02-01 10:17:48:530538,108.70999999999998,-0.45,-0.16,1.897347413718776,-0.00785398156722886,-0.0027925267794591505,-0.37921000000000005,-0.44685,-1.0163300000000002,-0.0365736,0.560805,9.6552246,31.030474436000002,121.443399611,16.015,351436.14294610947,3434019.740551863,180.06294610945042,240.33055186271667,-0.37,1.09,-0.01,0.0007987591654979864,1.151086166185571,50,5,188
