gps_time,utc_time,heading,pitch,roll,heading_radians,pitch_radians,roll_radians,gyroX,gyroY,gyroZ,accX,accY,accZ,latitude,longitude,altitude,utm_x_position,utm_y_position,local_x,local_y,east_speed,north_speed,vertical_speed,vehicle_lat_speed,vehicle_lon_speed,position_type,GNSS_info1,GNSS_info2
1675216011730.0,2023-02-01 09:46:51:726123,111.76999999999998,-0.39,-0.41000000000000003,1.9507544883759325,-0.006806784024931679,-0.007155849872364073,-0.06914000000000001,-0.0037,0.061610000000000005,-0.0648858,0.12945800000000002,9.7544202,31.027992032,121.42922454400001,15.326,350079.20827174035,3433763.618012288,-1176.8717282596626,-15.791987712029368,0.0,0.0,0.0,-0.0,0.0,50,5,188
1675216011750.0,2023-02-01 09:46:51:746161,111.76999999999998,-0.4,-0.41000000000000003,1.9507544883759325,-0.006981316948647876,-0.007155849872364073,-0.18957000000000002,0.014860000000000002,0.04687,-0.0590254,0.2661778,9.6556166,31.027992032,121.42922454400001,15.326,350079.20827174035,3433763.618012288,-1176.8717282596626,-15.791987712029368,0.0,0.0,0.0,-0.0,0.0,50,5,188
1675216011770.0,2023-02-01 09:46:51:766190,111.76999999999998,-0.4,-0.41000000000000003,1.9507544883759325,-0.006981316948647876,-0.007155849872364073,-0.20258,0.02346,0.013170000000000001,-0.054860400000000004,0.30674979999999996,9.6791954,31.027992032,121.42922454400001,15.326,350079.20827174035,3433763.618012288,-1176.8717282596626,-15.791987712029368,0.0,0.0,0.0,-0.0,0.0,50,5,188
1675216011790.0,2023-02-01 09:46:51:786183,111.76999999999998,-0.4,-0.41000000000000003,1.9507544883759325,-0.006981316948647876,-0.007155849872364073,-0.17112000000000002,-0.031970000000000005,0.04650000000000001,-0.0539588,0.11327820000000001,9.767081800000001,31.027992033,121.429224543,15.326,350079.2081778529,3433763.618124482,-1176.8718221471063,-15.79187551792711,0.0,0.0,0.0,-0.0,0.0,50,5,188
1675216011810.0,2023-02-01 09:46:51:806182,111.76999999999998,-0.41000000000000003,-0.42,1.9507544883759325,-0.007155849872364073,-0.007330382796080269,-0.23725000000000002,-0.0020900000000000003,-0.03429,-0.0437276,0.1126412,9.8232652,31.027992041,121.42922454200001,15.325000000000001,350079.20809493284,3433763.619012593,-1176.871905067179,-15.790987407322973,0.0,0.0,0.0,-0.0,0.0,50,5,188
1675216011830.0,2023-02-01 09:46:51:826254,111.76999999999998,-0.41000000000000003,-0.42,1.9507544883759325,-0.007155849872364073,-0.007330382796080269,-0.16919,-0.011850000000000001,0.01574,-0.0592606,0.1324274,9.811221,31.027992044,121.42922454100001,15.325000000000001,350079.20800417894,3433763.6193464776,-1176.8719958210713,-15.790653522592038,0.0,0.0,0.0,-0.0,0.0,50,5,188
1675216011850.0,2023-02-01 09:46:51:846091,111.76999999999998,-0.41000000000000003,-0.42,1.9507544883759325,-0.007155849872364073,-0.007330382796080269,-0.055490000000000005,-0.037700000000000004,-0.01383,-0.058143400000000005,0.09028739999999999,9.8659148,31.027992046,121.42922454,15.325000000000001,350079.2079118558,3433763.619569518,-1176.8720881442423,-15.790430482011288,0.0,0.0,0.0,-0.0,0.0,50,5,188
1675216011870.0,2023-02-01 09:46:51:866170,111.76999999999998,-0.41000000000000003,-0.42,1.9507544883759325,-0.007155849872364073,-0.007330382796080269,-0.10006000000000001,-0.004410000000000001,0.01733,-0.0563892,0.11211199999999999,9.8434532,31.027992047,121.429224539,15.325000000000001,350079.2078179682,3433763.6196817122,-1176.8721820318024,-15.790318287909031,0.0,0.0,0.0,-0.0,0.0,50,5,188
1675216011890.0,2023-02-01 09:46:51:885849,111.76999999999998,-0.41000000000000003,-0.42,1.9507544883759325,-0.007155849872364073,-0.007330382796080269,-0.013720000000000001,-0.022420000000000002,-0.01965,-0.07426440000000001,0.1518706,9.7965406,31.027992049,121.42922453800001,15.325000000000001,350079.2077256475,3433763.6199047524,-1176.8722743525286,-15.790095247793943,0.0,0.0,0.0,-0.0,0.0,50,5,188
1675216011910.0,2023-02-01 09:46:51:906261,111.76999999999998,-0.41000000000000003,-0.42,1.9507544883759325,-0.007155849872364073,-0.007330382796080269,0.01991,-0.04426,-0.03577,-0.0812812,0.1448146,9.8100352,31.027992051000002,121.42922453700001,15.325000000000001,350079.2076333243,3433763.6201277915,-1176.8723666756996,-15.789872208610177,0.0,0.01,0.0,-0.003708816152282541,0.009286801534897153,50,5,188
1675216011930.0,2023-02-01 09:46:51:926140,111.76999999999998,-0.41000000000000003,-0.42,1.9507544883759325,-0.007155849872364073,-0.007330382796080269,-0.08606000000000001,-0.05816,-0.015700000000000002,-0.08994440000000001,0.1508122,9.7926304,31.027992053000002,121.429224535,15.325000000000001,350079.20744554687,3433763.6203521816,-1176.872554453148,-15.789647818543017,0.0,0.01,0.0,-0.003708816152282541,0.009286801534897153,50,5,188
1675216011950.0,2023-02-01 09:46:51:946108,111.76999999999998,-0.42,-0.42,1.9507544883759325,-0.007330382796080269,-0.007330382796080269,-0.07024000000000001,-0.04805,-0.01744,-0.0912086,0.1702162,9.7994512,31.027992055000002,121.42922453400001,15.325000000000001,350079.20735322614,3433763.6205752213,-1176.8726467738743,-15.78942477889359,0.0,0.01,0.0,-0.003708816152282541,0.009286801534897153,50,5,188
1675216011970.0,2023-02-01 09:46:51:965856,111.76999999999998,-0.42,-0.42,1.9507544883759325,-0.007330382796080269,-0.007330382796080269,-0.10022,-0.022410000000000003,0.00803,-0.09439360000000001,0.14353080000000001,9.8091042,31.027992058000002,121.429224532,15.324,350079.2071670154,3433763.620910456,-1176.8728329846053,-15.789089544210583,0.0,0.01,0.0,-0.003708816152282541,0.009286801534897153,50,5,188
1675216011990.0,2023-02-01 09:46:51:986177,111.76999999999998,-0.42,-0.42,1.9507544883759325,-0.007330382796080269,-0.007330382796080269,-0.13374,-0.0039900000000000005,-0.00859,-0.09596160000000001,0.141855,9.824176600000001,31.027992061000003,121.429224531,15.324,350079.20707626146,3433763.621244341,-1176.872923738556,-15.788755659013987,0.0,0.01,0.0,-0.003708816152282541,0.009286801534897153,50,5,188
1675216012010.0,2023-02-01 09:46:52:006292,111.76999999999998,-0.42,-0.42,1.9507544883759325,-0.007330382796080269,-0.007330382796080269,-0.11704,0.004580000000000001,-0.01033,-0.09880359999999999,0.173656,9.812661599999998,31.027992065000003,121.42922452900001,15.324,350079.20689161995,3433763.6216904204,-1176.8731083800667,-15.788309579715133,0.0,0.02,0.0,-0.007417632304565082,0.018573603069794307,50,5,188
1675216012030.0,2023-02-01 09:46:52:026233,111.76999999999998,-0.42,-0.42,1.9507544883759325,-0.007330382796080269,-0.007330382796080269,-0.10707000000000001,0.05668,0.040260000000000004,-0.09898,0.1990184,9.8146608,31.027992083,121.42922452900001,15.324,350079.2069198222,3433763.623685634,-1176.8730801778147,-15.78631436591968,0.0,0.02,0.0,-0.007417632304565082,0.018573603069794307,50,5,188
1675216012050.0,2023-02-01 09:46:52:046093,111.76999999999998,-0.43,-0.42,1.9507544883759325,-0.007504915719796466,-0.007330382796080269,-0.11802000000000001,0.07937000000000001,-0.0035800000000000003,-0.1008224,0.18706240000000002,9.812896799999999,31.027992087,121.429224528,15.324,350079.20683063264,3433763.6241303654,-1176.8731693673762,-15.785869634710252,0.0,0.02,0.0,-0.007417632304565082,0.018573603069794307,50,5,188
1675216012070.0,2023-02-01 09:46:52:065905,111.76999999999998,-0.43,-0.42,1.9507544883759325,-0.007504915719796466,-0.007330382796080269,-0.13809000000000002,0.07237,0.0029200000000000003,-0.0927374,0.18322080000000002,9.8192374,31.027992092,121.42922452600001,15.324,350079.2066475579,3433763.624687291,-1176.8733524421114,-15.785312708932906,0.0,0.02,0.0,-0.007417632304565082,0.018573603069794307,50,5,188
1675216012090.0,2023-02-01 09:46:52:085879,111.77999999999997,-0.43,-0.42,1.9509290212996484,-0.007504915719796466,-0.007330382796080269,0.017410000000000002,0.03692,0.04014,-0.0880922,0.1713236,9.826273800000001,31.027992097000002,121.429224524,15.324,350079.20646448084,3433763.6252442147,-1176.8735355191748,-15.784755785483867,0.0,0.02,0.0,-0.0074208738968193355,0.018572308165855568,50,5,188
1675216012110.0,2023-02-01 09:46:52:105829,111.77999999999997,-0.43,-0.42,1.9509290212996484,-0.007504915719796466,-0.007330382796080269,-0.018570000000000003,0.01063,0.05203000000000001,-0.082222,0.178458,9.809329600000002,31.027992103000003,121.42922452200001,15.324,350079.2062829705,3433763.6259119846,-1176.8737170295208,-15.784088015556335,-0.01,0.03,0.0,-0.0018451567623012192,0.03156889919719302,50,5,188
1675216012130.0,2023-02-01 09:46:52:126212,111.77999999999997,-0.43,-0.41000000000000003,1.9509290212996484,-0.007504915719796466,-0.007155849872364073,0.0051600000000000005,0.028730000000000002,0.048420000000000005,-0.0735392,0.2187948,9.771188,31.027992109000003,121.429224519,15.324,350079.2060060058,3433763.626581104,-1176.8739939942025,-15.783418896142393,-0.01,0.03,0.0,-0.0018451567623012192,0.03156889919719302,50,5,188
1675216012150.0,2023-02-01 09:46:52:146243,111.77999999999997,-0.43,-0.41000000000000003,1.9509290212996484,-0.007504915719796466,-0.007155849872364073,0.03602,0.014140000000000002,0.0194,-0.0641214,0.20083140000000002,9.767865800000001,31.027992115000004,121.42922451700001,15.324,350079.20582449797,3433763.6272488753,-1176.8741755020455,-15.782751124817878,-0.01,0.03,0.0,-0.0018451567623012192,0.03156889919719302,50,5,188
1675216012170.0,2023-02-01 09:46:52:166263,111.77999999999997,-0.43,-0.41000000000000003,1.9509290212996484,-0.007504915719796466,-0.007155849872364073,-0.0016500000000000002,0.00945,0.01567,-0.0647682,0.19825399999999999,9.7633578,31.027992122,121.42922451400001,15.324,350079.2055491001,3433763.628028839,-1176.8744508998934,-15.78197116125375,-0.01,0.03,0.0,-0.0018451567623012192,0.03156889919719302,50,5,188
1675216012190.0,2023-02-01 09:46:52:186103,111.77999999999997,-0.43,-0.41000000000000003,1.9509290212996484,-0.007504915719796466,-0.007155849872364073,-0.051750000000000004,-0.005370000000000001,0.062380000000000005,-0.0579866,0.2210194,9.7533814,31.027992129,121.429224511,15.324,350079.2052737023,3433763.6288088034,-1176.8747262977413,-15.7811911967583,-0.01,0.04,0.0,-0.005555593710710887,0.040855053280120804,50,5,188
1675216012210.0,2023-02-01 09:46:52:205960,111.77999999999997,-0.43,-0.41000000000000003,1.9509290212996484,-0.007504915719796466,-0.007155849872364073,-0.08154,0.014530000000000001,0.05552000000000001,-0.061426400000000006,0.2298982,9.754038,31.027992144000002,121.42922450600001,15.324,350079.20481992763,3433763.6304782294,-1176.875180072384,-15.779521770775318,-0.01,0.04,0.0,-0.005555593710710887,0.040855053280120804,50,5,188
1675216012230.0,2023-02-01 09:46:52:226268,111.77999999999997,-0.43,-0.41000000000000003,1.9509290212996484,-0.007504915719796466,-0.007155849872364073,-0.10598,0.02032,0.02211,-0.0667282,0.22770300000000002,9.7704334,31.027992159000004,121.429224504,15.323,350079.2046525185,3433763.632143606,-1176.8753474815167,-15.77785639418289,-0.01,0.04,0.0,-0.005555593710710887,0.040855053280120804,50,5,188
1675216012250.0,2023-02-01 09:46:52:246205,111.77999999999997,-0.43,-0.41000000000000003,1.9509290212996484,-0.007504915719796466,-0.007155849872364073,-0.07940000000000001,0.03653,-0.00868,-0.070952,0.2243416,9.7802628,31.027992168,121.4292245,15.323,350079.2042847998,3433763.6331466096,-1176.8757152002072,-15.776853390503675,-0.01,0.05,0.0,-0.009266030659120555,0.05014120736304859,50,5,188
1675216012270.0,2023-02-01 09:46:52:266303,111.77999999999997,-0.44,-0.41000000000000003,1.9509290212996484,-0.0076794486435126635,-0.007155849872364073,-0.10214000000000001,0.03842,0.00583,-0.0795662,0.2452352,9.7932086,31.027992177,121.429224496,15.323,350079.20391708123,3433763.6341496143,-1176.8760829187813,-15.775850385893136,-0.02,0.05,0.0,2.0123423807229257e-05,0.05385164431145826,50,5,188
1675216012290.0,2023-02-01 09:46:52:285851,111.77999999999997,-0.44,-0.41000000000000003,1.9509290212996484,-0.0076794486435126635,-0.007155849872364073,-0.09032000000000001,0.0062900000000000005,0.021390000000000003,-0.0806344,0.2451568,9.8037044,31.027992187000002,121.42922449100001,15.323,350079.20345547516,3433763.6352648144,-1176.8765445248573,-15.774735185783356,-0.02,0.05,0.0,2.0123423807229257e-05,0.05385164431145826,50,5,188
1675216012310.0,2023-02-01 09:46:52:305921,111.77999999999997,-0.44,-0.41000000000000003,1.9509290212996484,-0.0076794486435126635,-0.007155849872364073,-0.14194,-0.006750000000000001,0.018490000000000003,-0.0814184,0.2447158,9.7984516,31.027992198000003,121.42922448700001,15.323,350079.20309088775,3433763.6364895087,-1176.8769091122667,-15.773510491475463,-0.02,0.06,0.0,-0.0036903135246024385,0.06313779839438605,50,5,188
1675216012330.0,2023-02-01 09:46:52:326304,111.77999999999997,-0.44,-0.41000000000000003,1.9509290212996484,-0.0076794486435126635,-0.007155849872364073,-0.12253000000000001,0.00871,0.012490000000000001,-0.0863086,0.27881,9.7830656,31.027992209,121.42922448200001,15.323,350079.2026308484,3433763.6377155534,-1176.8773691516253,-15.772284446749836,-0.02,0.06,0.0,-0.0036903135246024385,0.06313779839438605,50,5,188
1675216012350.0,2023-02-01 09:46:52:346299,111.77999999999997,-0.44,-0.41000000000000003,1.9509290212996484,-0.0076794486435126635,-0.007155849872364073,-0.056530000000000004,-0.02662,0.027190000000000002,-0.0869064,0.26059180000000004,9.8030478,31.027992221,121.429224477,15.323,350079.2021723734,3433763.6390524427,-1176.8778276265948,-15.770947557408363,-0.02,0.06,0.0,-0.0036903135246024385,0.06313779839438605,50,5,188
1675216012370.0,2023-02-01 09:46:52:365938,111.77999999999997,-0.44,-0.41000000000000003,1.9509290212996484,-0.0076794486435126635,-0.007155849872364073,-0.05364000000000001,-0.01501,0.06001000000000001,-0.0803796,0.2543786,9.8041552,31.027992233000003,121.42922447100001,15.323,350079.2016184441,3433763.64039068,-1176.8783815559,-15.769609319977462,-0.02,0.07,0.0,-0.00740075047301211,0.07242395247731383,50,5,188
1675216012390.0,2023-02-01 09:46:52:386166,111.77999999999997,-0.45,-0.41000000000000003,1.9509290212996484,-0.00785398156722886,-0.007155849872364073,-0.07726000000000001,-0.03418,0.022330000000000003,-0.0828688,0.274547,9.7926108,31.027992247,121.429224465,15.323,350079.2010676484,3433763.6419506106,-1176.8789323515957,-15.768049389589578,-0.02,0.07,0.0,-0.00740075047301211,0.07242395247731383,50,5,188
1675216012410.0,2023-02-01 09:46:52:406254,111.79000000000002,-0.45,-0.41000000000000003,1.9511035542233655,-0.00785398156722886,-0.007155849872364073,-0.00986,-0.01319,0.07355,-0.0755972,0.2563484,9.794404199999999,31.027992267000002,121.42922445800001,15.323,350079.20043079916,3433763.644176961,-1176.879569200857,-15.765823039226234,-0.02,0.07,0.0,-0.007413390724401069,0.07242265969962276,50,5,188
1675216012430.0,2023-02-01 09:46:52:426157,111.79000000000002,-0.45,-0.41000000000000003,1.9511035542233655,-0.00785398156722886,-0.007155849872364073,-0.12432000000000001,-0.00489,0.05197,-0.07042280000000001,0.2882376,9.777411,31.027992287000004,121.42922445200001,15.322000000000001,350079.1998894041,3433763.646401962,-1176.8801105958992,-15.7635980383493,-0.03,0.08,0.0,-0.0018399420078255187,0.0854202236792192,50,5,188
1675216012450.0,2023-02-01 09:46:52:446187,111.79000000000002,-0.45,-0.42,1.9511035542233655,-0.00785398156722886,-0.007330382796080269,-0.07840000000000001,-0.033580000000000006,0.06884000000000001,-0.0731178,0.2918244,9.7728834,31.027992302,121.429224445,15.322000000000001,350079.1992447185,3433763.6480740835,-1176.8807552815415,-15.761925916653126,-0.03,0.08,0.0,-0.0018399420078255187,0.0854202236792192,50,5,188
1675216012470.0,2023-02-01 09:46:52:466253,111.79000000000002,-0.45,-0.42,1.9511035542233655,-0.00785398156722886,-0.007330382796080269,-0.03787,-0.04177,0.0022500000000000003,-0.0713146,0.2616306,9.7884458,31.027992318000003,121.429224438,15.322000000000001,350079.198601602,3433763.649857054,-1176.8813983980217,-15.760142946150154,-0.03,0.09,0.0,-0.005551999639335954,0.09470573002730517,50,5,188
1675216012490.0,2023-02-01 09:46:52:486262,111.79000000000002,-0.45,-0.42,1.9511035542233655,-0.00785398156722886,-0.007330382796080269,-0.10645,-0.00723,0.04301000000000001,-0.07196140000000001,0.2847782,9.7739908,31.027992335,121.42922443100001,15.322000000000001,350079.1979600524,3433763.651750869,-1176.8820399476099,-15.758249131031334,-0.03,0.09,0.0,-0.005551999639335954,0.09470573002730517,50,5,188
1675216012510.0,2023-02-01 09:46:52:506192,111.79000000000002,-0.45,-0.42,1.9511035542233655,-0.00785398156722886,-0.007330382796080269,-0.09632,-0.025470000000000003,0.061090000000000005,-0.0809382,0.31157140000000005,9.765749,31.027992352000002,121.42922442300001,15.322000000000001,350079.1972230484,3433763.6536460323,-1176.882776951592,-15.756353967823088,-0.03,0.09,0.0,-0.005551999639335954,0.09470573002730517,50,5,188
1675216012530.0,2023-02-01 09:46:52:526188,111.79000000000002,-0.46,-0.42,1.9511035542233655,-0.008028514490945058,-0.007330382796080269,-0.15185,-0.007330000000000001,0.040670000000000005,-0.0784196,0.3012912,9.7937084,31.027992370000003,121.42922441500001,15.322000000000001,350079.1964876089,3433763.6556520397,-1176.8835123911267,-15.754347960464656,-0.03,0.1,0.0,-0.009264057270846386,0.10399123637539118,50,5,188
1675216012550.0,2023-02-01 09:46:52:546209,111.79000000000002,-0.46,-0.42,1.9511035542233655,-0.008028514490945058,-0.007330382796080269,-0.14099,0.00116,0.06336,-0.08709259999999999,0.308259,9.782281600000001,31.027992389,121.429224406,15.322000000000001,350079.1956582817,3433763.6577702435,-1176.884341718338,-15.75222975667566,-0.04,0.1,0.0,2.1449077239603376e-05,0.10770329400690161,50,5,188
1675216012570.0,2023-02-01 09:46:52:566165,111.79000000000002,-0.46,-0.42,1.9511035542233655,-0.008028514490945058,-0.007330382796080269,-0.14034000000000002,-0.023880000000000002,0.05874000000000001,-0.09137519999999999,0.33679660000000006,9.782095400000001,31.027992409000003,121.429224398,15.322000000000001,350079.1949259757,3433763.6599979433,-1176.8850740243215,-15.750002056825906,-0.04,0.11,0.0,-0.0036906085542708356,0.11698880035498758,50,5,188
1675216012590.0,2023-02-01 09:46:52:586270,111.79000000000002,-0.47000000000000003,-0.42,1.9511035542233655,-0.008203047414661255,-0.007330382796080269,-0.14449,0.06814,0.037970000000000004,-0.0942662,0.33841360000000004,9.7822718,31.027992429,121.42922438900001,15.322000000000001,350079.19409821776,3433763.6622269903,-1176.8859017822542,-15.747773009818047,-0.04,0.11,0.0,-0.0036906085542708356,0.11698880035498758,50,5,188
1675216012610.0,2023-02-01 09:46:52:606147,111.80000000000001,-0.47000000000000003,-0.42,1.9512780871470816,-0.008203047414661255,-0.007330382796080269,-0.11997000000000001,-0.00079,0.05238,-0.0943544,0.3388644,9.7910918,31.027992458000003,121.42922437700001,15.322000000000001,350079.19299819315,3433763.6654576957,-1176.88700180687,-15.744542304426432,-0.04,0.12,0.0,-0.007424705096859448,0.1262730127708398,50,5,188
1675216012630.0,2023-02-01 09:46:52:626174,111.80000000000001,-0.47000000000000003,-0.42,1.9512780871470816,-0.008203047414661255,-0.007330382796080269,-0.14349,-0.00466,0.1033,-0.0914046,0.371224,9.7753432,31.027992486000002,121.42922436900001,15.322000000000001,350079.1922784214,3433763.668572157,-1176.8877215785906,-15.74142784299329,-0.04,0.12,0.0,-0.007424705096859448,0.1262730127708398,50,5,188
1675216012650.0,2023-02-01 09:46:52:646141,111.80000000000001,-0.47000000000000003,-0.42,1.9512780871470816,-0.008203047414661255,-0.007330382796080269,-0.11472,-0.024810000000000002,0.10859,-0.08281980000000001,0.3586016,9.7827128,31.027992509,121.429224359,15.322000000000001,350079.19135990716,3433763.67113509,-1176.8886400928604,-15.738864910323173,-0.04,0.13,0.0,-0.0111383832983949,0.1355578711012313,50,5,188
1675216012670.0,2023-02-01 09:46:52:666227,111.80000000000001,-0.48,-0.42,1.9512780871470816,-0.00837758033837745,-0.007330382796080269,-0.12027000000000002,0.026830000000000003,0.06305000000000001,-0.08256500000000001,0.36031660000000004,9.7799688,31.027992534000003,121.429224348,15.321,350079.19034906966,3433763.6739210626,-1176.8896509303595,-15.736078937537968,-0.05,0.13,0.0,-0.001853524968003395,0.13927154930276675,50,5,188
1675216012690.0,2023-02-01 09:46:52:686221,111.80000000000001,-0.48,-0.42,1.9512780871470816,-0.00837758033837745,-0.007330382796080269,-0.20297,0.034510000000000006,0.08675000000000001,-0.0796838,0.40613160000000004,9.7682088,31.027992559,121.42922433700001,15.321,350079.1893382347,3433763.6767070363,-1176.8906617652974,-15.733292963821441,-0.05,0.14,0.0,-0.005567203169538855,0.14855640763315825,50,5,188
1675216012710.0,2023-02-01 09:46:52:706174,111.80000000000001,-0.48,-0.42,1.9512780871470816,-0.00837758033837745,-0.007330382796080269,-0.11272000000000001,0.014110000000000001,0.09182000000000001,-0.0727062,0.3827782,9.786133,31.027992586000003,121.429224325,15.321,350079.18823507644,3433763.6797160497,-1176.891764923581,-15.730283950455487,-0.05,0.15,0.0,-0.009280881371074301,0.15784126596354972,50,5,188
1675216012730.0,2023-02-01 09:46:52:725799,111.81,-0.48,-0.42,1.9514526200707976,-0.00837758033837745,-0.007330382796080269,-0.17037000000000002,0.01132,0.09575,-0.0736274,0.3901282,9.787554,31.027992613000002,121.429224313,15.321,350079.18713191827,3433763.6827250626,-1176.892868081748,-15.727274937555194,-0.05,0.15,0.0,-0.009308429727210181,0.1578396437401377,50,5,188
1675216012750.0,2023-02-01 09:46:52:745943,111.81,-0.49,-0.42,1.9514526200707976,-0.008552113262093647,-0.007330382796080269,-0.14450000000000002,0.006640000000000001,0.08685000000000001,-0.0734216,0.4044754,9.7849864,31.027992642,121.4292243,15.321,350079.1859364393,3433763.685957116,-1176.8940635606996,-15.724042884074152,-0.06,0.16,0.0,-0.0037395183557814987,0.1708391524284371,50,5,188
1675216012770.0,2023-02-01 09:46:52:766311,111.81,-0.49,-0.42,1.9514526200707976,-0.008552113262093647,-0.007330382796080269,-0.10473,-0.025290000000000003,0.06937,-0.07416640000000001,0.391412,9.8009114,31.027992672000003,121.42922428700001,15.321,350079.18474252726,3433763.6893000137,-1176.895257472759,-15.720699986442924,-0.06,0.16,0.0,-0.0037395183557814987,0.1708391524284371,50,5,188
1675216012790.0,2023-02-01 09:46:52:786252,111.81,-0.49,-0.42,1.9514526200707976,-0.008552113262093647,-0.007330382796080269,-0.17116,0.014400000000000001,0.08839000000000001,-0.07712600000000001,0.4181856,9.796178000000001,31.027992703000002,121.429224273,15.321,350079.1834547251,3433763.6927551073,-1176.8965452749399,-15.717244892846793,-0.06,0.17,0.0,-0.007454817014216873,0.18012336245830118,50,5,188
1675216012810.0,2023-02-01 09:46:52:806315,111.81,-0.49,-0.42,1.9514526200707976,-0.008552113262093647,-0.007330382796080269,-0.10728000000000001,-0.01416,0.039,-0.0850738,0.4317096,9.770717600000001,31.027992741000002,121.429224257,15.321,350079.1819869819,3433763.696988815,-1176.8980130181299,-15.713011185172945,-0.06,0.18,0.0,-0.011170115672652227,0.18940757248816525,50,5,188
1675216012830.0,2023-02-01 09:46:52:825931,111.81,-0.5,-0.42,1.9514526200707976,-0.008726646185809844,-0.007330382796080269,-0.16067,0.02278,0.06685,-0.0867594,0.452956,9.769816,31.027992773,121.42922424300001,15.32,350079.18070074904,3433763.700554752,-1176.8992992509739,-15.709445248357952,-0.07,0.18,0.0,-0.0018859056427881632,0.1931228711466006,50,5,188
1675216012850.0,2023-02-01 09:46:52:846146,111.81,-0.5,-0.41000000000000003,1.9514526200707976,-0.008726646185809844,-0.007155849872364073,-0.22921000000000002,0.028310000000000002,0.10249000000000001,-0.0959028,0.47549600000000003,9.755606,31.027992807,121.42922422800001,15.32,350079.179322193,3433763.704343729,-1176.9006778069888,-15.705656270962209,-0.07,0.19,0.0,-0.005601204301223531,0.20240708117646466,50,5,188
1675216012870.0,2023-02-01 09:46:52:866246,111.82,-0.51,-0.41000000000000003,1.9516271529945135,-0.008901179109526041,-0.007155849872364073,-0.21468,0.05867000000000001,0.12576,-0.1023414,0.4874716,9.7679246,31.027992843000003,121.42922421200001,15.32,350079.1778513162,3433763.7083557486,-1176.9021486837883,-15.701644251588732,-0.07,0.2,0.0,-0.009353449917552312,0.21168966194559397,50,5,188
1675216012890.0,2023-02-01 09:46:52:886285,111.82,-0.51,-0.41000000000000003,1.9516271529945135,-0.008901179109526041,-0.007155849872364073,-0.27524000000000004,0.031400000000000004,0.13551000000000002,-0.1055558,0.5173322,9.759918,31.027992880000003,121.429224195,15.32,350079.17628654954,3433763.71247996,-1176.903713450476,-15.697520039975643,-0.07,0.21,0.0,-0.01307036891971311,0.22097322339211733,50,5,188
1675216012910.0,2023-02-01 09:46:52:906247,111.82,-0.52,-0.41000000000000003,1.9516271529945135,-0.009075712033242238,-0.007155849872364073,-0.26033,-0.02255,0.15684,-0.1068298,0.5418812,9.753224600000001,31.027992919000003,121.42922417800001,15.32,350079.1747249188,3433763.716825862,-1176.9052750812261,-15.693174138199538,-0.08,0.21,0.0,-0.003786807473189699,0.22469014239427815,50,5,188
1675216012930.0,2023-02-01 09:46:52:926284,111.82999999999998,-0.52,-0.41000000000000003,1.9518016859182297,-0.009075712033242238,-0.007155849872364073,-0.32409000000000004,0.04726,0.17566,-0.11192579999999999,0.5491429999999999,9.7778128,31.027992959000002,121.42922416100001,15.32,350079.17316485243,3433763.7212826107,-1176.9068351475871,-15.68871738947928,-0.08,0.22,0.0,-0.007544562475458927,0.2339723906298645,50,5,188
1675216012950.0,2023-02-01 09:46:52:945950,111.82999999999998,-0.53,-0.41000000000000003,1.9518016859182297,-0.009250244956958436,-0.007155849872364073,-0.27627,0.009120000000000001,0.15465,-0.1049384,0.5714576,9.776039,31.027993001000002,121.42922414200001,15.319,350079.17141701106,3433763.725963747,-1176.9085829889518,-15.684036253020167,-0.08,0.23,0.0,-0.011263101708121365,0.24325530321025382,50,5,188
1675216012970.0,2023-02-01 09:46:52:966320,111.82999999999998,-0.53,-0.41000000000000003,1.9518016859182297,-0.009250244956958436,-0.007155849872364073,-0.28291000000000005,-0.00269,0.23249000000000003,-0.0986566,0.5823748000000001,9.7877892,31.027993045000002,121.42922412300001,15.319,350079.1696723032,3433763.730866574,-1176.9103276968235,-15.679133425932378,-0.09,0.24,0.0,-0.005698728360394478,0.2562567550233056,50,5,188
1675216012990.0,2023-02-01 09:46:52:985923,111.83999999999997,-0.54,-0.41000000000000003,1.9519762188419456,-0.009424777880674633,-0.007155849872364073,-0.33434,0.00176,0.17936000000000002,-0.09641240000000001,0.5962810000000001,9.783144,31.027993090000002,121.42922410400001,15.319,350079.16792916215,3433763.735880247,-1176.9120708378614,-15.674119753297418,-0.09,0.25,0.0,-0.009463612863937876,0.26553801993605647,50,5,188
1675216013010.0,2023-02-01 09:46:53:006307,111.83999999999997,-0.55,-0.41000000000000003,1.9519762188419456,-0.00959931080439083,-0.007155849872364073,-0.32280000000000003,-0.0069900000000000006,0.20673000000000002,-0.094766,0.6356868,9.774980600000001,31.027993137000003,121.42922408300001,15.319,350079.1659982436,3433763.7411183086,-1176.914001756406,-15.668881691526622,-0.09,0.26,0.0,-0.013183772213828757,0.274820283367538,50,5,188
1675216013030.0,2023-02-01 09:46:53:026283,111.84999999999997,-0.55,-0.41000000000000003,1.9521507517656618,-0.00959931080439083,-0.007155849872364073,-0.32486000000000004,-0.020870000000000003,0.22338000000000002,-0.0925904,0.6664784,9.772109200000001,31.027993190000004,121.42922405600001,15.32,350079.1635039975,3433763.747029537,-1176.9164960025228,-15.662970463279635,-0.1,0.27,0.0,-0.007671902554314464,0.287821371533104,50,5,188
1675216013050.0,2023-02-01 09:46:53:046284,111.84999999999997,-0.56,-0.42,1.9521507517656618,-0.009773843728107027,-0.007330382796080269,-0.32879,-0.055110000000000006,0.20406000000000002,-0.081389,0.6953394,9.7613684,31.02799324,121.429224034,15.319,350079.16148232267,3433763.7526014843,-1176.9185176773462,-15.65739851584658,-0.1,0.28,0.0,-0.011393681908111242,0.29710298553292386,50,5,188
1675216013070.0,2023-02-01 09:46:53:066333,111.86000000000001,-0.5700000000000001,-0.42,1.9523252846893788,-0.009948376651823224,-0.007330382796080269,-0.35045000000000004,-0.06981000000000001,0.18502000000000002,-0.0801052,0.7227990000000001,9.753910600000001,31.027993293,121.429224011,15.319,350079.1593698963,3433763.7585073165,-1176.9206301037339,-15.65149268368259,-0.11,0.3,-0.01,-0.009611370190259982,0.3193863202503604,50,5,188
1675216013090.0,2023-02-01 09:46:53:085890,111.86000000000001,-0.58,-0.42,1.9523252846893788,-0.01012290957553942,-0.007330382796080269,-0.42186,-0.08154,0.21305000000000002,-0.0880432,0.739998,9.76423,31.027993349000003,121.42922398600001,15.319,350079.1570712592,3433763.764748382,-1176.9229287407943,-15.645251618232578,-0.11,0.31,-0.01,-0.013334769434590804,0.3286672845357844,50,5,188
1675216013110.0,2023-02-01 09:46:53:106227,111.86000000000001,-0.58,-0.42,1.9523252846893788,-0.01012290957553942,-0.007330382796080269,-0.35122000000000003,-0.11221,0.18888000000000002,-0.0866222,0.7192906,9.8076244,31.027993406,121.429223961,15.319,350079.1547741889,3433763.7711002934,-1176.9252258111374,-15.638899706769735,-0.12,0.32,-0.01,-0.007777204393497578,0.3416716480655393,50,5,188
1675216013130.0,2023-02-01 09:46:53:126160,111.87,-0.59,-0.42,1.9524998176130948,-0.010297442499255616,-0.007330382796080269,-0.36805000000000004,-0.12091,0.16191000000000003,-0.0920808,0.6596674,9.857604400000001,31.027993465,121.42922393500001,15.319,350079.15238479787,3433763.777675245,-1176.9276152021484,-15.632324755191803,-0.12,0.33,0.0,-0.011561856247872565,0.35095059977168236,50,5,188
1675216013150.0,2023-02-01 09:46:53:146306,111.87,-0.6,-0.43,1.9524998176130948,-0.010471975422971814,-0.007504915719796466,-0.30661000000000005,-0.14102,0.13771,-0.0874454,0.6556200000000001,9.876645799999999,31.027993526000003,121.42922390800001,15.318,350079.1499030837,3433763.7844732357,-1176.9300969163305,-15.625526764430106,-0.13,0.34,0.0,-0.0060065609810022735,0.36395593308143986,50,5,188
1675216013170.0,2023-02-01 09:46:53:166281,111.87,-0.6,-0.43,1.9524998176130948,-0.010471975422971814,-0.007504915719796466,-0.20683,-0.1441,0.15828,-0.08832740000000001,0.6722310000000001,9.870334600000001,31.027993589,121.42922388000001,15.318,350079.1473290488,3433763.791494266,-1176.9326709512388,-15.618505734018981,-0.13,0.35000000000000003,0.0,-0.009731580002445894,0.3732362473697538,50,5,188
1675216013190.0,2023-02-01 09:46:53:186239,111.88,-0.6,-0.43,1.9526743505368107,-0.010471975422971814,-0.007504915719796466,-0.22916000000000003,-0.11190000000000001,0.12118000000000001,-0.070805,0.6779052000000001,9.865836400000001,31.027993654000003,121.429223851,15.318,350079.14466269314,3433763.798738336,-1176.9353373068734,-15.61126166395843,-0.13,0.36,0.0,-0.013523360552470803,0.38251420721244833,50,5,188
1675216013210.0,2023-02-01 09:46:53:206226,111.88,-0.61,-0.43,1.9526743505368107,-0.01064650834668801,-0.007504915719796466,-0.16412000000000002,-0.07962000000000001,0.0834,-0.0723142,0.6860196,9.857339800000002,31.027993729000002,121.42922382200001,15.318,350079.1420120054,3433763.807090859,-1176.9379879946355,-15.602909141220152,-0.14,0.37,0.0,-0.007970335229047415,0.3955205099060435,50,5,188
1675216013230.0,2023-02-01 09:46:53:226178,111.88,-0.61,-0.43,1.9526743505368107,-0.01064650834668801,-0.007504915719796466,-0.09926000000000001,-0.10445000000000002,0.043870000000000006,-0.0598486,0.6735834,9.833957000000002,31.027993803,121.4292238,15.318,350079.14002793346,3433763.8153230925,-1176.9399720665533,-15.59467690763995,-0.14,0.38,0.0,-0.011696973914133268,0.4048001739145527,50,5,188
1675216013250.0,2023-02-01 09:46:53:246327,111.88,-0.61,-0.43,1.9526743505368107,-0.01064650834668801,-0.007504915719796466,-0.12644,-0.019880000000000002,0.029390000000000003,-0.0445312,0.6359317999999999,9.819619600000001,31.027993873000003,121.429223769,15.318,350079.1371785032,3433763.8231240883,-1176.9428214968066,-15.586875911802053,-0.15,0.39,0.0,-0.006143948590709936,0.41780647660814774,50,5,188
1675216013270.0,2023-02-01 09:46:53:266264,111.88,-0.61,-0.44,1.9526743505368107,-0.01064650834668801,-0.0076794486435126635,-0.08766,-0.05011,-0.06083,-0.044972200000000004,0.6259652,9.812171600000001,31.027993946000002,121.42922373600001,15.318,350079.1341428597,3433763.831260317,-1176.9458571402938,-15.578739683143795,-0.15,0.4,0.0,-0.009870587275795789,0.427086140616657,50,5,188
1675216013290.0,2023-02-01 09:46:53:286241,111.87,-0.62,-0.44,1.9524998176130948,-0.010821041270404208,-0.0076794486435126635,-0.10833000000000001,0.00411,-0.10834,-0.0515186,0.643174,9.806095599999999,31.02799402,121.429223702,15.318,350079.1310133288,3433763.839508741,-1176.9489866712247,-15.570491258986294,-0.16,0.41000000000000003,0.0,-0.00424075126616591,0.4400931901639681,50,5,188
1675216013310.0,2023-02-01 09:46:53:306333,111.87,-0.62,-0.44,1.9524998176130948,-0.010821041270404208,-0.0076794486435126635,-0.09893,0.02739,-0.14658000000000002,-0.0554288,0.6467804,9.7965896,31.027994095,121.429223668,15.318,350079.12788536464,3433763.8478680104,-1176.95211463538,-15.562131989747286,-0.16,0.42,0.0,-0.007965770287609503,0.44937350445228197,50,5,188
1675216013330.0,2023-02-01 09:46:53:326324,111.87,-0.62,-0.43,1.9524998176130948,-0.010821041270404208,-0.007504915719796466,-0.11011000000000001,0.057850000000000006,-0.20824,-0.0748818,0.6545616,9.7965406,31.027994173000003,121.429223632,15.318,350079.1245711922,3433763.8565625143,-1176.9554288078216,-15.55343748582527,-0.17,0.43,0.0,-0.002410475020739211,0.4623788377620395,50,5,188
1675216013350.0,2023-02-01 09:46:53:346330,111.86000000000001,-0.62,-0.43,1.9523252846893788,-0.010821041270404208,-0.007504915719796466,-0.08926,0.08036,-0.24853000000000003,-0.0877002,0.6299538,9.8063994,31.027994252000003,121.42922359500001,15.318,350079.12116312986,3433763.865369212,-1176.9588368701516,-15.544630788266659,-0.17,0.44,0.0,-0.006053173898347114,0.47166021571228195,50,5,188
1675216013370.0,2023-02-01 09:46:53:366281,111.86000000000001,-0.62,-0.43,1.9523252846893788,-0.010821041270404208,-0.007504915719796466,0.021910000000000002,0.049890000000000004,-0.29993000000000003,-0.10279220000000001,0.6000932,9.815199799999998,31.027994334000002,121.429223558,15.318,350079.1177597679,3433763.8745084465,-1176.9622402320965,-15.535491553600878,-0.17,0.45,0.0,-0.009776573142677936,0.480941179997706,50,5,188
1675216013390.0,2023-02-01 09:46:53:386288,111.84999999999997,-0.62,-0.43,1.9521507517656618,-0.010821041270404208,-0.007504915719796466,0.014940000000000002,0.048100000000000004,-0.32499,-0.1093876,0.6137250000000001,9.78285,31.027994416000002,121.42922352000001,15.318,350079.11426095164,3433763.8836490302,-1176.9657390483771,-15.526350969914347,-0.18,0.46,0.0,-0.004132798277894395,0.4939462723600556,50,5,188
1675216013410.0,2023-02-01 09:46:53:406324,111.83999999999997,-0.62,-0.43,1.9519762188419456,-0.010821041270404208,-0.007504915719796466,0.036550000000000006,-0.025480000000000003,-0.31837000000000004,-0.1198834,0.6245050000000001,9.7546848,31.027994509000003,121.429223479,15.319,350079.1104930022,3433763.8940129587,-1176.9695069977897,-15.515987041406333,-0.18,0.47000000000000003,0.0,-0.007766747678203151,0.5032292495776683,50,5,188
1675216013430.0,2023-02-01 09:46:53:426185,111.83999999999997,-0.62,-0.43,1.9519762188419456,-0.010821041270404208,-0.007504915719796466,0.08992000000000001,0.01003,-0.32067,-0.1331428,0.6332760000000001,9.7382404,31.027994598000003,121.42922343100001,15.318,350079.10605060303,3433763.903942951,-1176.9739493969828,-15.506057049147785,-0.18,0.48,0.0,-0.01148690702809399,0.5125115130091498,50,5,188
1675216013450.0,2023-02-01 09:46:53:446230,111.82999999999998,-0.62,-0.43,1.9518016859182297,-0.010821041270404208,-0.007504915719796466,0.03513,-0.023110000000000002,-0.30152,-0.134946,0.6284936,9.735957,31.027994686000003,121.42922339,15.318,350079.10227482213,3433763.913752653,-1176.977725177887,-15.496247346978635,-0.19,0.49,0.0,-0.00583308337306207,0.5255149618596628,50,5,188
1675216013470.0,2023-02-01 09:46:53:466286,111.82999999999998,-0.62,-0.43,1.9518016859182297,-0.010821041270404208,-0.007504915719796466,0.03316,0.01378,-0.30317000000000005,-0.1248618,0.598535,9.7631716,31.027994776000003,121.42922335,15.318,350079.0985976291,3433763.9237826974,-1176.981402370904,-15.486217302735895,-0.19,0.5,0.0,-0.009551622605724508,0.5347978744400522,50,5,188
1675216013490.0,2023-02-01 09:46:53:486261,111.82,-0.62,-0.43,1.9516271529945135,-0.010821041270404208,-0.007504915719796466,0.039970000000000006,0.010320000000000001,-0.30585,-0.1078,0.6095208,9.7634754,31.027994868,121.429223308,15.318,350079.0947326611,3433763.9340371303,-1176.985267338925,-15.475962869822979,-0.19,0.51,0.0,-0.01317520162625646,0.5440830948137495,50,5,188
1675216013510.0,2023-02-01 09:46:53:506262,111.81,-0.62,-0.43,1.9514526200707976,-0.010821041270404208,-0.007504915719796466,-0.024960000000000003,0.0027600000000000003,-0.28174000000000005,-0.0816144,0.6404692,9.7432776,31.027994961,121.42922326600001,15.318,350079.09086925746,3433763.944402408,-1176.9891307425569,-15.465597592294216,-0.2,0.52,0.0,-0.007511329641357811,0.5570848947216384,50,5,188
1675216013530.0,2023-02-01 09:46:53:526265,111.81,-0.62,-0.43,1.9514526200707976,-0.010821041270404208,-0.007504915719796466,-0.06017000000000001,0.048920000000000005,-0.32770000000000005,-0.0611422,0.6431348000000001,9.7376524,31.027995057000002,121.42922322300001,15.318,350079.0869151023,3433763.955101572,-1176.9930848976946,-15.454898428171873,-0.2,0.53,0.0,-0.011226628299793179,0.5663691047515025,50,5,188
1675216013550.0,2023-02-01 09:46:53:546281,111.80000000000001,-0.62,-0.43,1.9512780871470816,-0.010821041270404208,-0.007504915719796466,-0.12689,0.17193000000000003,-0.3382,-0.0486276,0.6336189999999999,9.7361334,31.027995154000003,121.429223179,15.318,350079.0828670548,3433763.9659129283,-1176.9971329452237,-15.444087071809918,-0.21,0.54,0.0,-0.005556597944693015,0.5793695920733855,50,5,188
1675216013570.0,2023-02-01 09:46:53:566244,111.79000000000002,-0.62,-0.42,1.9511035542233655,-0.010821041270404208,-0.007330382796080269,-0.15737,0.22254000000000002,-0.37737000000000004,-0.0663068,0.6541892,9.675804600000001,31.027995253,121.42922313400001,15.318,350079.078726689,3433763.9769473267,-1177.0012733110343,-15.433052673470229,-0.21,0.55,0.0,-0.009167536423268202,0.5886560594064484,50,5,188
1675216013590.0,2023-02-01 09:46:53:585949,111.79000000000002,-0.63,-0.42,1.9511035542233655,-0.010995574194120405,-0.007330382796080269,-0.29784000000000005,0.25608000000000003,-0.35812000000000005,-0.067718,0.6959372,9.6717474,31.027995353,121.429223088,15.318,350079.0744924332,3433763.9880939187,-1177.0055075667915,-15.421906081493944,-0.22,0.56,0.0,-0.0035940877066926447,0.6016536233860448,50,5,188
1675216013610.0,2023-02-01 09:46:53:605932,111.77999999999997,-0.63,-0.41000000000000003,1.9509290212996484,-0.010995574194120405,-0.007155849872364073,-0.27402000000000004,0.22211000000000003,-0.41765,-0.0789684,0.6837166,9.738328600000001,31.027995464000004,121.42922304000001,15.317,350079.0700845035,3433764.000462506,-1177.0099154965137,-15.409537494182587,-0.22,0.5700000000000001,0.0,-0.0071995162349398345,0.6109403955918965,50,5,188
1675216013630.0,2023-02-01 09:46:53:626171,111.76999999999998,-0.64,-0.41000000000000003,1.9507544883759325,-0.011170107117836602,-0.007155849872364073,-0.25420000000000004,0.09422000000000001,-0.38660000000000005,-0.0866908,0.6544734,9.8087514,31.027995573000002,121.42922298900001,15.318,350079.06538707484,3433764.012613452,-1177.0146129251807,-15.397386548109353,-0.22,0.58,0.0,-0.010801703064649976,0.6202284443742507,50,5,188
1675216013650.0,2023-02-01 09:46:53:645995,111.75999999999999,-0.64,-0.41000000000000003,1.9505799554522163,-0.011170107117836602,-0.007155849872364073,-0.21448,-0.005750000000000001,-0.45419000000000004,-0.0957166,0.6617841999999999,9.814896000000001,31.027995679000004,121.429222941,15.318,350079.06097130885,3433764.024427815,-1177.0190286911675,-15.385572185274214,-0.23,0.59,0.0,-0.005113199156115661,0.6332249641275918,50,5,188
1675216013670.0,2023-02-01 09:46:53:666316,111.75,-0.65,-0.41000000000000003,1.9504054225285004,-0.011344640041552799,-0.007155849872364073,-0.11139,-0.04929000000000001,-0.47088,-0.0775082,0.6751906000000001,9.8129556,31.027995787000002,121.42922289100001,15.317,350079.0563677677,3433764.0364665664,-1177.0236322323326,-15.373533433768898,-0.23,0.6,0.0,-0.008708254695585865,0.6425139424947577,50,5,188
1675216013690.0,2023-02-01 09:46:53:686231,111.74000000000001,-0.65,-0.41000000000000003,1.9502308896047842,-0.011344640041552799,-0.007155849872364073,-0.08773,-0.08704,-0.46203000000000005,-0.08140860000000001,0.6706826,9.8287924,31.027995898,121.42922284100001,15.317,350079.05176892696,3433764.0488378527,-1177.0282310730545,-15.36116214748472,-0.24,0.61,0.0,-0.0030113256194720384,0.655508147865466,50,5,188
1675216013710.0,2023-02-01 09:46:53:705827,111.73000000000002,-0.65,-0.41000000000000003,1.9500563566810682,-0.011344640041552799,-0.007155849872364073,-0.032810000000000006,-0.03749,-0.5395300000000001,-0.0699524,0.6462022000000001,9.7996668,31.027996010000003,121.42922279000001,15.317,350079.0470761988,3433764.061321334,-1177.03292380122,-15.348678666166961,-0.24,0.62,0.0,-0.006599249659119011,0.664798051970624,50,5,188
1675216013730.0,2023-02-01 09:46:53:726338,111.71999999999997,-0.65,-0.41000000000000003,1.9498818237573512,-0.011344640041552799,-0.007155849872364073,-0.016790000000000003,0.038700000000000005,-0.5091600000000001,-0.0606522,0.6455652000000001,9.7473446,31.027996124,121.429222738,15.317,350079.04229114746,3433764.074027856,-1177.0377088525565,-15.335972144268453,-0.25,0.63,0.0,-0.0008938963385157206,0.6777899386604496,50,5,188
1675216013750.0,2023-02-01 09:46:53:746209,111.70999999999998,-0.65,-0.41000000000000003,1.9497072908336353,-0.011344640041552799,-0.007155849872364073,-0.09169000000000001,0.11837,-0.55184,-0.0636902,0.633031,9.691151399999999,31.027996239000004,121.42922268400001,15.317,350079.0373167542,3433764.0868479204,-1177.0426832457888,-15.3231520797126,-0.25,0.64,0.0,-0.004474688670572935,0.6870807646567478,50,5,188
1675216013770.0,2023-02-01 09:46:53:766238,111.69999999999999,-0.65,-0.41000000000000003,1.949532757909919,-0.011344640041552799,-0.007155849872364073,-0.06468,0.23491,-0.54401,-0.1003912,0.6031606,9.713172,31.027996357000003,121.429222631,15.317,350079.0324425134,3433764.099999172,-1177.0475574866286,-15.310000828001648,-0.25,0.65,-0.01,-0.008052237807145618,0.6963728609490014,50,5,188
1675216013790.0,2023-02-01 09:46:53:785946,111.69,-0.65,-0.4,1.9493582249862031,-0.011344640041552799,-0.006981316948647876,-0.11120000000000001,0.24459000000000003,-0.48229000000000005,-0.16072,0.5863144,9.7937476,31.027996476000002,121.429222576,15.317,350079.02737893304,3433764.113263967,-1177.0526210669777,-15.29673603316769,-0.26,0.66,-0.01,-0.002334572449063821,0.7093620724083577,50,5,188
1675216013810.0,2023-02-01 09:46:53:806306,111.68,-0.66,-0.39,1.949183692062487,-0.011519172965268996,-0.006806784024931679,-0.14431000000000002,0.29555000000000003,-0.46355,-0.1500772,0.5990544,9.8097314,31.027996603000002,121.42922251600001,15.317,350079.0218506106,3433764.127422271,-1177.0581493893987,-15.282577729318291,-0.26,0.67,0.0,-0.005904989286763251,0.7186550849340199,50,5,188
1675216013830.0,2023-02-01 09:46:53:826295,111.67000000000002,-0.66,-0.39,1.949009159138771,-0.011519172965268996,-0.006806784024931679,-0.15463000000000002,0.2131,-0.33399,-0.1904728,0.5857852,9.8611912,31.027996721,121.429222444,15.318,350079.01516272326,3433764.1405991586,-1177.064837276761,-15.26940084155649,-0.26,0.68,0.0,-0.009472162209769514,0.7279493650955896,50,5,188
1675216013850.0,2023-02-01 09:46:53:846288,111.67000000000002,-0.66,-0.39,1.949009159138771,-0.011519172965268996,-0.006806784024931679,-0.19262,0.18020000000000003,-0.32291000000000003,-0.1902768,0.5629512,9.8723534,31.027996845,121.42922238800001,15.318,350079.0100115227,3433764.154419529,-1177.0699884773348,-15.255580471362919,-0.26,0.6900000000000001,0.0,-0.013164764195193995,0.7372426255878625,50,5,188
1675216013870.0,2023-02-01 09:46:53:866265,111.65999999999997,-0.67,-0.39,1.948834626215054,-0.011693705888985193,-0.006806784024931679,-0.14482,0.10259000000000001,-0.24473000000000003,-0.15578080000000002,0.5858636,9.860662,31.027996971,121.42922233200001,15.318,350079.00486345316,3433764.168461589,-1177.0751365468604,-15.241538411006331,-0.26,0.7000000000000001,0.0,-0.016727070833670393,0.7465388168751345,50,5,188
1675216013890.0,2023-02-01 09:46:53:886177,111.65999999999997,-0.67,-0.38,1.948834626215054,-0.011693705888985193,-0.006632251101215482,-0.18979000000000001,0.041510000000000005,-0.19499000000000002,-0.1358182,0.6179782,9.8436786,31.027997099,121.429222276,15.318,350078.9997185173,3433764.1827253415,-1177.0802814827184,-15.227274658624083,-0.27,0.71,0.0,-0.011124145951591169,0.7595237016557466,50,5,188
1675216013910.0,2023-02-01 09:46:53:905911,111.65999999999997,-0.67,-0.39,1.948834626215054,-0.011693705888985193,-0.006806784024931679,-0.14618,-0.024970000000000003,-0.14508000000000001,-0.0781942,0.6210162,9.8258916,31.027997228,121.429222218,15.318,350078.99438423733,3433764.197102638,-1177.085615762684,-15.212897362187505,-0.27,0.72,0.0,-0.014815125900857706,0.7688176064870924,50,5,188
1675216013930.0,2023-02-01 09:46:53:926152,111.64999999999998,-0.68,-0.38,1.948660093291338,-0.01186823881270139,-0.006632251101215482,-0.17022,0.03164,-0.16118000000000002,-0.040866000000000006,0.6641362,9.8156408,31.027997359,121.42922216000001,15.318,350078.98905309325,3433764.2117016236,-1177.0909469067701,-15.198298376519233,-0.27,0.73,0.0,-0.01837029949190222,0.7781147293918665,50,5,188
1675216013950.0,2023-02-01 09:46:53:946356,111.64999999999998,-0.68,-0.38,1.948660093291338,-0.01186823881270139,-0.006632251101215482,-0.12944,0.09731000000000001,-0.19942000000000001,-0.0017444000000000001,0.7000042,9.802832200000001,31.027997492,121.42922210100001,15.318,350078.983629626,3433764.226523651,-1177.0963703740272,-15.18347634933889,-0.28,0.74,0.0,-0.012765108405267067,0.7910986360798518,50,5,188
1675216013970.0,2023-02-01 09:46:53:966371,111.63999999999999,-0.68,-0.38,1.9484855603676219,-0.01186823881270139,-0.006632251101215482,-0.16677,0.22763000000000003,-0.26836000000000004,0.005684000000000001,0.6851767999999999,9.827391,31.027997627,121.42922204000001,15.318,350078.97801838134,3433764.2415700653,-1177.1019816186745,-15.168429934885353,-0.29,0.75,0.0,-0.007019578333194276,0.8040837801622566,50,5,188
1675216013990.0,2023-02-01 09:46:53:986302,111.63999999999999,-0.6900000000000001,-0.37,1.9484855603676219,-0.012042771736417587,-0.0064577181774992855,-0.17005,0.28340000000000004,-0.31738000000000005,0.0029498000000000003,0.7040908,9.8067816,31.027997764000002,121.429221979,15.318,350078.97241027036,3433764.2568381703,-1177.1075897296541,-15.153161829803139,-0.29,0.76,0.0,-0.010707313872893476,0.8133789728224029,50,5,188
1675216014010.0,2023-02-01 09:46:54:006346,111.63,-0.6900000000000001,-0.37,1.948311027443906,-0.012042771736417587,-0.0064577181774992855,-0.10682000000000001,0.21557,-0.36125,-0.014729400000000002,0.7291494000000001,9.788338000000001,31.027997902000003,121.42922191500001,15.318,350078.9665173631,3433764.272221169,-1177.1134826369234,-15.137778831180185,-0.3,0.77,0.0,-0.004955629316870436,0.8263627785289422,50,5,188
1675216014030.0,2023-02-01 09:46:54:026237,111.63,-0.6900000000000001,-0.36,1.948311027443906,-0.012042771736417587,-0.0062831852537830885,-0.14941000000000002,0.21277000000000001,-0.43332000000000004,-0.031154200000000003,0.7114506,9.7810958,31.027998033000003,121.42922182500001,15.32,350078.9581316544,3433764.286863332,-1177.1218683455954,-15.12313666800037,-0.3,0.78,0.0,-0.00864174248325894,0.8356586146787772,50,5,188
1675216014050.0,2023-02-01 09:46:54:045964,111.62,-0.6900000000000001,-0.36,1.9481364945201898,-0.012042771736417587,-0.0062831852537830885,-0.16568000000000002,0.09909000000000001,-0.42632000000000003,-0.074627,0.7415660000000001,9.7708352,31.027998176,121.42922176,15.32,350078.9521511245,3433764.302801907,-1177.1278488755343,-15.107198093086481,-0.31,0.79,0.0,-0.0028839037355660735,0.8486410802566913,50,5,188
1675216014070.0,2023-02-01 09:46:54:066353,111.61000000000001,-0.7000000000000001,-0.36,1.9479619615964738,-0.012217304660133784,-0.0062831852537830885,-0.18292000000000003,-0.03941,-0.5226500000000001,-0.0853972,0.7772477999999999,9.7288422,31.027998320000002,121.429221693,15.32,350078.9459812504,3433764.3188540246,-1177.134018749639,-15.091145975515246,-0.31,0.8,0.0,-0.006418655966431375,0.8579386929469871,50,5,188
1675216014090.0,2023-02-01 09:46:54:086300,111.59999999999997,-0.7000000000000001,-0.37,1.9477874286727568,-0.012217304660133784,-0.0064577181774992855,-0.14641,-0.08650000000000001,-0.47867000000000004,-0.0795956,0.776552,9.735075,31.027998467000003,121.42922162600001,15.32,350078.939816079,3433764.335238679,-1177.1401839210303,-15.074761321302503,-0.32,0.8200000000000001,0.0,-0.0043336431470453185,0.8802165753591976,50,5,188
1675216014110.0,2023-02-01 09:46:54:106358,111.58999999999997,-0.7000000000000001,-0.37,1.9476128957490408,-0.012217304660133784,-0.0064577181774992855,-0.19130000000000003,-0.08438000000000001,-0.49246000000000006,-0.1006754,0.8021202,9.728371800000001,31.027998616,121.42922155800001,15.32,350078.93355858466,3433764.3518463713,-1177.1464414153597,-15.058153628837317,-0.32,0.8300000000000001,0.0,-0.007859638860205298,0.8895157255928572,50,5,188
1675216014130.0,2023-02-01 09:46:54:125963,111.57999999999998,-0.71,-0.37,1.9474383628253247,-0.01239183758384998,-0.0064577181774992855,-0.22188000000000002,-0.062400000000000004,-0.44936000000000004,-0.1251754,0.8183588,9.7649454,31.027998767000003,121.42922148800001,15.32,350078.9271133151,3433764.3686784534,-1177.1528866849258,-15.041321546770632,-0.33,0.84,0.0,-0.002083339227172132,0.9024941327774184,50,5,188
1675216014150.0,2023-02-01 09:46:54:145941,111.57,-0.71,-0.37,1.9472638299016087,-0.01239183758384998,-0.0064577181774992855,-0.22990000000000002,0.0887,-0.43729,-0.1403654,0.8089508,9.751793800000002,31.027998921000002,121.42922141800001,15.32,350078.920672746,3433764.385843072,-1177.1593272539903,-15.024156928062439,-0.33,0.86,0.0,-0.009278577397131726,0.9210938649244632,50,5,188
1675216014170.0,2023-02-01 09:46:54:166364,111.56,-0.72,-0.36,1.9470892969778926,-0.012566370507566177,-0.0062831852537830885,-0.29087,0.13888,-0.38617,-0.1405222,0.8456126,9.7252162,31.027999077,121.42922134700001,15.32,350078.9141398538,3433764.403230729,-1177.165860146226,-15.006769271101803,-0.34,0.87,0.0,-0.0034922368154829964,0.9340705563724961,50,5,188
1675216014190.0,2023-02-01 09:46:54:186298,111.55000000000001,-0.72,-0.36,1.9469147640541766,-0.012566370507566177,-0.0062831852537830885,-0.25463,0.1708,-0.33591000000000004,-0.15708419999999998,0.8371846000000001,9.726108,31.027999236000003,121.429221275,15.32,350078.90751620533,3433764.4209522745,-1177.1724837946822,-14.98904772568494,-0.34,0.88,0.0,-0.007002340839740051,0.9433721255277602,50,5,188
1675216014210.0,2023-02-01 09:46:54:205925,111.55000000000001,-0.73,-0.36,1.9469147640541766,-0.012740903431282374,-0.0062831852537830885,-0.38827,0.17451000000000003,-0.32,-0.17070620000000003,0.8365672000000001,9.7695808,31.027999397000002,121.42922119600001,15.322000000000001,350078.9002275078,3433764.438904952,-1177.1797724922071,-14.971095048356801,-0.34,0.9,0.0,-0.014348601123299831,0.9619740732711066,50,5,188
1675216014230.0,2023-02-01 09:46:54:225909,111.54000000000002,-0.74,-0.35000000000000003,1.9467402311304605,-0.012915436354998571,-0.006108652330066892,-0.38459000000000004,0.17436000000000001,-0.27887,-0.164542,0.8467984000000001,9.808016400000001,31.027999565000002,121.42922113700001,15.321,350078.89485887863,3433764.457606563,-1177.1851411213866,-14.952393437270075,-0.35000000000000003,0.91,0.0,-0.00855059670559244,0.9749496844945273,50,5,188
1675216014250.0,2023-02-01 09:46:54:246231,111.54000000000002,-0.75,-0.35000000000000003,1.9467402311304605,-0.013089969278714768,-0.006108652330066892,-0.41413000000000005,0.19963000000000003,-0.24236000000000002,-0.1318296,0.8339604,9.8300762,31.027999732,121.42922106300001,15.321,350078.8880568583,3433764.476217567,-1177.19194314169,-14.93378243315965,-0.35000000000000003,0.93,0.0,-0.01589361022495228,0.9935529141188291,50,5,188
1675216014270.0,2023-02-01 09:46:54:266325,111.52999999999997,-0.75,-0.34,1.9465656982067436,-0.013089969278714768,-0.005934119406350695,-0.27668000000000004,0.20242000000000002,-0.20844000000000001,-0.0882098,0.8610868,9.8380828,31.027999901,121.42922098800001,15.321,350078.8811625149,3433764.4950516103,-1177.1988374851062,-14.914948389865458,-0.36,0.9400000000000001,0.0,-0.010087830085244998,1.0065278116794247,50,5,188
1675216014290.0,2023-02-01 09:46:54:286269,111.52999999999997,-0.76,-0.34,1.9465656982067436,-0.013264502202430964,-0.005934119406350695,-0.31808000000000003,0.19491000000000003,-0.22641000000000003,-0.0667282,0.8682114,9.800686,31.028000072,121.429220912,15.321,350078.8741758483,3433764.514108694,-1177.2058241516934,-14.895891305990517,-0.36,0.9500000000000001,0.0,-0.013757713350984468,1.0158300671487097,50,5,188
1675216014310.0,2023-02-01 09:46:54:306350,111.51999999999998,-0.77,-0.34,1.9463911652830275,-0.01343903512614716,-0.005934119406350695,-0.30688000000000004,0.13564,-0.26263000000000003,-0.0356622,0.8789522,9.8120344,31.028000246,121.429220834,15.321,350078.86700297357,3433764.5335010113,-1177.2129970264505,-14.876498988829553,-0.37,0.97,0.0,-0.011614040827683803,1.038106504196777,50,5,188
1675216014330.0,2023-02-01 09:46:54:326277,111.51999999999998,-0.77,-0.33,1.9463911652830275,-0.01343903512614716,-0.005759586482634498,-0.27940000000000004,0.12999000000000002,-0.30650000000000005,-0.0114464,0.8627136000000001,9.8039102,31.028000422,121.429220756,15.321,350078.85983323236,3433764.55311502,-1177.2201667676563,-14.856884980108589,-0.37,0.98,0.0,-0.015282300487691747,1.0474094000398335,50,5,188
1675216014350.0,2023-02-01 09:46:54:345958,111.50999999999999,-0.78,-0.33,1.9462166323593115,-0.013613568049863358,-0.005759586482634498,-0.24153000000000002,0.14442000000000002,-0.31029,-0.0039004,0.8504538,9.8169148,31.028000600000002,121.42922067500001,15.321,350078.85238025954,3433764.572954766,-1177.2276197404717,-14.83704523416236,-0.38,0.99,0.0,-0.009462592840030148,1.0603822232274285,50,5,188
1675216014370.0,2023-02-01 09:46:54:366323,111.5,-0.78,-0.33,1.9460420994355954,-0.013613568049863358,-0.005759586482634498,-0.25816,0.15527000000000002,-0.36472000000000004,-0.0012348,0.8452892000000001,9.7943356,31.028000781000003,121.42922059400001,15.321,350078.844931987,3433764.5931270476,-1177.2350680130185,-14.816872952505946,-0.39,1.01,0.0,-0.0073033695734767146,1.0826572222051045,50,5,188
1675216014390.0,2023-02-01 09:46:54:385982,111.5,-0.79,-0.33,1.9460420994355954,-0.013788100973579555,-0.005759586482634498,-0.25861,0.04678,-0.43799000000000005,-0.0145334,0.8433978000000001,9.7966092,31.028000965,121.42922051100001,15.321,350078.8372975063,3433764.613634565,-1177.2427024937351,-14.796365435235202,-0.39,1.02,0.0,-0.01096838168684644,1.0919613979455371,50,5,188
1675216014410.0,2023-02-01 09:46:54:405970,111.49000000000001,-0.79,-0.33,1.9458675665118794,-0.013788100973579555,-0.005759586482634498,-0.25691,0.03746,-0.4338,-0.0318794,0.848141,9.7830362,31.028001154000002,121.429220419,15.323,350078.82881176117,3433764.63470845,-1177.2511882388499,-14.77529154997319,-0.4,1.03,0.0,-0.0051363712139513296,1.104931499094289,50,5,188
1675216014430.0,2023-02-01 09:46:54:426255,111.48000000000002,-0.8,-0.33,1.9456930335881633,-0.013962633897295752,-0.005759586482634498,-0.25079,0.03583,-0.45458000000000004,-0.022883,0.8639386,9.7361922,31.028001355,121.42922033900001,15.321,350078.82149027905,3433764.65709629,-1177.2585097209667,-14.752903710119426,-0.41000000000000003,1.05,0.0,-0.0029615979478548327,1.1272050518595078,50,5,188
1675216014450.0,2023-02-01 09:46:54:446299,111.46999999999997,-0.8,-0.33,1.9455185006644462,-0.013962633897295752,-0.005759586482634498,-0.33368000000000003,0.0015500000000000002,-0.39511,-0.0508816,0.8755124000000001,9.7119666,31.028001546000002,121.42922025200001,15.321,350078.8134849438,3433764.67838512,-1177.2665150561952,-14.731614880263805,-0.41000000000000003,1.06,0.0,-0.00642500346663244,1.1365116450483268,50,5,188
1675216014470.0,2023-02-01 09:46:54:466380,111.45999999999998,-0.81,-0.33,1.9453439677407303,-0.014137166821011949,-0.005759586482634498,-0.39633,0.00833,-0.36141,-0.08851360000000001,0.8846264,9.714348,31.028001739,121.429220165,15.32,350078.8054827424,3433764.6998956418,-1177.2745172576397,-14.710104358382523,-0.42,1.07,0.0,-0.0005784282163388554,1.1494779969276483,50,5,188
1675216014490.0,2023-02-01 09:46:54:486292,111.45999999999998,-0.8200000000000001,-0.33,1.9453439677407303,-0.014311699744728146,-0.005759586482634498,-0.40453000000000006,-0.01041,-0.34296000000000004,-0.1001952,0.8972586,9.7253534,31.028001934000002,121.42922007600001,15.32,350078.7972927658,3433764.721630551,-1177.2827072342043,-14.688369449228048,-0.42,1.09,0.0,-0.007895459577893338,1.1680914611955924,50,5,188
1675216014510.0,2023-02-01 09:46:54:506352,111.44999999999999,-0.8300000000000001,-0.33,1.9451694348170143,-0.014486232668444343,-0.005759586482634498,-0.38097000000000003,-0.07294,-0.2114,-0.1070258,0.9162804,9.7604276,31.028002132,121.429219986,15.32,350078.7890120331,3433764.7436993457,-1177.2909879669314,-14.666300654411316,-0.43,1.1,0.0,-0.0020411098110196813,1.1810570832397307,50,5,188
1675216014530.0,2023-02-01 09:46:54:526269,111.44999999999999,-0.8300000000000001,-0.33,1.9451694348170143,-0.014486232668444343,-0.005759586482634498,-0.41139000000000003,-0.09807,-0.20869000000000001,-0.11907,0.9104690000000001,9.736888,31.028002333000003,121.42921989400001,15.32,350078.78054509213,3433764.7661033766,-1177.2994549078867,-14.643896623514593,-0.43,1.12,0.0,-0.009354892398806713,1.1996718242870452,50,5,188
1675216014550.0,2023-02-01 09:46:54:545919,111.44999999999999,-0.84,-0.33,1.9451694348170143,-0.014660765592160539,-0.005759586482634498,-0.41698,-0.17005,-0.03887,-0.107947,0.9012962,9.730488600000001,31.028002536000002,121.429219802,15.32,350078.77208128234,3433764.788729097,-1177.3079187176772,-14.621270902920514,-0.44,1.1300000000000001,0.0,-0.0037044131690428528,1.2126360861045962,50,5,188
1675216014570.0,2023-02-01 09:46:54:566331,111.44999999999999,-0.85,-0.34,1.9451694348170143,-0.014835298515876736,-0.005934119406350695,-0.43929,-0.15615,0.027030000000000002,-0.1055264,0.9095576,9.709693,31.028002742,121.42921970900001,15.32,350078.7635267186,3433764.811688702,-1177.3164732814184,-14.598311298061162,-0.44,1.1500000000000001,0.0,-0.011018195756829885,1.231250827151911,50,5,188
1675216014590.0,2023-02-01 09:46:54:586360,111.44999999999999,-0.86,-0.34,1.9451694348170143,-0.015009831439592933,-0.005934119406350695,-0.39037000000000005,-0.10938,0.09796,-0.1064476,0.8860964,9.780890000000001,31.028002951,121.42921961500001,15.32,350078.75488140096,3433764.8349821917,-1177.325118599052,-14.575017808470875,-0.45,1.16,0.0,-0.005367716527065969,1.2442150889694614,50,5,188
1675216014610.0,2023-02-01 09:46:54:606352,111.44999999999999,-0.87,-0.34,1.9451694348170143,-0.01518436436330913,-0.005934119406350695,-0.42041000000000006,-0.117,0.15213000000000002,-0.1043014,0.8935542000000001,9.825960199999999,31.028003166,121.42921951100001,15.322000000000001,350078.7452909339,3433764.8589542466,-1177.334709066141,-14.551045753527433,-0.45,1.18,0.0,-0.012681499114853001,1.2628298300167762,50,5,188
