gps_time,utc_time,heading,pitch,roll,heading_radians,pitch_radians,roll_radians,gyroX,gyroY,gyroZ,accX,accY,accZ,latitude,longitude,altitude,utm_x_position,utm_y_position,local_x,local_y,east_speed,north_speed,vertical_speed,vehicle_lat_speed,vehicle_lon_speed,position_type,GNSS_info1,GNSS_info2
1676336668880.0,2023-02-14 09:04:28:943971,199.88,0.5,1.12,3.4885640792393433,0.008726646185809844,0.019547687456214054,0.033530000000000004,-0.025210000000000003,0.0017800000000000001,0.18872840000000002,-0.0798504,9.7969228,31.030704206000003,121.44349629800001,16.354,351445.72869883943,3434045.0801170636,189.6486988394172,265.67011706344783,0.0,0.0,0.0,0.0,-0.0,50,5,188
1676336668900.0,2023-02-14 09:04:28:959286,199.88,0.5,1.12,3.4885640792393433,0.008726646185809844,0.019547687456214054,0.009420000000000001,0.011590000000000001,0.02595,0.1917664,-0.09822539999999999,9.8036554,31.030704206000003,121.44349629800001,16.354,351445.72869883943,3434045.0801170636,189.6486988394172,265.67011706344783,0.0,0.0,0.0,0.0,-0.0,50,5,188
1676336668920.0,2023-02-14 09:04:28:979282,199.88,0.5,1.12,3.4885640792393433,0.008726646185809844,0.019547687456214054,-0.037380000000000004,-0.00444,0.02239,0.18948299999999998,-0.0945798,9.775598,31.030704207000003,121.44349629800001,16.354,351445.72870039206,3434045.080227908,189.64870039204834,265.6702279080637,0.0,0.0,0.0,0.0,-0.0,50,5,188
1676336668940.0,2023-02-14 09:04:28:999286,199.88,0.5,1.12,3.4885640792393433,0.008726646185809844,0.019547687456214054,0.0036600000000000005,0.02825,0.01111,0.1929228,-0.07656740000000001,9.7776756,31.030704207000003,121.44349629800001,16.354,351445.72870039206,3434045.080227908,189.64870039204834,265.6702279080637,0.0,0.0,0.0,0.0,-0.0,50,5,188
1676336668960.0,2023-02-14 09:04:29:019311,199.88,0.5,1.12,3.4885640792393433,0.008726646185809844,0.019547687456214054,0.0078000000000000005,-0.0014700000000000002,0.01939,0.1958628,-0.07748859999999999,9.7936986,31.030704208000003,121.44349629700001,16.354,351445.72860649106,3434045.0803400907,189.6486064910423,265.6703400905244,0.0,0.0,0.0,0.0,-0.0,50,5,188
1676336668980.0,2023-02-14 09:04:29:039297,199.88,0.5,1.12,3.4885640792393433,0.008726646185809844,0.019547687456214054,0.048990000000000006,-0.028690000000000004,-0.006280000000000001,0.18878720000000002,-0.09803919999999999,9.7917974,31.030704208000003,121.44349629700001,16.354,351445.72860649106,3434045.0803400907,189.6486064910423,265.6703400905244,0.0,0.0,0.0,0.0,-0.0,50,5,188
1676336669000.0,2023-02-14 09:04:29:059312,199.88,0.5,1.12,3.4885640792393433,0.008726646185809844,0.019547687456214054,0.00521,0.039920000000000004,-0.011850000000000001,0.1861216,-0.0944328,9.787015,31.030704208000003,121.44349629700001,16.354,351445.72860649106,3434045.0803400907,189.6486064910423,265.6703400905244,0.0,0.0,0.0,0.0,-0.0,50,5,188
1676336669020.0,2023-02-14 09:04:29:079300,199.88,0.5,1.12,3.4885640792393433,0.008726646185809844,0.019547687456214054,-0.014530000000000001,0.009890000000000001,0.0018300000000000002,0.1961568,-0.0715498,9.7891416,31.030704205000003,121.443496299,16.354,351445.72879273805,3434045.08000488,189.64879273803672,265.6700048800558,0.0,0.0,0.0,0.0,-0.0,50,5,188
1676336669040.0,2023-02-14 09:04:29:099309,199.88,0.5,1.12,3.4885640792393433,0.008726646185809844,0.019547687456214054,0.041920000000000006,0.019420000000000003,-0.0013900000000000002,0.1964606,-0.0726082,9.787211000000001,31.030704205000003,121.44349629800001,16.354,351445.72869728674,3434045.080006217,189.64869728672784,265.67000621696934,0.0,0.0,0.0,0.0,-0.0,50,5,188
1676336669060.0,2023-02-14 09:04:29:119309,199.88,0.5,1.12,3.4885640792393433,0.008726646185809844,0.019547687456214054,0.0025900000000000003,0.024540000000000003,-0.007930000000000001,0.1864352,-0.0972454,9.7874952,31.030704206000003,121.44349629800001,16.354,351445.72869883943,3434045.0801170636,189.6486988394172,265.67011706344783,0.0,0.0,0.0,0.0,-0.0,50,5,188
1676336669080.0,2023-02-14 09:04:29:139297,199.88,0.5,1.12,3.4885640792393433,0.008726646185809844,0.019547687456214054,-0.05118,0.0054,0.005390000000000001,0.18934579999999998,-0.09402120000000001,9.7864466,31.030704206000003,121.44349629800001,16.354,351445.72869883943,3434045.0801170636,189.6486988394172,265.67011706344783,0.0,0.0,0.0,0.0,-0.0,50,5,188
1676336669100.0,2023-02-14 09:04:29:159301,199.88,0.5,1.12,3.4885640792393433,0.008726646185809844,0.019547687456214054,-0.02128,-0.009300000000000001,0.036570000000000005,0.19993960000000002,-0.0715694,9.7885536,31.030704207000003,121.44349629700001,16.354,351445.72860493837,3434045.080229246,189.64860493835295,265.67022924590856,0.0,0.0,0.0,0.0,-0.0,50,5,188
1676336669120.0,2023-02-14 09:04:29:179323,199.88,0.5,1.12,3.4885640792393433,0.008726646185809844,0.019547687456214054,0.048780000000000004,-0.035370000000000006,0.024720000000000002,0.1972348,-0.0780178,9.7939338,31.030704207000003,121.44349629700001,16.354,351445.72860493837,3434045.080229246,189.64860493835295,265.67022924590856,0.0,0.0,0.0,0.0,-0.0,50,5,188
1676336669140.0,2023-02-14 09:04:29:199310,199.88,0.5,1.12,3.4885640792393433,0.008726646185809844,0.019547687456214054,0.008620000000000001,0.0011300000000000001,-0.006710000000000001,0.1846026,-0.10757459999999999,9.7789398,31.030704207000003,121.44349629700001,16.354,351445.72860493837,3434045.080229246,189.64860493835295,265.67022924590856,0.0,0.0,0.0,0.0,-0.0,50,5,188
1676336669160.0,2023-02-14 09:04:29:219311,199.88,0.5,1.12,3.4885640792393433,0.008726646185809844,0.019547687456214054,-0.048060000000000005,0.047240000000000004,-0.01459,0.1865822,-0.09300200000000002,9.7711488,31.030704208000003,121.443496296,16.354,351445.72851103963,3434045.0803414276,189.648511039617,265.67034142743796,0.0,0.0,0.0,0.0,-0.0,50,5,188
1676336669180.0,2023-02-14 09:04:29:239304,199.88,0.5,1.12,3.4885640792393433,0.008726646185809844,0.019547687456214054,-0.00336,-0.014090000000000002,-0.028040000000000002,0.19916540000000002,-0.0666988,9.8,31.030704208000003,121.443496296,16.354,351445.72851103963,3434045.0803414276,189.648511039617,265.67034142743796,0.0,0.0,0.0,0.0,-0.0,50,5,188
1676336669200.0,2023-02-14 09:04:29:259292,199.88,0.5,1.12,3.4885640792393433,0.008726646185809844,0.019547687456214054,0.036320000000000005,-0.015540000000000002,0.035390000000000005,0.19144300000000003,-0.0813204,9.8010976,31.030704209000003,121.443496296,16.354,351445.7285125924,3434045.080452273,189.64851259236457,265.67045227298513,0.0,0.0,0.0,0.0,-0.0,50,5,188
1676336669220.0,2023-02-14 09:04:29:279305,199.88,0.5,1.1300000000000001,3.4885640792393433,0.008726646185809844,0.019722220379930253,-0.02484,0.035210000000000005,-0.03452,0.177576,-0.103341,9.782281600000001,31.030704205000003,121.44349629700001,16.354,351445.72860183305,3434045.080007555,189.64860183303244,265.6700075548142,0.0,0.0,0.0,0.0,-0.0,50,5,188
1676336669240.0,2023-02-14 09:04:29:299302,199.88,0.5,1.1300000000000001,3.4885640792393433,0.008726646185809844,0.019722220379930253,-0.023760000000000003,0.015600000000000001,-0.00476,0.19333440000000002,-0.091973,9.7864172,31.030704206000003,121.44349629700001,16.354,351445.72860338574,3434045.0801184005,189.6486033857218,265.6701184003614,0.0,0.0,0.0,0.0,-0.0,50,5,188
1676336669260.0,2023-02-14 09:04:29:319303,199.88,0.5,1.1300000000000001,3.4885640792393433,0.008726646185809844,0.019722220379930253,-0.019200000000000002,0.011590000000000001,0.020200000000000003,0.2038302,-0.0664244,9.787877400000001,31.030704206000003,121.44349629700001,16.354,351445.72860338574,3434045.0801184005,189.6486033857218,265.6701184003614,0.0,0.0,0.0,0.0,-0.0,50,5,188
1676336669280.0,2023-02-14 09:04:29:339307,199.88,0.5,1.1300000000000001,3.4885640792393433,0.008726646185809844,0.019722220379930253,0.021740000000000002,-0.015120000000000001,0.029210000000000003,0.1897182,-0.0777336,9.781311400000002,31.030704207000003,121.443496296,16.354,351445.728509487,3434045.080230583,189.64850948698586,265.6702305828221,0.0,0.0,0.0,0.0,-0.0,50,5,188
1676336669300.0,2023-02-14 09:04:29:359314,199.88,0.5,1.1300000000000001,3.4885640792393433,0.008726646185809844,0.019722220379930253,0.01506,0.04225,-0.018690000000000002,0.1862882,-0.1037232,9.798089000000001,31.030704207000003,121.443496296,16.354,351445.728509487,3434045.080230583,189.64850948698586,265.6702305828221,0.0,0.0,0.0,0.0,-0.0,50,5,188
1676336669320.0,2023-02-14 09:04:29:379301,199.88,0.5,1.1300000000000001,3.4885640792393433,0.008726646185809844,0.019722220379930253,-0.08382,0.01915,0.031330000000000004,0.19800900000000002,-0.0912772,9.8027832,31.030704207000003,121.443496296,16.354,351445.728509487,3434045.080230583,189.64850948698586,265.6702305828221,0.0,0.0,0.0,0.0,-0.0,50,5,188
1676336669340.0,2023-02-14 09:04:29:399307,199.88,0.5,1.1300000000000001,3.4885640792393433,0.008726646185809844,0.019722220379930253,-0.02851,0.019360000000000002,-0.01489,0.20022379999999998,-0.0733138,9.7730696,31.030704208000003,121.443496295,16.354,351445.728415586,3434045.0803427645,189.64841558597982,265.6703427643515,0.0,0.0,0.0,0.0,-0.0,50,5,188
1676336669360.0,2023-02-14 09:04:29:419299,199.88,0.5,1.1300000000000001,3.4885640792393433,0.008726646185809844,0.019722220379930253,0.01828,-0.01607,-0.026050000000000004,0.18890479999999998,-0.07785120000000001,9.7732166,31.030704208000003,121.443496295,16.354,351445.728415586,3434045.0803427645,189.64841558597982,265.6703427643515,0.0,0.0,0.0,0.0,-0.0,50,5,188
1676336669380.0,2023-02-14 09:04:29:439336,199.88,0.5,1.1300000000000001,3.4885640792393433,0.008726646185809844,0.019722220379930253,0.012660000000000001,-0.0035600000000000002,0.01055,0.1831228,-0.09286480000000001,9.8020678,31.030704209000003,121.443496295,16.355,351445.7284171387,3434045.08045361,189.64841713866917,265.6704536098987,0.0,0.0,0.0,0.0,-0.0,50,5,188
1676336669400.0,2023-02-14 09:04:29:459307,199.88,0.5,1.1300000000000001,3.4885640792393433,0.008726646185809844,0.019722220379930253,0.0016200000000000001,0.01691,-0.035210000000000005,0.1926386,-0.0975492,9.796511200000001,31.030704209000003,121.44349629400001,16.355,351445.72832168976,3434045.080454947,189.6483216897468,265.67045494681224,0.0,0.0,0.0,0.0,-0.0,50,5,188
1676336669420.0,2023-02-14 09:04:29:479323,199.88,0.5,1.1300000000000001,3.4885640792393433,0.008726646185809844,0.019722220379930253,-0.0106,0.06826,-0.00856,0.1904728,-0.0791448,9.7689242,31.030704204000003,121.443496296,16.354,351445.72850482905,3434045.0798980477,189.6485048290342,265.6698980475776,0.0,0.0,0.0,0.0,-0.0,50,5,188
1676336669440.0,2023-02-14 09:04:29:499302,199.88,0.5,1.1300000000000001,3.4885640792393433,0.008726646185809844,0.019722220379930253,0.05036,0.0,0.009500000000000001,0.185857,-0.075215,9.7739712,31.030704204000003,121.443496295,16.354,351445.7284093753,3434045.0798993846,189.6484093752806,265.66989938449115,0.0,0.0,0.0,0.0,-0.0,50,5,188
1676336669460.0,2023-02-14 09:04:29:519325,199.88,0.5,1.1300000000000001,3.4885640792393433,0.008726646185809844,0.019722220379930253,-0.00907,0.03543,-0.007580000000000001,0.18859120000000001,-0.09114,9.798941600000001,31.030704204000003,121.443496295,16.354,351445.7284093753,3434045.0798993846,189.6484093752806,265.66989938449115,0.0,0.0,0.0,0.0,-0.0,50,5,188
1676336669480.0,2023-02-14 09:04:29:539308,199.88,0.5,1.1300000000000001,3.4885640792393433,0.008726646185809844,0.019722220379930253,-0.03527,0.00119,-0.03511,0.19032580000000002,-0.0990192,9.799069,31.030704205000003,121.443496295,16.354,351445.7284109279,3434045.080010229,189.64841092791175,265.67001022864133,0.0,0.0,0.0,0.0,-0.0,50,5,188
1676336669500.0,2023-02-14 09:04:29:559304,199.88,0.5,1.1300000000000001,3.4885640792393433,0.008726646185809844,0.019722220379930253,0.02764,0.033280000000000004,-0.021980000000000003,0.1956276,-0.0889742,9.782409000000001,31.030704205000003,121.44349629400001,16.355,351445.72831547906,3434045.080011565,189.6483154790476,265.67001156462356,0.0,0.0,0.0,0.0,-0.0,50,5,188
1676336669520.0,2023-02-14 09:04:29:579304,199.88,0.5,1.1300000000000001,3.4885640792393433,0.008726646185809844,0.019722220379930253,0.02467,-0.00459,-0.02543,0.1994202,-0.0736372,9.774539599999999,31.030704206000003,121.44349629400001,16.355,351445.72831703175,3434045.0801224113,189.64831703173695,265.67012241110206,0.0,0.0,0.0,0.0,-0.0,50,5,188
1676336669540.0,2023-02-14 09:04:29:599309,199.88,0.5,1.1300000000000001,3.4885640792393433,0.008726646185809844,0.019722220379930253,0.04438,-0.03004,-0.039110000000000006,0.1944712,-0.08448580000000001,9.7877108,31.030704206000003,121.44349629400001,16.355,351445.72831703175,3434045.0801224113,189.64831703173695,265.67012241110206,0.0,0.0,0.0,0.0,-0.0,50,5,188
1676336669560.0,2023-02-14 09:04:29:619303,199.88,0.5,1.1300000000000001,3.4885640792393433,0.008726646185809844,0.019722220379930253,0.009800000000000001,0.034190000000000005,-0.01263,0.19787180000000001,-0.0977648,9.800646799999999,31.030704207000003,121.44349629300001,16.355,351445.7282231307,3434045.0802345937,189.6482231306727,265.6702345935628,0.0,0.0,0.0,0.0,-0.0,50,5,188
1676336669580.0,2023-02-14 09:04:29:639308,199.88,0.51,1.1300000000000001,3.4885640792393433,0.008901179109526041,0.019722220379930253,0.016050000000000002,-0.014010000000000002,0.03332,0.19600979999999998,-0.0893956,9.7883086,31.030704207000003,121.44349629300001,16.355,351445.7282231307,3434045.0802345937,189.6482231306727,265.6702345935628,0.0,0.0,0.0,0.0,-0.0,50,5,188
1676336669600.0,2023-02-14 09:04:29:659308,199.88,0.5,1.1300000000000001,3.4885640792393433,0.008726646185809844,0.019722220379930253,-0.020040000000000002,-0.00504,0.011120000000000001,0.20210540000000002,-0.0737842,9.770678400000001,31.030704208000003,121.44349629300001,16.355,351445.7282246834,3434045.0803454383,189.64822468336206,265.67034543817863,0.0,0.0,0.0,0.0,-0.0,50,5,188
1676336669620.0,2023-02-14 09:04:29:679318,199.88,0.51,1.1300000000000001,3.4885640792393433,0.008901179109526041,0.019722220379930253,0.005730000000000001,-0.016640000000000002,0.048920000000000005,0.2005962,-0.073696,9.7866328,31.030704204000003,121.44349629400001,16.354,351445.72831392643,3434045.0799007206,189.64831392641645,265.6699007204734,0.0,0.0,0.0,0.0,-0.0,50,5,188
1676336669640.0,2023-02-14 09:04:29:699312,199.88,0.5,1.1300000000000001,3.4885640792393433,0.008726646185809844,0.019722220379930253,-0.034440000000000005,-0.06868,0.01331,0.1897378,-0.093933,9.7981478,31.030704205000003,121.44349629400001,16.354,351445.72831547906,3434045.080011565,189.6483154790476,265.67001156462356,0.0,0.0,0.0,0.0,-0.0,50,5,188
1676336669660.0,2023-02-14 09:04:29:719310,199.88,0.5,1.1300000000000001,3.4885640792393433,0.008726646185809844,0.019722220379930253,0.00961,-0.031720000000000005,0.01339,0.18616080000000002,-0.0918946,9.7934046,31.030704205000003,121.44349629400001,16.354,351445.72831547906,3434045.080011565,189.6483154790476,265.67001156462356,0.0,0.0,0.0,0.0,-0.0,50,5,188
1676336669680.0,2023-02-14 09:04:29:739320,199.88,0.5,1.1300000000000001,3.4885640792393433,0.008726646185809844,0.019722220379930253,-0.049,-0.03275,0.0015700000000000002,0.1838186,-0.08066380000000001,9.785319600000001,31.030704205000003,121.44349629300001,16.354,351445.72822002537,3434045.0800129026,189.6482200253522,265.67001290246844,0.0,0.0,0.0,0.0,-0.0,50,5,188
1676336669700.0,2023-02-14 09:04:29:759316,199.88,0.5,1.1300000000000001,3.4885640792393433,0.008726646185809844,0.019722220379930253,0.00958,-0.048760000000000005,0.00918,0.18216240000000003,-0.0803698,9.777068,31.030704206000003,121.44349629300001,16.354,351445.72822157806,3434045.080123748,189.64822157804156,265.6701237480156,0.0,0.0,0.0,0.0,-0.0,50,5,188
1676336669720.0,2023-02-14 09:04:29:779329,199.88,0.5,1.1300000000000001,3.4885640792393433,0.008726646185809844,0.019722220379930253,-0.01819,-0.00574,-0.004860000000000001,0.183064,-0.092904,9.781683800000001,31.030704206000003,121.443496292,16.354,351445.7281261268,3434045.0801250855,189.64812612679088,265.67012508539483,0.0,0.0,0.0,0.0,-0.0,50,5,188
1676336669740.0,2023-02-14 09:04:29:799272,199.88,0.5,1.1300000000000001,3.4885640792393433,0.008726646185809844,0.019722220379930253,-0.007930000000000001,-0.00141,-0.0439,0.1871408,-0.0987742,9.7970012,31.030704207000003,121.443496292,16.354,351445.7281276794,3434045.080235931,189.64812767936382,265.670235930942,0.0,0.0,0.0,0.0,-0.0,50,5,188
1676336669760.0,2023-02-14 09:04:29:819269,199.88,0.5,1.1300000000000001,3.4885640792393433,0.008726646185809844,0.019722220379930253,0.0069500000000000004,0.02695,-0.011890000000000001,0.19108039999999998,-0.0850738,9.8004802,31.030704207000003,121.443496292,16.355,351445.7281276794,3434045.080235931,189.64812767936382,265.670235930942,0.0,0.0,0.0,0.0,-0.0,50,5,188
1676336669780.0,2023-02-14 09:04:29:839327,199.88,0.5,1.1300000000000001,3.4885640792393433,0.008726646185809844,0.019722220379930253,0.035070000000000004,-0.029500000000000002,-0.013670000000000002,0.195853,-0.0856422,9.7781166,31.030704207000003,121.443496291,16.355,351445.7280322257,3434045.080237268,189.64803222566843,265.67023726785555,0.0,0.0,0.0,0.0,-0.0,50,5,188
1676336669800.0,2023-02-14 09:04:29:859313,199.88,0.5,1.1300000000000001,3.4885640792393433,0.008726646185809844,0.019722220379930253,-0.0413,-0.013460000000000001,0.03062,0.1959216,-0.09163,9.773628200000001,31.030704208000003,121.443496291,16.355,351445.7280337784,3434045.080348112,189.64803377835779,265.67034811200574,0.0,0.0,0.0,0.0,-0.0,50,5,188
1676336669820.0,2023-02-14 09:04:29:879320,199.88,0.5,1.1300000000000001,3.4885640792393433,0.008726646185809844,0.019722220379930253,-0.014560000000000002,0.026320000000000003,0.00632,0.2097788,-0.08569120000000001,9.7926794,31.030704203000003,121.443496292,16.354,351445.72812146874,3434045.0797925503,189.64812146872282,265.6697925501503,0.0,0.0,0.0,0.0,-0.0,50,5,188
1676336669840.0,2023-02-14 09:04:29:899267,199.88,0.5,1.1300000000000001,3.4885640792393433,0.008726646185809844,0.019722220379930253,0.03576,0.02187,-0.01467,0.189385,-0.085995,9.7948942,31.030704204000003,121.443496291,16.354,351445.7280275676,3434045.0799047323,189.64802756760037,265.66990473214537,0.0,0.0,0.0,0.0,-0.0,50,5,188
1676336669860.0,2023-02-14 09:04:29:919308,199.88,0.5,1.1300000000000001,3.4885640792393433,0.008726646185809844,0.019722220379930253,-0.06535,0.004200000000000001,0.015700000000000002,0.2038792,-0.0850248,9.7896414,31.030704204000003,121.443496291,16.354,351445.7280275676,3434045.0799047323,189.64802756760037,265.66990473214537,0.0,0.0,0.0,0.0,-0.0,50,5,188
1676336669880.0,2023-02-14 09:04:29:939330,199.88,0.5,1.1300000000000001,3.4885640792393433,0.008726646185809844,0.019722220379930253,-0.010230000000000001,-0.03798,0.05825,0.1993712,-0.083153,9.7889456,31.030704205000003,121.443496291,16.354,351445.7280291203,3434045.080015578,189.64802912028972,265.67001557769254,0.0,0.0,0.0,0.0,-0.0,50,5,188
1676336669900.0,2023-02-14 09:04:29:959333,199.88,0.5,1.1300000000000001,3.4885640792393433,0.008726646185809844,0.019722220379930253,-0.02125,-0.037910000000000006,0.0189,0.2101414,-0.082467,9.790347,31.030704205000003,121.44349629000001,16.354,351445.72793366906,3434045.0800169148,189.64793366903905,265.6700169146061,0.0,0.0,0.0,0.0,-0.0,50,5,188
1676336669920.0,2023-02-14 09:04:29:979280,199.88,0.5,1.1300000000000001,3.4885640792393433,0.008726646185809844,0.019722220379930253,0.053270000000000005,-0.059370000000000006,-0.017480000000000002,0.19103140000000002,-0.0923258,9.785398,31.030704205000003,121.44349629000001,16.354,351445.72793366906,3434045.0800169148,189.64793366903905,265.6700169146061,0.0,0.0,0.0,0.0,-0.0,50,5,188
1676336669940.0,2023-02-14 09:04:29:999320,199.88,0.5,1.1300000000000001,3.4885640792393433,0.008726646185809844,0.019722220379930253,-0.049210000000000004,-0.00351,0.00957,0.1974406,-0.0954618,9.7786948,31.030704206000003,121.44349629000001,16.354,351445.7279352217,3434045.0801277594,189.6479352216702,265.67012775922194,0.0,0.0,0.0,0.0,-0.0,50,5,188
1676336669960.0,2023-02-14 09:04:30:019340,199.88,0.5,1.12,3.4885640792393433,0.008726646185809844,0.019547687456214054,-0.08171,-0.07566,-0.01955,0.21297359999999999,-0.0860342,9.7863976,31.030704206000003,121.44349628900001,16.355,351445.7278397704,3434045.080129097,189.64783977036132,265.6701290970668,0.0,0.0,0.0,0.0,-0.0,50,5,188
1676336669980.0,2023-02-14 09:04:30:039334,199.88,0.5,1.12,3.4885640792393433,0.008726646185809844,0.019547687456214054,-0.02082,-0.14062000000000002,0.00284,0.21618800000000002,-0.08409380000000001,9.7849178,31.030704206000003,121.44349628900001,16.355,351445.7278397704,3434045.080129097,189.64783977036132,265.6701290970668,0.0,0.0,0.0,0.0,-0.0,50,5,188
1676336670000.0,2023-02-14 09:04:30:059339,199.88,0.5,1.12,3.4885640792393433,0.008726646185809844,0.019547687456214054,-0.014090000000000002,-0.09749000000000001,-0.02493,0.19147240000000001,-0.0965104,9.7870836,31.030704206000003,121.44349628900001,16.355,351445.7278397704,3434045.080129097,189.64783977036132,265.6701290970668,0.0,0.0,0.0,0.0,-0.0,50,5,188
1676336670020.0,2023-02-14 09:04:30:079326,199.88,0.5,1.12,3.4885640792393433,0.008726646185809844,0.019547687456214054,-0.04372,-0.09746,0.01301,0.1719802,-0.08930740000000001,9.7916896,31.030704202000003,121.44349628900001,16.354,351445.72783355974,3434045.0796857164,189.6478335597203,265.6696857162751,0.0,0.0,0.0,0.0,-0.0,50,5,188
1676336670040.0,2023-02-14 09:04:30:099315,199.88,0.5,1.12,3.4885640792393433,0.008726646185809844,0.019547687456214054,0.006560000000000001,-0.07149000000000001,0.02195,0.15881879999999998,-0.0732746,9.803802400000002,31.030704200000002,121.44349629000001,16.354,351445.7279259057,3434045.07946269,189.6479259057087,265.6694626896642,0.0,0.0,0.0,0.0,-0.0,50,5,188
1676336670060.0,2023-02-14 09:04:30:119334,199.88,0.5,1.12,3.4885640792393433,0.008726646185809844,0.019547687456214054,-0.02663,-0.0261,0.08617000000000001,0.1434916,-0.08680840000000001,9.7878284,31.030704201000002,121.44349629000001,16.354,351445.72792745836,3434045.0795735344,189.64792745833984,265.66957353428006,0.0,0.0,0.0,0.0,-0.0,50,5,188
1676336670080.0,2023-02-14 09:04:30:139333,199.88,0.5,1.12,3.4885640792393433,0.008726646185809844,0.019547687456214054,-0.00504,0.00016,0.12608,0.1481662,-0.08492680000000001,9.7770974,31.030704202000003,121.44349628900001,16.354,351445.72783355974,3434045.0796857164,189.6478335597203,265.6696857162751,0.0,0.0,0.0,0.0,-0.0,50,5,188
1676336670100.0,2023-02-14 09:04:30:159266,199.88,0.5,1.12,3.4885640792393433,0.008726646185809844,0.019547687456214054,-0.029580000000000002,0.02196,0.07392,0.1698144,-0.08425060000000001,9.781076200000001,31.030704202000003,121.44349628900001,16.354,351445.72783355974,3434045.0796857164,189.6478335597203,265.6696857162751,0.0,0.0,0.0,0.0,-0.0,50,5,188
1676336670120.0,2023-02-14 09:04:30:179347,199.89,0.5,1.12,3.4887386121630595,0.008726646185809844,0.019547687456214054,0.0071400000000000005,0.0085,0.02525,0.18289740000000002,-0.0837802,9.791866,31.030704203000003,121.443496288,16.354,351445.7277396587,3434045.079797899,189.64773965865606,265.66979789873585,0.0,0.0,0.0,0.0,-0.0,50,5,188
1676336670140.0,2023-02-14 09:04:30:199343,199.88,0.5,1.12,3.4885640792393433,0.008726646185809844,0.019547687456214054,-0.014750000000000001,0.032220000000000006,-0.02349,0.142149,-0.09772560000000001,9.793639800000001,31.030704203000003,121.443496288,16.354,351445.7277396587,3434045.079797899,189.64773965865606,265.66979789873585,0.0,0.0,0.0,0.0,-0.0,50,5,188
1676336670160.0,2023-02-14 09:04:30:219315,199.88,0.5,1.12,3.4885640792393433,0.008726646185809844,0.019547687456214054,0.006670000000000001,0.11444000000000001,-0.025060000000000002,0.1482642,-0.10402700000000001,9.780429400000001,31.030704204000003,121.443496287,16.354,351445.72764576,3434045.0799100804,189.64764575997833,265.66991008026525,0.0,0.0,0.0,0.0,-0.0,50,5,188
1676336670180.0,2023-02-14 09:04:30:239315,199.88,0.5,1.12,3.4885640792393433,0.008726646185809844,0.019547687456214054,-0.03277,0.06858,-0.004260000000000001,0.25137980000000004,-0.0784196,9.7891024,31.030704205000003,121.443496287,16.354,351445.7276473126,3434045.0800209255,189.64764731260948,265.67002092534676,0.0,0.0,0.0,0.0,-0.0,50,5,188
1676336670200.0,2023-02-14 09:04:30:259334,199.88,0.5,1.12,3.4885640792393433,0.008726646185809844,0.019547687456214054,-0.04437000000000001,0.01974,0.00875,0.2596804,-0.1055558,9.7712076,31.030704205000003,121.44349628600001,16.354,351445.72755186143,3434045.0800222624,189.647551861417,265.6700222622603,0.0,0.0,0.0,0.0,-0.0,50,5,188
1676336670220.0,2023-02-14 09:04:30:279328,199.88,0.5,1.12,3.4885640792393433,0.008726646185809844,0.019547687456214054,0.03445,-0.06756000000000001,-0.030080000000000003,0.2423834,-0.10406620000000001,9.7835556,31.030704201000002,121.443496288,16.354,351445.7277365533,3434045.079576209,189.64773655327735,265.6695762090385,0.0,0.0,0.0,0.0,-0.0,50,5,188
1676336670240.0,2023-02-14 09:04:30:299335,199.88,0.5,1.12,3.4885640792393433,0.008726646185809844,0.019547687456214054,-0.009330000000000001,-0.01972,-0.04519,0.1856904,-0.0969808,9.8145824,31.030704202000003,121.443496288,16.354,351445.727738106,3434045.079687054,189.6477381059667,265.66968705365434,0.0,0.0,0.0,0.0,-0.0,50,5,188
1676336670260.0,2023-02-14 09:04:30:319333,199.88,0.5,1.12,3.4885640792393433,0.008726646185809844,0.019547687456214054,0.01067,0.031540000000000006,0.033260000000000005,0.235935,-0.0926492,9.7978636,31.030704202000003,121.443496287,16.354,351445.7276426547,3434045.0796883907,189.64764265465783,265.6696883905679,0.0,0.0,0.0,0.0,-0.0,50,5,188
1676336670280.0,2023-02-14 09:04:30:339355,199.88,0.5,1.12,3.4885640792393433,0.008726646185809844,0.019547687456214054,0.039540000000000006,-0.0032800000000000004,0.07249000000000001,0.183015,-0.08981700000000001,9.7616232,31.030704202000003,121.443496287,16.354,351445.7276426547,3434045.0796883907,189.64764265465783,265.6696883905679,0.0,0.0,0.0,0.0,-0.0,50,5,188
1676336670300.0,2023-02-14 09:04:30:359347,199.89,0.5,1.12,3.4887386121630595,0.008726646185809844,0.019547687456214054,-0.04990000000000001,-0.09379000000000001,0.06955,0.1399636,-0.091581,9.7845748,31.030704203000003,121.443496287,16.354,351445.7276442073,3434045.0797992363,189.64764420728898,265.66979923611507,0.0,0.0,0.0,0.0,-0.0,50,5,188
1676336670320.0,2023-02-14 09:04:30:379342,199.89,0.5,1.12,3.4887386121630595,0.008726646185809844,0.019547687456214054,-0.027600000000000003,-0.02117,0.09153000000000001,0.224616,-0.08543640000000001,9.8137102,31.030704203000003,121.443496287,16.354,351445.7276442073,3434045.0797992363,189.64764420728898,265.66979923611507,0.0,0.0,0.0,0.0,-0.0,50,5,188
1676336670340.0,2023-02-14 09:04:30:399335,199.89,0.5,1.12,3.4887386121630595,0.008726646185809844,0.019547687456214054,-0.047290000000000006,-0.05544,0.0017200000000000002,0.14749,-0.0758716,9.7938358,31.030704204000003,121.443496287,16.354,351445.72764576,3434045.0799100804,189.64764575997833,265.66991008026525,0.0,0.0,0.0,0.0,-0.0,50,5,188
1676336670360.0,2023-02-14 09:04:30:419336,199.89,0.5,1.12,3.4887386121630595,0.008726646185809844,0.019547687456214054,-0.006130000000000001,0.010910000000000001,-0.048260000000000004,0.1477056,-0.0612696,9.7544496,31.030704204000003,121.443496287,16.354,351445.72764576,3434045.0799100804,189.64764575997833,265.66991008026525,0.0,0.0,0.0,0.0,-0.0,50,5,188
1676336670380.0,2023-02-14 09:04:30:439342,199.89,0.5,1.12,3.4887386121630595,0.008726646185809844,0.019547687456214054,-0.01105,0.02917,-0.060250000000000005,0.1925994,-0.07211820000000001,9.7791652,31.030704205000003,121.44349628600001,16.354,351445.72755186143,3434045.0800222624,189.647551861417,265.6700222622603,0.0,0.0,0.0,0.0,-0.0,50,5,188
1676336670400.0,2023-02-14 09:04:30:459346,199.88,0.5,1.12,3.4885640792393433,0.008726646185809844,0.019547687456214054,0.03692,0.015280000000000002,-0.09624,0.16745259999999998,-0.060044600000000004,9.8283122,31.030704205000003,121.44349628600001,16.354,351445.72755186143,3434045.0800222624,189.647551861417,265.6700222622603,0.0,0.0,0.0,0.0,-0.0,50,5,188
1676336670420.0,2023-02-14 09:04:30:479322,199.88,0.5,1.12,3.4885640792393433,0.008726646185809844,0.019547687456214054,0.020120000000000002,0.012990000000000002,-0.04528,0.18914,-0.0770966,9.7842514,31.030704201000002,121.443496287,16.354,351445.72764110204,3434045.079577546,189.64764110202668,265.66957754595205,0.0,0.0,0.0,0.0,-0.0,50,5,188
1676336670440.0,2023-02-14 09:04:30:499372,199.88,0.5,1.12,3.4885640792393433,0.008726646185809844,0.019547687456214054,0.0010600000000000002,-0.030060000000000003,-0.005050000000000001,0.1929228,-0.0598388,9.7759508,31.030704202000003,121.443496287,16.354,351445.7276426547,3434045.0796883907,189.64764265465783,265.6696883905679,0.0,0.0,0.0,0.0,-0.0,50,5,188
1676336670460.0,2023-02-14 09:04:30:519334,199.88,0.5,1.12,3.4885640792393433,0.008726646185809844,0.019547687456214054,0.03393,-0.012020000000000001,-0.00391,0.2636298,-0.0735196,9.7952176,31.030704202000003,121.44349628600001,16.354,351445.7275472034,3434045.0796897286,189.64754720340716,265.6696897284128,0.0,0.0,0.0,0.0,-0.0,50,5,188
1676336670480.0,2023-02-14 09:04:30:539334,199.88,0.5,1.12,3.4885640792393433,0.008726646185809844,0.019547687456214054,0.019510000000000003,-0.06542,0.0026300000000000004,0.2595138,-0.07439180000000001,9.7620544,31.030704202000003,121.44349628600001,16.354,351445.7275472034,3434045.0796897286,189.64754720340716,265.6696897284128,0.0,0.0,0.0,0.0,-0.0,50,5,188
1676336670500.0,2023-02-14 09:04:30:559345,199.88,0.5,1.12,3.4885640792393433,0.008726646185809844,0.019547687456214054,0.014020000000000001,-0.05387,-0.01712,0.1836422,-0.08108520000000001,9.787701,31.030704203000003,121.44349628500001,16.354,351445.72745330236,3434045.07980191,189.6474533023429,265.6698019099422,0.0,0.0,0.0,0.0,-0.0,50,5,188
1676336670520.0,2023-02-14 09:04:30:579334,199.88,0.5,1.11,3.4885640792393433,0.008726646185809844,0.01937315453249786,-0.014640000000000002,-0.12439000000000001,0.03177,0.2662464,-0.109515,9.811181800000002,31.030704203000003,121.44349628500001,16.354,351445.72745330236,3434045.07980191,189.6474533023429,265.6698019099422,0.0,0.0,0.0,0.0,-0.0,50,5,188
1676336670540.0,2023-02-14 09:04:30:599341,199.88,0.5,1.11,3.4885640792393433,0.008726646185809844,0.01937315453249786,-0.06323000000000001,-0.19019000000000003,0.014220000000000002,0.19608820000000002,-0.1054578,9.784819800000001,31.030704203000003,121.443496284,16.354,351445.727357851,3434045.0798032465,189.64735785097582,265.6698032463901,0.0,0.0,0.0,0.0,-0.0,50,5,188
1676336670560.0,2023-02-14 09:04:30:619335,199.88,0.5,1.11,3.4885640792393433,0.008726646185809844,0.01937315453249786,-0.05791,-0.19973000000000002,0.07347000000000001,0.14302120000000001,-0.1046248,9.754822,31.030704203000003,121.443496284,16.354,351445.727357851,3434045.0798032465,189.64735785097582,265.6698032463901,0.0,0.0,0.0,0.0,-0.0,50,5,188
1676336670580.0,2023-02-14 09:04:30:639345,199.89,0.5,1.1,3.4887386121630595,0.008726646185809844,0.01919862160878166,-0.061070000000000006,-0.21450000000000002,0.08232,0.18283860000000002,-0.108976,9.7762252,31.030704203000003,121.443496284,16.354,351445.727357851,3434045.0798032465,189.64735785097582,265.6698032463901,0.0,0.0,0.0,0.0,-0.0,50,5,188
1676336670600.0,2023-02-14 09:04:30:659346,199.89,0.5,1.1,3.4887386121630595,0.008726646185809844,0.01919862160878166,-0.04365,-0.17441,0.06966,0.147588,-0.10754520000000001,9.800470400000002,31.030704204000003,121.443496283,16.354,351445.7272639524,3434045.079915429,189.6472639523563,265.6699154288508,0.0,0.0,0.0,0.0,-0.0,50,5,188
1676336670620.0,2023-02-14 09:04:30:679342,199.89,0.49,1.09,3.4887386121630595,0.008552113262093647,0.019024088685065464,-0.11989000000000001,-0.17759000000000003,0.06299,0.1791636,-0.1091426,9.7867014,31.030704199000002,121.44349628500001,16.354,351445.72744709166,3434045.07935853,189.6474470916437,265.6693585300818,0.0,0.0,0.0,0.0,-0.0,50,5,188
1676336670640.0,2023-02-14 09:04:30:699338,199.89,0.49,1.09,3.4887386121630595,0.008552113262093647,0.019024088685065464,-0.10288000000000001,-0.1342,0.06003000000000001,0.18327960000000001,-0.08180060000000001,9.7824482,31.030704200000002,121.44349628500001,16.354,351445.72744864435,3434045.0794693744,189.64744864433305,265.669469374232,0.0,0.0,0.0,0.0,-0.0,50,5,188
1676336670660.0,2023-02-14 09:04:30:719346,199.89,0.49,1.09,3.4887386121630595,0.008552113262093647,0.019024088685065464,-0.03234,-0.1748,0.014470000000000002,0.16867759999999998,-0.059642799999999996,9.8003038,31.030704200000002,121.443496284,16.354,351445.727353193,3434045.0794707127,189.64735319296597,265.66947071254253,0.0,0.0,0.0,0.0,-0.0,50,5,188
1676336670680.0,2023-02-14 09:04:30:739344,199.89,0.49,1.09,3.4887386121630595,0.008552113262093647,0.019024088685065464,-0.01805,-0.10475000000000001,-0.01519,0.1669332,-0.0221676,9.830017400000001,31.030704201000002,121.443496284,16.354,351445.72735474573,3434045.079581557,189.64735474571353,265.6695815566927,0.0,0.0,0.0,0.0,-0.0,50,5,188
1676336670700.0,2023-02-14 09:04:30:759345,199.89,0.49,1.09,3.4887386121630595,0.008552113262093647,0.019024088685065464,0.02874,-0.00593,-0.018600000000000002,0.0981568,-0.10505600000000001,9.7260688,31.030704202000003,121.443496283,16.354,351445.727260847,3434045.0796937393,189.6472608469776,265.66969373915344,0.0,0.0,0.0,0.0,-0.0,50,5,188
1676336670720.0,2023-02-14 09:04:30:779348,199.89,0.49,1.09,3.4887386121630595,0.008552113262093647,0.019024088685065464,-0.11442000000000001,0.045110000000000004,0.03538,0.22676220000000002,-0.1042034,9.804557,31.030704203000003,121.44349628200001,16.354,351445.7271669484,3434045.079805921,189.64716694835806,265.66980592068285,0.0,0.0,0.0,0.0,-0.0,50,5,188
1676336670740.0,2023-02-14 09:04:30:799342,199.89,0.49,1.09,3.4887386121630595,0.008552113262093647,0.019024088685065464,-0.05716,-0.020100000000000003,0.04236,0.2594452,-0.0375144,9.871491,31.030704203000003,121.44349628200001,16.355,351445.7271669484,3434045.079805921,189.64716694835806,265.66980592068285,0.0,0.0,0.0,0.0,-0.0,50,5,188
1676336670760.0,2023-02-14 09:04:30:819350,199.89,0.49,1.09,3.4887386121630595,0.008552113262093647,0.019024088685065464,-0.02415,-0.08103,0.00821,0.1685894,-0.013573,9.758203,31.030704204000003,121.44349628100001,16.355,351445.7270730473,3434045.079918103,189.64707304729382,265.6699181026779,0.0,0.0,0.0,0.0,-0.0,50,5,188
1676336670780.0,2023-02-14 09:04:30:839401,199.89,0.49,1.09,3.4887386121630595,0.008552113262093647,0.019024088685065464,0.021630000000000003,0.05408,-0.049920000000000006,0.1553202,-0.1131704,9.701755,31.030704204000003,121.44349628,16.355,351445.72697759594,3434045.07991944,189.64697759592673,265.66991944005713,0.0,0.0,0.0,0.0,-0.0,50,5,188
1676336670800.0,2023-02-14 09:04:30:859342,199.89,0.49,1.09,3.4887386121630595,0.008552113262093647,0.019024088685065464,-0.0054600000000000004,0.11534000000000001,-0.00142,0.20725040000000003,-0.0726572,9.8404838,31.030704205000003,121.443496279,16.355,351445.726883695,3434045.0800316213,189.6468836949789,265.67003162112087,0.0,0.0,0.0,0.0,-0.0,50,5,188
1676336670820.0,2023-02-14 09:04:30:879337,199.89,0.49,1.09,3.4887386121630595,0.008552113262093647,0.019024088685065464,-0.026840000000000003,0.05888,-0.038250000000000006,0.145481,-0.0581532,9.848265,31.030704200000002,121.44349628200001,16.354,351445.72716229036,3434045.0794733865,189.6471622903482,265.66947338636965,0.0,0.0,0.0,0.0,-0.0,50,5,188
1676336670840.0,2023-02-14 09:04:30:899342,199.89,0.49,1.09,3.4887386121630595,0.008552113262093647,0.019024088685065464,0.04225,0.042890000000000005,0.07254000000000001,0.1301146,-0.08977779999999999,9.7268038,31.030704200000002,121.44349628100001,16.354,351445.72706683667,3434045.079474724,189.6470668366528,265.66947472374886,0.0,0.0,0.0,0.0,-0.0,50,5,188
1676336670860.0,2023-02-14 09:04:30:919341,199.89,0.49,1.09,3.4887386121630595,0.008552113262093647,0.019024088685065464,0.027920000000000004,0.15385000000000001,0.11783,0.107359,-0.078547,9.7583696,31.030704201000002,121.44349628,16.354,351445.726972938,3434045.079586905,189.64697293797508,265.6695869048126,0.0,0.0,0.0,0.0,-0.0,50,5,188
1676336670880.0,2023-02-14 09:04:30:939359,199.89,0.49,1.1,3.4887386121630595,0.008552113262093647,0.01919862160878166,0.05863,0.15725,0.11844,0.21392419999999998,-0.0746074,9.827146,31.030704202000003,121.443496279,16.355,351445.726879037,3434045.0796990884,189.64687903696904,265.66969908820465,0.0,0.0,0.0,0.0,-0.0,50,5,188
1676336670900.0,2023-02-14 09:04:30:959340,199.89,0.49,1.1,3.4887386121630595,0.008552113262093647,0.01919862160878166,0.12039000000000001,0.12960000000000002,-0.07146000000000001,0.2667168,-0.0789488,9.7996178,31.030704203000003,121.44349627800001,16.355,351445.72678513837,3434045.0798112694,189.64678513834951,265.6698112692684,0.0,0.0,0.0,0.0,-0.0,50,5,188
1676336670920.0,2023-02-14 09:04:30:979367,199.89,0.5,1.1,3.4887386121630595,0.008726646185809844,0.01919862160878166,0.12168000000000001,0.17704,-0.19160000000000002,0.2396394,-0.07908599999999999,9.768003,31.030704203000003,121.443496276,16.355,351445.7265942333,3434045.0798139432,189.64659423328703,265.6698139430955,0.0,0.0,0.0,0.0,-0.0,50,5,188
1676336670940.0,2023-02-14 09:04:30:999367,199.88,0.5,1.1,3.4885640792393433,0.008726646185809844,0.01919862160878166,0.007470000000000001,0.06099,-0.22522000000000003,0.2291044,-0.0797132,9.796129,31.030704204000003,121.443496275,16.355,351445.7265003347,3434045.0799261252,189.6465003346675,265.66992612509057,0.0,0.0,0.0,0.0,-0.0,50,5,188
1676336670960.0,2023-02-14 09:04:31:019367,199.88,0.5,1.11,3.4885640792393433,0.008726646185809844,0.01937315453249786,0.0273,0.0063100000000000005,-0.16029000000000002,0.1412866,-0.0893956,9.8144158,31.030704204000003,121.44349627400001,16.355,351445.7264048833,3434045.079927462,189.64640488330042,265.6699274620041,0.0,0.0,0.0,0.0,-0.0,50,5,188
1676336670980.0,2023-02-14 09:04:31:039361,199.88,0.5,1.11,3.4885640792393433,0.008726646185809844,0.01937315453249786,0.055490000000000005,0.11972000000000001,0.04698,0.1311142,-0.109858,9.7804686,31.030704205000003,121.44349627300001,16.355,351445.7263109847,3434045.0800396446,189.6463109846809,265.67003964446485,0.0,0.0,0.0,0.0,-0.0,50,5,188
1676336671000.0,2023-02-14 09:04:31:059341,199.89,0.5,1.11,3.4887386121630595,0.008726646185809844,0.01937315453249786,0.01848,0.13307000000000002,0.19349000000000002,0.1932462,-0.1045562,9.759918,31.030704206000003,121.443496272,16.355,351445.72621708363,3434045.080151826,189.64621708361665,265.67015182599425,0.0,0.0,0.0,0.0,-0.0,50,5,188
1676336671020.0,2023-02-14 09:04:31:079344,199.89,0.5,1.11,3.4887386121630595,0.008726646185809844,0.01937315453249786,0.05761,0.12661,0.16306,0.2406586,-0.0745388,9.7862016,31.030704201000002,121.443496276,16.355,351445.7265911279,3434045.0795922535,189.64659112790832,265.66959225339815,0.0,0.0,0.0,0.0,-0.0,50,5,188
1676336671040.0,2023-02-14 09:04:31:099351,199.89,0.5,1.11,3.4887386121630595,0.008726646185809844,0.01937315453249786,0.0941,0.041920000000000006,0.09504000000000001,0.26509,-0.10066560000000001,9.7999902,31.030704199000002,121.44349627700001,16.355,351445.72668347636,3434045.079369227,189.64668347634142,265.66936922678724,0.0,0.0,0.0,0.0,-0.0,50,5,188
1676336671060.0,2023-02-14 09:04:31:119349,199.89,0.5,1.11,3.4887386121630595,0.008726646185809844,0.01937315453249786,0.09749000000000001,0.021740000000000002,-0.07234,0.22545880000000001,-0.1260476,9.7928754,31.030704199000002,121.443496276,16.355,351445.72658802266,3434045.079370565,189.64658802264603,265.6693705646321,0.0,0.0,0.0,0.0,-0.0,50,5,188
1676336671080.0,2023-02-14 09:04:31:139346,199.89,0.5,1.11,3.4887386121630595,0.008726646185809844,0.01937315453249786,0.06881000000000001,0.03771,-0.11444000000000001,0.1264788,-0.11221,9.7834968,31.030704200000002,121.443496276,16.355,351445.7265895753,3434045.079481409,189.64658957527718,265.6694814087823,0.0,0.0,0.0,0.0,-0.0,50,5,188
1676336671100.0,2023-02-14 09:04:31:159354,199.89,0.51,1.12,3.4887386121630595,0.008901179109526041,0.019547687456214054,0.01767,0.03928,-0.06999000000000001,0.11591440000000001,-0.0873278,9.7770876,31.030704200000002,121.443496275,16.355,351445.7264941239,3434045.079482746,189.6464941239101,265.66948274569586,0.0,0.0,0.0,0.0,-0.0,50,5,188
1676336671120.0,2023-02-14 09:04:31:179350,199.89,0.51,1.12,3.4887386121630595,0.008901179109526041,0.019547687456214054,0.0531,0.08177000000000001,0.037660000000000006,0.1253518,-0.089327,9.7761762,31.030704201000002,121.44349627400001,16.355,351445.7264002253,3434045.0795949283,189.64640022529056,265.6695949281566,0.0,0.0,0.0,0.0,-0.0,50,5,188
1676336671140.0,2023-02-14 09:04:31:199367,199.89,0.51,1.12,3.4887386121630595,0.008901179109526041,0.019547687456214054,0.07189000000000001,0.09565000000000001,0.06096000000000001,0.1269884,-0.0975296,9.796472,31.030704202000003,121.44349627300001,16.355,351445.7263063267,3434045.0797071094,189.64630632667104,265.6697071092203,0.0,0.0,0.0,0.0,-0.0,50,5,188
1676336671160.0,2023-02-14 09:04:31:219380,199.89,0.51,1.12,3.4887386121630595,0.008901179109526041,0.019547687456214054,0.047270000000000006,0.18628000000000003,0.03232,0.193403,-0.0920808,9.807742,31.030704203000003,121.443496272,16.355,351445.7262124256,3434045.079819292,189.6462124256068,265.66981929168105,0.0,0.0,0.0,0.0,-0.0,50,5,188
1676336671180.0,2023-02-14 09:04:31:239363,199.89,0.51,1.1300000000000001,3.4887386121630595,0.008901179109526041,0.019722220379930253,0.0297,0.13360000000000002,-0.01882,0.2550058,-0.08441720000000001,9.7894748,31.030704205000003,121.443496272,16.355,351445.726215531,3434045.0800409806,189.6462155309855,265.6700409804471,0.0,0.0,0.0,0.0,-0.0,50,5,188
1676336671200.0,2023-02-14 09:04:31:259377,199.89,0.51,1.1300000000000001,3.4887386121630595,0.008901179109526041,0.019722220379930253,0.00795,0.04164,-0.05596,0.2713522,-0.0706874,9.770894,31.030704205000003,121.443496271,16.355,351445.72612007963,3434045.0800423175,189.6461200796184,265.67004231736064,0.0,0.0,0.0,0.0,-0.0,50,5,188
1676336671220.0,2023-02-14 09:04:31:279350,199.88,0.51,1.1300000000000001,3.4885640792393433,0.008901179109526041,0.019722220379930253,0.024310000000000002,-0.030500000000000003,-0.11298000000000001,0.23241679999999998,-0.0730002,9.7776462,31.030704201000002,121.44349628,16.355,351445.726972938,3434045.079586905,189.64697293797508,265.6695869048126,0.0,0.0,0.0,0.0,-0.0,50,5,188
1676336671240.0,2023-02-14 09:04:31:299373,199.88,0.51,1.1300000000000001,3.4885640792393433,0.008901179109526041,0.019722220379930253,0.09951,-0.00894,-0.060160000000000005,0.1885324,-0.07955640000000001,9.8066738,31.030704201000002,121.44349628,16.355,351445.726972938,3434045.079586905,189.64697293797508,265.6695869048126,0.0,0.0,0.0,0.0,-0.0,50,5,188
1676336671260.0,2023-02-14 09:04:31:319379,199.88,0.51,1.1300000000000001,3.4885640792393433,0.008901179109526041,0.019722220379930253,0.04454,-0.06144000000000001,0.005620000000000001,0.19083540000000002,-0.0864458,9.7973344,31.030704202000003,121.443496279,16.355,351445.726879037,3434045.0796990884,189.64687903696904,265.66969908820465,0.0,0.0,0.0,0.0,-0.0,50,5,188
1676336671280.0,2023-02-14 09:04:31:339366,199.88,0.51,1.1300000000000001,3.4885640792393433,0.008901179109526041,0.019722220379930253,0.013920000000000002,0.03045,0.0522,0.16894220000000001,-0.0533218,9.790249,31.030704202000003,121.44349627800001,16.355,351445.7267835857,3434045.0797004243,189.64678358566016,265.6697004241869,0.0,0.0,0.0,0.0,-0.0,50,5,188
1676336671300.0,2023-02-14 09:04:31:359362,199.88,0.51,1.1300000000000001,3.4885640792393433,0.008901179109526041,0.019722220379930253,0.032240000000000005,-0.01804,0.027840000000000004,0.2543786,-0.051793,9.7757352,31.030704202000003,121.44349627800001,16.355,351445.7267835857,3434045.0797004243,189.64678358566016,265.6697004241869,0.0,0.0,0.0,0.0,-0.0,50,5,188
1676336671320.0,2023-02-14 09:04:31:379362,199.88,0.51,1.12,3.4885640792393433,0.008901179109526041,0.019547687456214054,0.03685,-0.15846000000000002,-0.08057,0.3414026,-0.0364462,9.7524406,31.030704203000003,121.44349627700001,16.355,351445.726689687,3434045.0798126063,189.64668968698243,265.66981260618195,0.0,0.0,0.0,0.0,-0.0,50,5,188
1676336671340.0,2023-02-14 09:04:31:399375,199.88,0.51,1.12,3.4885640792393433,0.008901179109526041,0.019547687456214054,-0.03373,-0.27182,-0.20641,0.170324,-0.058104199999999995,9.7733832,31.030704202000003,121.443496276,16.355,351445.7265926807,3434045.0797030986,189.64659268065589,265.66970309847966,0.0,0.0,0.0,0.0,-0.0,50,5,188
1676336671360.0,2023-02-14 09:04:31:419344,199.87,0.51,1.11,3.4883895463156276,0.008901179109526041,0.01937315453249786,-0.07382000000000001,-0.16411,-0.23247,0.1438738,-0.0696388,9.83283,31.030704202000003,121.443496275,16.355,351445.7264972293,3434045.0797044355,189.6464972292888,265.6697044353932,0.0,0.0,0.0,0.0,-0.0,50,5,188
1676336671380.0,2023-02-14 09:04:31:439376,199.87,0.51,1.11,3.4883895463156276,0.008901179109526041,0.01937315453249786,-0.040810000000000006,-0.09338,-0.1449,0.0635432,-0.0388472,9.811916799999999,31.030704202000003,121.44349627400001,16.355,351445.726401778,3434045.079705773,189.64640177797992,265.66970577277243,0.0,0.0,0.0,0.0,-0.0,50,5,188
1676336671400.0,2023-02-14 09:04:31:459359,199.87,0.51,1.11,3.4883895463156276,0.008901179109526041,0.01937315453249786,-0.06731000000000001,-0.011420000000000001,0.07138,0.0615734,-0.032977,9.7440224,31.030704203000003,121.443496272,16.355,351445.7262124256,3434045.079819292,189.6462124256068,265.66981929168105,0.0,0.0,0.0,0.0,-0.0,50,5,188
1676336671420.0,2023-02-14 09:04:31:479375,199.88,0.51,1.11,3.4885640792393433,0.008901179109526041,0.01937315453249786,-0.033710000000000004,0.007580000000000001,0.22979000000000002,0.15788780000000002,-0.0633276,9.755655,31.030704197000002,121.443496283,16.354,351445.7272530837,3434045.0791395144,189.64725308370544,265.66913951421157,0.0,0.0,0.0,0.0,-0.0,50,5,188
1676336671440.0,2023-02-14 09:04:31:499375,199.88,0.51,1.11,3.4885640792393433,0.008901179109526041,0.01937315453249786,0.006450000000000001,-0.00593,0.22611,0.215355,-0.0687078,9.8176498,31.030704198000002,121.44349628200001,16.354,351445.7271591851,3434045.079251697,189.6471591850859,265.6692516966723,-0.01,0.0,0.0,-0.0034005127912776255,0.009404068946810059,50,5,188
1676336671460.0,2023-02-14 09:04:31:519374,199.88,0.51,1.11,3.4885640792393433,0.008901179109526041,0.01937315453249786,-0.09111000000000001,-0.14183,0.07913,0.3011736,-0.08425060000000001,9.7911506,31.030704198000002,121.44349628100001,16.354,351445.7270637313,3434045.0792530337,189.6470637312741,265.66925303358585,0.0,0.0,0.0,0.0,-0.0,50,5,188
1676336671480.0,2023-02-14 09:04:31:539388,199.88,0.51,1.1,3.4885640792393433,0.008901179109526041,0.01919862160878166,-0.06737,-0.22468000000000002,-0.08969,0.30625,-0.0981078,9.7336246,31.030704198000002,121.443496279,16.354,351445.7268728263,3434045.0792557076,189.64687282626983,265.66925570741296,0.0,0.0,0.0,0.0,-0.0,50,5,188
1676336671500.0,2023-02-14 09:04:31:559382,199.88,0.51,1.1,3.4885640792393433,0.008901179109526041,0.01919862160878166,-0.05324,-0.30753,-0.12628,0.2723126,-0.0879746,9.8034104,31.030704198000002,121.44349627700001,16.354,351445.72668192367,3434045.0792583814,189.64668192365207,265.66925838124007,0.0,0.0,0.0,0.0,-0.0,50,5,188
1676336671520.0,2023-02-14 09:04:31:579354,199.87,0.51,1.09,3.4883895463156276,0.008901179109526041,0.019024088685065464,0.06996000000000001,-0.19376000000000002,-0.25079,0.1609846,-0.1488032,9.8816928,31.030704197000002,121.443496276,16.354,351445.7265849173,3434045.079148874,189.64658491726732,265.66914887400344,0.0,0.0,0.0,0.0,-0.0,50,5,188
1676336671540.0,2023-02-14 09:04:31:599365,199.87,0.51,1.1,3.4883895463156276,0.008901179109526041,0.01919862160878166,0.12946000000000002,0.10858000000000001,-0.14720000000000003,-0.026215000000000002,-0.1935304,9.8739998,31.030704197000002,121.44349627400001,16.355,351445.72639401467,3434045.079151548,189.64639401464956,265.66915154783055,0.0,0.0,0.0,0.0,-0.0,50,5,188
1676336671560.0,2023-02-14 09:04:31:619357,199.87,0.51,1.11,3.4883895463156276,0.008901179109526041,0.01937315453249786,0.12178000000000001,0.47218000000000004,0.03898,-0.0570458,-0.2294768,9.7924148,31.030704198000002,121.44349627300001,16.355,351445.72630011605,3434045.07926373,189.64630011603003,265.6692637298256,0.0,0.0,0.0,0.0,-0.0,50,5,188
1676336671580.0,2023-02-14 09:04:31:639359,199.88,0.51,1.12,3.4885640792393433,0.008901179109526041,0.019547687456214054,0.09996000000000001,0.61899,0.31185,0.0726768,-0.2374736,9.7425426,31.030704200000002,121.443496272,16.355,351445.7262077676,3434045.0794867566,189.64620776759693,265.6694867564365,0.0,0.01,0.0,-0.009404068946810059,-0.0034005127912776255,50,5,188
1676336671600.0,2023-02-14 09:04:31:659350,199.89,0.52,1.1300000000000001,3.4887386121630595,0.009075712033242238,0.019722220379930253,0.06528,0.45429,0.3607,0.2277618,-0.20579999999999998,9.7183072,31.030704202000003,121.443496272,16.355,351445.726210873,3434045.0797084463,189.64621087297564,265.6697084461339,0.0,0.01,0.0,-0.009403475302141319,-0.0034021540591246376,50,5,188
1676336671620.0,2023-02-14 09:04:31:679360,199.89,0.52,1.1300000000000001,3.4887386121630595,0.009075712033242238,0.019722220379930253,-0.010220000000000002,0.16754000000000002,0.22114000000000003,0.2904132,-0.1392384,9.7604374,31.030704195000002,121.44349627800001,16.354,351445.72677271697,3434045.078924509,189.6467727169511,265.668924509082,0.0,0.01,0.0,-0.009403475302141319,-0.0034021540591246376,50,5,188
1676336671640.0,2023-02-14 09:04:31:699380,199.89,0.51,1.1300000000000001,3.4887386121630595,0.008901179109526041,0.019722220379930253,-0.06389,0.014070000000000001,-0.047060000000000005,0.2853662,-0.09873499999999999,9.786711200000001,31.030704197000002,121.44349627800001,16.354,351445.72677582235,3434045.0791461994,189.6467758223298,265.669146199245,0.0,0.0,0.0,0.0,-0.0,50,5,188
1676336671660.0,2023-02-14 09:04:31:719351,199.88,0.51,1.1300000000000001,3.4885640792393433,0.008901179109526041,0.019722220379930253,-0.12031000000000001,-0.01442,-0.31304000000000004,0.275282,-0.0540862,9.7462666,31.030704198000002,121.44349627800001,16.354,351445.726777375,3434045.0792570445,189.64677737496095,265.6692570443265,0.0,0.0,0.0,0.0,-0.0,50,5,188
1676336671680.0,2023-02-14 09:04:31:739375,199.87,0.51,1.1300000000000001,3.4883895463156276,0.008901179109526041,0.019722220379930253,-0.12856,-0.09242,-0.40402000000000005,0.3035158,0.0316834,9.7099772,31.030704199000002,121.44349627800001,16.354,351445.72677892767,3434045.079367889,189.6467789276503,265.66936788894236,0.0,0.0,0.0,0.0,-0.0,50,5,188
1676336671700.0,2023-02-14 09:04:31:759359,199.87,0.51,1.1300000000000001,3.4883895463156276,0.008901179109526041,0.019722220379930253,-0.11539,-0.1882,-0.30260000000000004,0.27515459999999997,-0.002401,9.7988926,31.030704200000002,121.44349627800001,16.354,351445.72678048036,3434045.079478734,189.64678048033966,265.66947873402387,0.0,0.0,0.0,0.0,-0.0,50,5,188
1676336671720.0,2023-02-14 09:04:31:779362,199.87,0.5,1.12,3.4883895463156276,0.008726646185809844,0.019547687456214054,-0.18353000000000003,-0.45567,0.09157000000000001,0.3046722,-0.13818,9.7927284,31.030704200000002,121.44349627800001,16.354,351445.72678048036,3434045.079478734,189.64678048033966,265.66947873402387,0.0,0.0,0.0,0.0,-0.0,50,5,188
1676336671740.0,2023-02-14 09:04:31:799374,199.88,0.5,1.11,3.4885640792393433,0.008726646185809844,0.01937315453249786,-0.12419000000000001,-0.58104,0.45995,0.1661002,-0.005096,9.8490784,31.030704200000002,121.44349627800001,16.354,351445.72678048036,3434045.079478734,189.64678048033966,265.66947873402387,0.0,0.0,0.0,0.0,-0.0,50,5,188
1676336671760.0,2023-02-14 09:04:31:819363,199.89,0.5,1.1,3.4887386121630595,0.008726646185809844,0.01919862160878166,0.02346,-0.22158000000000003,0.629,0.22937880000000002,0.0465794,9.859035200000001,31.030704200000002,121.44349627800001,16.354,351445.72678048036,3434045.079478734,189.64678048033966,265.66947873402387,0.0,0.0,0.0,0.0,-0.0,50,5,188
1676336671780.0,2023-02-14 09:04:31:839380,199.9,0.5,1.1,3.488913145086776,0.008726646185809844,0.01919862160878166,0.04966,-0.14032,0.48186000000000007,0.2139732,-0.03773,9.8057232,31.030704199000002,121.44349627700001,16.354,351445.72668347636,3434045.079369227,189.64668347634142,265.66936922678724,0.0,0.0,0.0,0.0,-0.0,50,5,188
1676336671800.0,2023-02-14 09:04:31:859375,199.9,0.51,1.1,3.488913145086776,0.008901179109526041,0.01919862160878166,0.09188,-0.00158,0.17499,0.11462080000000001,-0.0850248,9.7972952,31.030704199000002,121.443496276,16.354,351445.72658802266,3434045.079370565,189.64658802264603,265.6693705646321,0.0,0.0,0.0,0.0,-0.0,50,5,188
1676336671820.0,2023-02-14 09:04:31:879384,199.9,0.5,1.1,3.488913145086776,0.008726646185809844,0.01919862160878166,-0.03941,0.02347,-0.07706,0.15191960000000002,-0.0934822,9.7976774,31.030704195000002,121.44349628900001,16.354,351445.7278226911,3434045.0789098023,189.64782269106945,265.66890980210155,0.0,0.0,0.0,0.0,-0.0,50,5,188
1676336671840.0,2023-02-14 09:04:31:899362,199.9,0.5,1.1,3.488913145086776,0.008726646185809844,0.01919862160878166,-0.021630000000000003,-0.06949000000000001,-0.25555,0.0097412,-0.0047432,9.8003724,31.030704195000002,121.443496288,16.354,351445.72772723733,3434045.078911139,189.64772723731585,265.6689111390151,0.0,0.0,0.0,0.0,-0.0,50,5,188
1676336671860.0,2023-02-14 09:04:31:919377,199.89,0.5,1.1,3.4887386121630595,0.008726646185809844,0.01919862160878166,0.0062900000000000005,0.06080000000000001,-0.33234,-0.11804100000000001,-0.0842604,9.7428758,31.030704196000002,121.44349628600001,16.355,351445.7275378874,3434045.0790246585,189.64753788738744,265.6690246583894,0.0,0.0,0.0,0.0,-0.0,50,5,188
1676336671880.0,2023-02-14 09:04:31:939375,199.89,0.5,1.11,3.4887386121630595,0.008726646185809844,0.01937315453249786,-0.01088,0.36232000000000003,-0.18276,-0.036397200000000005,-0.1583582,9.7633676,31.030704197000002,121.44349628500001,16.355,351445.72744398634,3434045.0791368405,189.6474439863232,265.66913684038445,0.0,0.01,0.0,-0.009403475302141319,-0.0034021540591246376,50,5,188
1676336671900.0,2023-02-14 09:04:31:959375,199.89,0.5,1.11,3.4887386121630595,0.008726646185809844,0.01937315453249786,-0.03486,0.41472000000000003,-0.06346,0.0919338,-0.13924820000000002,9.8108094,31.030704199000002,121.443496283,16.355,351445.72725618904,3434045.0793612045,189.64725618902594,265.6693612043746,0.0,0.01,0.0,-0.009403475302141319,-0.0034021540591246376,50,5,188
1676336671920.0,2023-02-14 09:04:31:979359,199.89,0.5,1.12,3.4887386121630595,0.008726646185809844,0.019547687456214054,-0.05442,0.37837000000000004,0.01025,0.31878419999999996,-0.1014398,9.780106,31.030704201000002,121.44349628100001,16.355,351445.72706838936,3434045.079585568,189.64706838934217,265.66958556789905,0.0,0.01,0.0,-0.009403475302141319,-0.0034021540591246376,50,5,188
1676336671940.0,2023-02-14 09:04:31:999400,199.89,0.5,1.1300000000000001,3.4887386121630595,0.008726646185809844,0.019722220379930253,-0.025320000000000002,0.26919000000000004,-0.03164,0.46483359999999996,-0.11167099999999999,9.741592,31.030704203000003,121.44349628,16.355,351445.7269760433,3434045.0798085947,189.64697604329558,265.66980859450996,0.0,0.0,0.0,0.0,-0.0,50,5,188
1676336671960.0,2023-02-14 09:04:32:019378,199.88,0.5,1.1300000000000001,3.4885640792393433,0.008726646185809844,0.019722220379930253,0.033440000000000004,-0.0071600000000000006,-0.05478,0.4471152,-0.1367786,9.782115,31.030704204000003,121.443496279,16.355,351445.72688214225,3434045.079920777,189.64688214223133,265.6699207769707,0.0,0.0,0.0,0.0,-0.0,50,5,188
1676336671980.0,2023-02-14 09:04:32:039389,199.88,0.5,1.12,3.4885640792393433,0.008726646185809844,0.019547687456214054,-0.053410000000000006,-0.23094,-0.03819,0.4164412,-0.1250578,9.8163268,31.030704204000003,121.443496279,16.355,351445.72688214225,3434045.079920777,189.64688214223133,265.6699207769707,0.0,0.0,0.0,0.0,-0.0,50,5,188
1676336672000.0,2023-02-14 09:04:32:059391,199.88,0.5,1.12,3.4885640792393433,0.008726646185809844,0.019547687456214054,-0.01169,-0.22341000000000003,0.044640000000000006,0.2918636,-0.0804874,9.7904254,31.030704204000003,121.443496279,16.355,351445.72688214225,3434045.079920777,189.64688214223133,265.6699207769707,0.0,0.0,0.0,0.0,-0.0,50,5,188
1676336672020.0,2023-02-14 09:04:32:079366,199.89,0.5,1.11,3.4887386121630595,0.008726646185809844,0.01937315453249786,-0.04832,-0.26224000000000003,0.15618,0.1691676,-0.0637294,9.7631912,31.030704201000002,121.443496284,16.354,351445.72735474573,3434045.079581557,189.64735474571353,265.6695815566927,0.0,0.0,0.0,0.0,-0.0,50,5,188
1676336672040.0,2023-02-14 09:04:32:099378,199.89,0.5,1.11,3.4887386121630595,0.008726646185809844,0.01937315453249786,0.004410000000000001,-0.23523000000000002,0.25039,0.1232644,-0.06958,9.7852412,31.030704201000002,121.443496284,16.354,351445.72735474573,3434045.079581557,189.64735474571353,265.6695815566927,0.0,0.0,0.0,0.0,-0.0,50,5,188
1676336672060.0,2023-02-14 09:04:32:119382,199.9,0.5,1.1,3.488913145086776,0.008726646185809844,0.01919862160878166,0.040060000000000005,-0.20355,0.31044000000000005,0.0727454,-0.07904680000000001,9.8057428,31.030704200000002,121.443496284,16.354,351445.727353193,3434045.0794707127,189.64735319296597,265.66947071254253,0.0,0.0,0.0,0.0,-0.0,50,5,188
1676336672080.0,2023-02-14 09:04:32:139382,199.9,0.5,1.1,3.488913145086776,0.008726646185809844,0.01919862160878166,-0.02798,-0.10428000000000001,0.15745,0.0718242,-0.0783804,9.8000294,31.030704201000002,121.443496283,16.354,351445.72725929436,3434045.0795828938,189.64725929434644,265.6695828936063,0.0,0.0,0.0,0.0,-0.0,50,5,188
1676336672100.0,2023-02-14 09:04:32:159376,199.9,0.5,1.1,3.488913145086776,0.008726646185809844,0.01919862160878166,0.02943,0.015410000000000002,-0.02636,0.0542626,-0.026352200000000003,9.7549984,31.030704202000003,121.44349628200001,16.354,351445.72716539574,3434045.079695076,189.64716539572692,265.669695076067,0.0,0.0,0.0,0.0,-0.0,50,5,188
1676336672120.0,2023-02-14 09:04:32:179373,199.9,0.5,1.11,3.488913145086776,0.008726646185809844,0.01937315453249786,-0.14501,0.10955000000000001,-0.18282,0.0480494,0.211876,9.7394654,31.030704202000003,121.44349628100001,16.354,351445.727069942,3434045.0796964136,189.6470699419733,265.6696964134462,-0.01,0.0,0.0,-0.0034037952233361164,0.009402881371026343,50,5,188
1676336672140.0,2023-02-14 09:04:32:199377,199.89,0.5,1.11,3.4887386121630595,0.008726646185809844,0.01937315453249786,-0.12229000000000001,0.14769000000000002,-0.21175000000000002,0.148323,0.33520900000000003,9.8609658,31.030704203000003,121.443496279,16.355,351445.7268805896,3434045.0798099325,189.6468805896002,265.66980993235484,-0.02,0.0,0.0,-0.006804308118249275,0.018806950604282637,50,5,188
1676336672160.0,2023-02-14 09:04:32:219389,199.89,0.5,1.11,3.4887386121630595,0.008726646185809844,0.01937315453249786,0.16875,0.06469000000000001,-0.25613,0.2379832,0.0540764,9.827449800000002,31.030704203000003,121.443496276,16.355,351445.7265942333,3434045.0798139432,189.64659423328703,265.6698139430955,-0.02,0.0,0.0,-0.006804308118249275,0.018806950604282637,50,5,188
1676336672180.0,2023-02-14 09:04:32:239393,199.88,0.5,1.11,3.4885640792393433,0.008726646185809844,0.01937315453249786,0.22901000000000002,0.09321,-0.25309000000000004,0.2745764,-0.065611,9.6589584,31.030704203000003,121.443496272,16.355,351445.7262124256,3434045.079819292,189.6462124256068,265.66981929168105,-0.02,0.0,0.0,-0.006801025582555251,0.018808137893620118,50,5,188
1676336672200.0,2023-02-14 09:04:32:259378,199.88,0.51,1.11,3.4885640792393433,0.008901179109526041,0.01937315453249786,0.03839,0.08894,-0.13736,0.2618168,-0.030311400000000002,9.789768800000001,31.030704203000003,121.44349626700001,16.355,351445.7257351667,3434045.0798259764,189.64573516667588,265.66982597624883,-0.02,0.0,0.0,-0.006801025582555251,0.018808137893620118,50,5,188
