gps_time,utc_time,heading,pitch,roll,heading_radians,pitch_radians,roll_radians,gyroX,gyroY,gyroZ,accX,accY,accZ,latitude,longitude,altitude,utm_x_position,utm_y_position,local_x,local_y,east_speed,north_speed,vertical_speed,vehicle_lat_speed,vehicle_lon_speed,position_type,GNSS_info1,GNSS_info2
1675214341810.0,2023-02-01 09:19:01:844802,202.51,-0.35000000000000003,-0.7000000000000001,3.5344662381767034,-0.006108652330066892,-0.012217304660133784,0.011200000000000002,-0.05629000000000001,-0.012770000000000002,-0.13547520000000002,0.161259,9.8065954,31.030669330000002,121.44343346900001,16.1,351439.6773868562,3434041.298295675,183.59738685615594,261.88829567469656,0.0,-0.01,0.0,0.009238127390807701,0.003828446461844347,50,5,188
1675214341830.0,2023-02-01 09:19:01:864470,202.51,-0.35000000000000003,-0.71,3.5344662381767034,-0.006108652330066892,-0.01239183758384998,-0.012910000000000001,-0.06896000000000001,-0.027600000000000003,-0.1357496,0.1846026,9.784712,31.030669328000002,121.44343346800001,16.1,351439.6772882993,3434041.298075322,183.59728829929372,261.88807532191277,0.0,-0.01,0.0,0.009238127390807701,0.003828446461844347,50,5,188
1675214341850.0,2023-02-01 09:19:01:884426,202.51,-0.35000000000000003,-0.71,3.5344662381767034,-0.006108652330066892,-0.01239183758384998,-0.06272000000000001,-0.025920000000000002,-0.044360000000000004,-0.1381996,0.1918448,9.773275400000001,31.030669326,121.443433467,16.1,351439.6771897425,3434041.297854969,183.59718974248972,261.8878549686633,-0.01,-0.01,0.0,0.005409680928963354,0.013066573852652048,50,5,188
1675214341870.0,2023-02-01 09:19:01:904338,202.51,-0.35000000000000003,-0.71,3.5344662381767034,-0.006108652330066892,-0.01239183758384998,-0.0369,-0.040440000000000004,-0.03712,-0.13950300000000002,0.1829856,9.7764212,31.030669324,121.44343346500001,16.099,351439.676995732,3434041.2976359534,183.59699573199032,261.8876359532587,-0.01,-0.01,0.0,0.005409680928963354,0.013066573852652048,50,5,188
1675214341890.0,2023-02-01 09:19:01:924352,202.51,-0.35000000000000003,-0.71,3.5344662381767034,-0.006108652330066892,-0.01239183758384998,0.0333,0.00177,-0.02059,-0.140042,0.17267600000000002,9.794561,31.030669322,121.443433463,16.099,351439.67680172145,3434041.2974169375,183.5968017214327,261.8874169373885,-0.01,-0.01,0.0,0.005409680928963354,0.013066573852652048,50,5,188
1675214341910.0,2023-02-01 09:19:01:944766,202.51,-0.35000000000000003,-0.71,3.5344662381767034,-0.006108652330066892,-0.01239183758384998,-0.004260000000000001,0.00941,-0.01531,-0.136318,0.16099439999999998,9.804517800000001,31.03066932,121.44343346100001,16.099,351439.6766077133,3434041.297197921,183.59660771326162,261.8871979210526,-0.01,-0.01,0.0,0.005409680928963354,0.013066573852652048,50,5,188
1675214341930.0,2023-02-01 09:19:01:964736,202.51,-0.35000000000000003,-0.71,3.5344662381767034,-0.006108652330066892,-0.01239183758384998,-0.030080000000000003,0.03603,-0.01642,-0.1309182,0.19307960000000002,9.7841142,31.030669318,121.443433458,16.099,351439.67631824897,3434041.2969802427,183.5963182489504,261.88698024256155,-0.01,-0.02,0.0,0.014647808319771055,0.016895020314496394,50,5,188
1675214341950.0,2023-02-01 09:19:01:984740,202.51,-0.35000000000000003,-0.71,3.5344662381767034,-0.006108652330066892,-0.01239183758384998,-0.01246,-0.021640000000000003,0.01433,-0.1258614,0.21457099999999998,9.7674444,31.030669316,121.44343345600001,16.099,351439.67612424085,3434041.296761228,183.59612424083753,261.8867612276226,-0.02,-0.02,0.0,0.010819361857926708,0.026133147705304095,50,5,188
1675214341970.0,2023-02-01 09:19:02:004734,202.51,-0.35000000000000003,-0.71,3.5344662381767034,-0.006108652330066892,-0.01239183758384998,-0.02373,0.027870000000000002,-0.0177,-0.12568500000000002,0.2009784,9.7826834,31.030669313,121.44343345200001,16.099,351439.6757377748,3434041.2964340416,183.59573777479818,261.8864340414293,-0.02,-0.02,0.0,0.010819361857926708,0.026133147705304095,50,5,188
1675214341990.0,2023-02-01 09:19:02:024762,202.51,-0.35000000000000003,-0.71,3.5344662381767034,-0.006108652330066892,-0.01239183758384998,-0.022060000000000003,-0.01557,0.00136,-0.11945220000000001,0.2066526,9.790347,31.030669311,121.44343344900001,16.099,351439.6754483129,3434041.2962163626,183.5954483128735,261.8862163624726,-0.02,-0.02,0.0,0.010819361857926708,0.026133147705304095,50,5,188
1675214342010.0,2023-02-01 09:19:02:044826,202.51,-0.35000000000000003,-0.71,3.5344662381767034,-0.006108652330066892,-0.01239183758384998,-0.028130000000000002,-0.0159,0.00606,-0.113337,0.2234596,9.7801256,31.030669308,121.44343344500001,16.099,351439.6750618469,3434041.295889175,183.59506184689235,261.8858891748823,-0.03,-0.02,0.0,0.006990915396082362,0.0353712750961118,50,5,188
1675214342030.0,2023-02-01 09:19:02:064787,202.5,-0.35000000000000003,-0.71,3.534291705252987,-0.006108652330066892,-0.01239183758384998,-0.04673,-0.01958,-0.03259,-0.1092994,0.23090760000000002,9.7832714,31.030669313,121.44343342,16.099,351439.67268330517,3434041.296476828,183.59268330514897,261.8864768277854,-0.03,-0.02,0.0,0.006997088741631382,0.03537005441247914,50,5,188
1675214342050.0,2023-02-01 09:19:02:084771,202.5,-0.35000000000000003,-0.71,3.534291705252987,-0.006108652330066892,-0.01239183758384998,-0.0361,0.01114,-0.027620000000000002,-0.112308,0.2297414,9.7883576,31.03066931,121.443433415,16.098,351439.6722013879,3434041.2961509796,183.59220138785895,261.88615097943693,-0.03,-0.02,0.0,0.006997088741631382,0.03537005441247914,50,5,188
1675214342070.0,2023-02-01 09:19:02:104771,202.5,-0.36,-0.71,3.534291705252987,-0.0062831852537830885,-0.01239183758384998,-0.052210000000000006,-0.051980000000000005,-0.047040000000000005,-0.1117592,0.23141720000000002,9.8023128,31.030669307000004,121.44343341000001,16.098,351439.6717194681,3434041.295825129,183.591719468066,261.8858251287602,-0.04,-0.02,0.0,0.0031702546954726005,0.044608849852533,50,5,188
1675214342090.0,2023-02-01 09:19:02:124703,202.5,-0.36,-0.71,3.534291705252987,-0.0062831852537830885,-0.01239183758384998,-0.0889,-0.008860000000000002,-0.04556,-0.113288,0.24598,9.7881224,31.030669304000003,121.443433404,16.098,351439.671142097,3434041.295500618,183.59114209696418,261.88550061779097,-0.04,-0.03,0.0,0.01240905013552646,0.04843568389869178,50,5,188
1675214342110.0,2023-02-01 09:19:02:144835,202.5,-0.36,-0.71,3.534291705252987,-0.0062831852537830885,-0.01239183758384998,-0.017140000000000002,-0.020950000000000003,-0.07282000000000001,-0.11834480000000001,0.24030579999999999,9.7947668,31.030669300000003,121.44343339800001,16.098,351439.67056317563,3434041.29506526,183.59056317561772,261.8850652598776,-0.04,-0.03,0.0,0.01240905013552646,0.04843568389869178,50,5,188
1675214342130.0,2023-02-01 09:19:02:164825,202.5,-0.36,-0.71,3.534291705252987,-0.0062831852537830885,-0.01239183758384998,-0.07305,0.012580000000000001,-0.05004,-0.1227548,0.2574558,9.781429,31.030669296000003,121.443433392,16.098,351439.6699842494,3434041.2946299035,183.5899842493818,261.8846299033612,-0.04,-0.03,0.0,0.01240905013552646,0.04843568389869178,50,5,188
1675214342150.0,2023-02-01 09:19:02:184754,202.5,-0.36,-0.71,3.534291705252987,-0.0062831852537830885,-0.01239183758384998,-0.030350000000000002,-0.008520000000000002,-0.0694,-0.1312514,0.2871792,9.7766956,31.030669292000002,121.443433385,16.098,351439.6693098743,3434041.294195884,183.58930987428175,261.88419588375837,-0.05,-0.03,0.0,0.008582216089367677,0.05767447933874564,50,5,188
1675214342170.0,2023-02-01 09:19:02:204768,202.5,-0.36,-0.71,3.534291705252987,-0.0062831852537830885,-0.01239183758384998,-0.06539,0.023880000000000002,-0.07548,-0.1338582,0.26411,9.7848688,31.030669288000002,121.443433377,16.098,351439.6685400477,3434041.2937632,183.5885400476982,261.8837631996721,-0.05,-0.03,0.0,0.008582216089367677,0.05767447933874564,50,5,188
1675214342190.0,2023-02-01 09:19:02:224758,202.5,-0.36,-0.71,3.534291705252987,-0.0062831852537830885,-0.01239183758384998,-0.09555000000000001,-0.029640000000000003,-0.09720000000000001,-0.1385426,0.2693334,9.7798022,31.030669284000002,121.443433369,16.098,351439.66777021886,3434041.2933305167,183.58777021884453,261.88333051651716,-0.06,-0.03,0.0,0.004755382043208901,0.0669132747787995,50,5,188
1675214342210.0,2023-02-01 09:19:02:244833,202.48999999999998,-0.36,-0.71,3.5341171723292706,-0.0062831852537830885,-0.01239183758384998,-0.04671,-0.04249000000000001,-0.08248000000000001,-0.1465884,0.281211,9.7880734,31.030669286000002,121.44343333200001,16.098,351439.6642415955,3434041.29360168,183.58424159546848,261.8836016799323,-0.06,-0.03,0.0,0.004767060540203601,0.06691244378892489,50,5,188
1675214342230.0,2023-02-01 09:19:02:264837,202.48999999999998,-0.36,-0.71,3.5341171723292706,-0.0062831852537830885,-0.01239183758384998,-0.04737,-0.03406,-0.07558000000000001,-0.14308,0.286797,9.7842416,31.03066928,121.44343330800001,16.098,351439.66194142995,3434041.2929687,183.58194142993307,261.88296870002523,-0.07,-0.04,0.0,0.010181302234172643,0.0799771285106963,50,5,188
1675214342250.0,2023-02-01 09:19:02:284800,202.48999999999998,-0.37,-0.71,3.5341171723292706,-0.0064577181774992855,-0.01239183758384998,-0.08892000000000001,-0.00419,0.0037300000000000002,-0.1385622,0.3044958,9.7767642,31.030669272,121.44343329300001,16.098,351439.6604972258,3434041.292101997,183.58049722580472,261.8821019968018,-0.07,-0.04,0.0,0.010181302234172643,0.0799771285106963,50,5,188
1675214342270.0,2023-02-01 09:19:02:304831,202.48999999999998,-0.37,-0.71,3.5341171723292706,-0.0064577181774992855,-0.01239183758384998,-0.054090000000000006,-0.03916,-0.060110000000000004,-0.139356,0.2899624,9.7769112,31.030669265,121.443433278,16.097,351439.65905457456,3434041.2913461397,183.57905457454035,261.8813461395912,-0.07,-0.04,0.0,0.010181302234172643,0.0799771285106963,50,5,188
1675214342290.0,2023-02-01 09:19:02:324771,202.48999999999998,-0.37,-0.71,3.5341171723292706,-0.0064577181774992855,-0.01239183758384998,-0.11086000000000001,-0.0027800000000000004,-0.05312000000000001,-0.1315944,0.3006248,9.7933654,31.030669258000003,121.44343326200001,16.097,351439.6575164718,3434041.2905916176,183.57751647179248,261.8805916174315,-0.08,-0.04,0.0,0.0063560807202714675,0.08921659171856652,50,5,188
1675214342310.0,2023-02-01 09:19:02:344834,202.48999999999998,-0.37,-0.71,3.5341171723292706,-0.0064577181774992855,-0.01239183758384998,-0.10640000000000001,-0.022230000000000003,-0.05754000000000001,-0.1266552,0.3365418,9.7794396,31.030669249000002,121.443433244,16.097,351439.65578435856,3434041.289618082,183.5757843585452,261.87961808172986,-0.08,-0.04,0.0,0.0063560807202714675,0.08921659171856652,50,5,188
1675214342330.0,2023-02-01 09:19:02:364794,202.48999999999998,-0.37,-0.71,3.5341171723292706,-0.0064577181774992855,-0.01239183758384998,-0.06685,-0.06936,-0.054340000000000006,-0.1193444,0.3334254,9.784957,31.03066924,121.443433225,16.097,351439.65395679395,3434041.2886458826,183.57395679393085,261.8786458824761,-0.09,-0.05,0.0,0.01177032241424051,0.10228127644033792,50,5,188
1675214342350.0,2023-02-01 09:19:02:384833,202.48999999999998,-0.37,-0.71,3.5341171723292706,-0.0064577181774992855,-0.01239183758384998,-0.07331,0.00512,-0.09728,-0.1153264,0.33867820000000004,9.7805274,31.030669231,121.443433204,16.097,351439.65193832427,3434041.287676356,183.571938324254,261.8776763556525,-0.09,-0.05,0.0,0.01177032241424051,0.10228127644033792,50,5,188
1675214342370.0,2023-02-01 09:19:02:404836,202.48,-0.38,-0.71,3.5339426394055544,-0.006632251101215482,-0.01239183758384998,-0.08997000000000001,-0.03465,-0.07495,-0.1133272,0.3769276,9.769571000000001,31.030669221000004,121.44343318300001,16.097,351439.6499183042,3434041.2865959867,183.5699183041579,261.87659598654136,-0.1,-0.05,0.0,0.007964564819975498,0.11151935126796789,50,5,188
1675214342390.0,2023-02-01 09:19:02:424756,202.48,-0.38,-0.71,3.5339426394055544,-0.006632251101215482,-0.01239183758384998,-0.10896000000000002,0.00254,-0.14898,-0.1132194,0.37534980000000007,9.7877892,31.030669211000003,121.44343316000001,16.097,351439.64770737675,3434041.2855182895,183.56770737672923,261.8755182893947,-0.11,-0.05,0.0,0.004140955954854829,0.12075948196220433,50,5,188
1675214342410.0,2023-02-01 09:19:02:444841,202.48,-0.38,-0.71,3.5339426394055544,-0.006632251101215482,-0.01239183758384998,-0.08287000000000001,-0.016390000000000002,-0.15235,-0.11216100000000001,0.3872764,9.7723052,31.030669207000003,121.44343311,16.097,351439.64292855986,3434041.285141766,183.56292855984066,261.8751417659223,-0.11,-0.06,0.0,0.013381086649091274,0.12458309082732501,50,5,188
1675214342430.0,2023-02-01 09:19:02:464741,202.48,-0.38,-0.71,3.5339426394055544,-0.006632251101215482,-0.01239183758384998,-0.08081,-0.006110000000000001,-0.13540000000000002,-0.11653179999999999,0.4307688,9.7631912,31.030669197,121.44343307800001,16.096,351439.63985856535,3434041.2840761035,183.55985856533516,261.87407610332593,-0.12,-0.06,0.0,0.009557477783970598,0.13382322152156145,50,5,188
1675214342450.0,2023-02-01 09:19:02:484776,202.47,-0.38,-0.71,3.5337681064818387,-0.006632251101215482,-0.01239183758384998,-0.049170000000000005,-0.011290000000000001,-0.19380000000000003,-0.12638080000000002,0.42327180000000003,9.7717466,31.030669186,121.44343305100001,16.096,351439.63726427726,3434041.2828929103,183.55726427724585,261.87289291014895,-0.13,-0.06,0.0,0.00575883809653014,0.14306234928791697,50,5,188
1675214342470.0,2023-02-01 09:19:02:504883,202.47,-0.38,-0.71,3.5337681064818387,-0.006632251101215482,-0.01239183758384998,-0.06297000000000001,-0.012490000000000001,-0.19840000000000002,-0.1301342,0.4587282,9.7689634,31.030669173000003,121.44343302300001,16.096,351439.63457143237,3434041.281489365,183.55457143235253,261.8714893646538,-0.13,-0.06,0.0,0.00575883809653014,0.14306234928791697,50,5,188
1675214342490.0,2023-02-01 09:19:02:524833,202.47,-0.39,-0.71,3.5337681064818387,-0.006806784024931679,-0.01239183758384998,-0.15061000000000002,-0.00523,-0.17206000000000002,-0.1342404,0.496958,9.7544594,31.030669161000002,121.443432993,16.096,351439.6316892351,3434041.280199338,183.5516892350861,261.8701993380673,-0.14,-0.07,0.0,0.011177639895795954,0.15612514328691557,50,5,188
1675214342510.0,2023-02-01 09:19:02:544838,202.46,-0.39,-0.71,3.5335935735581225,-0.006806784024931679,-0.01239183758384998,-0.11076000000000001,-0.04191,-0.1899,-0.13867000000000002,0.4936554,9.753538200000001,31.030669147,121.443432962,16.096,351439.6287084811,3434041.27868896,183.54870848107385,261.86868895962834,-0.15,-0.07,-0.01,0.007384505484948449,0.16536465486536947,50,5,188
1675214342530.0,2023-02-01 09:19:02:564836,202.46,-0.39,-0.71,3.5335935735581225,-0.006806784024931679,-0.01239183758384998,-0.16369,-0.0005,-0.16045,-0.14110040000000001,0.5374908,9.758301000000001,31.030669133000004,121.44343292900001,16.096,351439.62553682434,3434041.277181254,183.54553682432743,261.8671812536195,-0.16,-0.07,-0.01,0.003564122266760998,0.17460611968790662,50,5,188
1675214342550.0,2023-02-01 09:19:02:584828,202.45,-0.4,-0.71,3.533419040634406,-0.006981316948647876,-0.01239183758384998,-0.19203,-0.047450000000000006,-0.18631,-0.1442266,0.5763674,9.7443262,31.030669118000002,121.44343289400001,16.095,351439.6221727097,3434041.275565379,183.54217270971276,261.86556537868455,-0.17,-0.08,-0.01,0.009017957973187565,0.18766639665639084,50,5,188
1675214342570.0,2023-02-01 09:19:02:604849,202.45,-0.4,-0.71,3.533419040634406,-0.006981316948647876,-0.01239183758384998,-0.21548,-0.042230000000000004,-0.12752000000000002,-0.1382682,0.5855304,9.758742,31.030669103,121.443432856,16.095,351439.61852223624,3434041.273953514,183.5385222362238,261.8639535140246,-0.18,-0.08,-0.01,0.005199187753054599,0.19690852812082185,50,5,188
1675214342590.0,2023-02-01 09:19:02:624829,202.45,-0.4,-0.71,3.533419040634406,-0.006981316948647876,-0.01239183758384998,-0.25763,-0.05441000000000001,-0.18212,-0.1435014,0.6168218,9.752744400000001,31.030669087000003,121.443432817,16.095,351439.6147747612,3434041.2722321427,183.53477476118132,261.8622321425937,-0.19,-0.09,-0.01,0.01062254899735264,0.20996942980538583,50,5,188
1675214342610.0,2023-02-01 09:19:02:644856,202.45,-0.41000000000000003,-0.72,3.533419040634406,-0.007155849872364073,-0.012566370507566177,-0.18318,-0.068,-0.17411000000000001,-0.143913,0.6479073999999999,9.7661998,31.030669079000003,121.44343275000001,16.095,351439.60836704844,3434041.271434968,183.52836704842048,261.86143496772274,-0.2,-0.09,-0.01,0.00680377877721966,0.21921156126981683,50,5,188
1675214342630.0,2023-02-01 09:19:02:664832,202.44,-0.41000000000000003,-0.72,3.5332445077106898,-0.007155849872364073,-0.012566370507566177,-0.28806000000000004,-0.08463000000000001,-0.16942000000000002,-0.1372392,0.6591186,9.7777148,31.030669071000002,121.44343269900001,16.094,351439.6034865669,3434041.2706164005,183.52348656690447,261.86061640037224,-0.21,-0.09,-0.01,0.0030248812023466604,0.22845316827243106,50,5,188
1675214342650.0,2023-02-01 09:19:02:684848,202.44,-0.42,-0.72,3.5332445077106898,-0.007330382796080269,-0.012566370507566177,-0.28348,-0.02587,-0.15094000000000002,-0.1352694,0.6765234,9.782164,31.030669052,121.44343265200001,16.094,351439.5989708156,3434041.2685731906,183.51897081558127,261.85857319040224,-0.22,-0.1,-0.01,0.008450521921387996,0.24151312320297658,50,5,188
1675214342670.0,2023-02-01 09:19:02:704822,202.44,-0.43,-0.72,3.5332445077106898,-0.007504915719796466,-0.012566370507566177,-0.28738,-0.054920000000000004,-0.18148,-0.1354458,0.6971426,9.7886614,31.030669033000002,121.44343260400001,16.093,351439.59435961297,3434041.2665313166,183.5143596129492,261.8565313164145,-0.23,-0.1,-0.01,0.004633364815635879,0.25075592102777006,50,5,188
1675214342690.0,2023-02-01 09:19:02:724826,202.43,-0.43,-0.72,3.533069974786974,-0.007504915719796466,-0.012566370507566177,-0.20750000000000002,-0.04635,-0.22495,-0.131222,0.7159095999999999,9.8085652,31.030669013,121.44343255300001,16.093,351439.58946049865,3434041.264382611,183.50946049863705,261.85438261087984,-0.24,-0.11,-0.01,0.01010504993738967,0.2638141163125333,50,5,188
1675214342710.0,2023-02-01 09:19:02:744733,202.43,-0.43,-0.72,3.533069974786974,-0.007504915719796466,-0.012566370507566177,-0.28252000000000005,-0.022770000000000002,-0.23113000000000003,-0.12728240000000002,0.7473185999999999,9.813082999999999,31.030668992000003,121.44343249900001,16.093,351439.58427347767,3434041.2621270707,183.5042734776507,261.8521270705387,-0.26,-0.11,-0.01,0.002473962187201667,0.2823010441197416,50,5,188
1675214342730.0,2023-02-01 09:19:02:764528,202.42,-0.44,-0.72,3.5328954418632574,-0.0076794486435126635,-0.012566370507566177,-0.24157,-0.01916,-0.23017,-0.11897200000000001,0.7759542,9.8045374,31.03066897,121.443432443,16.093,351439.57889399875,3434041.2597633586,183.4988939987379,261.8497633584775,-0.27,-0.12,-0.01,0.007953432148504469,0.29535866826125007,50,5,188
1675214342750.0,2023-02-01 09:19:02:784828,202.42,-0.44,-0.72,3.5328954418632574,-0.0076794486435126635,-0.012566370507566177,-0.24806000000000003,-0.03483,-0.29113,-0.116081,0.776503,9.8243334,31.030668947000002,121.443432384,16.092,351439.5732266108,3434041.257292815,183.4932266107644,261.84729281486943,-0.28,-0.13,-0.01,0.013383631321139552,0.30841672849030066,50,5,188
1675214342770.0,2023-02-01 09:19:02:804832,202.41,-0.45,-0.72,3.5327209089395413,-0.00785398156722886,-0.012566370507566177,-0.15876,-0.030260000000000002,-0.33673000000000003,-0.11850160000000001,0.7402920000000001,9.8626416,31.030668923,121.443432322,16.092,351439.5672713135,3434041.2547154357,183.48727131349733,261.84471543552354,-0.29,-0.13,0.0,0.009625142925225719,0.317659183125042,50,5,188
1675214342790.0,2023-02-01 09:19:02:824849,202.4,-0.45,-0.72,3.532546376015825,-0.00785398156722886,-0.012566370507566177,-0.19406,-0.06826,-0.35598,-0.11878580000000001,0.7180362,9.882418000000001,31.030668898000002,121.443432258,16.092,351439.56112355844,3434041.2520298865,183.48112355842022,261.84202988632023,-0.31,-0.14,0.0,0.011304638242949042,0.3399591227694825,50,5,188
1675214342810.0,2023-02-01 09:19:02:844826,202.4,-0.45,-0.72,3.532546376015825,-0.00785398156722886,-0.012566370507566177,-0.07137,-0.042190000000000005,-0.36036,-0.1211574,0.7131068,9.8810166,31.03066888,121.443432164,16.092,351439.5521231103,3434041.2501603654,183.47212311025942,261.84016036521643,-0.32,-0.14,0.0,0.007493934757001483,0.3492045832200056,50,5,188
1675214342830.0,2023-02-01 09:19:02:864748,202.39,-0.45,-0.72,3.532371843092109,-0.00785398156722886,-0.012566370507566177,0.01846,-0.03794,-0.41158000000000006,-0.13272140000000002,0.7013076,9.8847308,31.030668861000002,121.44343208800001,16.092,351439.54483924824,3434041.2481559315,183.4648392482195,261.8381559313275,-0.33,-0.15,0.0,0.012991917951689552,0.3622584851565751,50,5,188
1675214342850.0,2023-02-01 09:19:02:884751,202.38,-0.45,-0.72,3.532197310168393,-0.00785398156722886,-0.012566370507566177,0.03565,0.03778,-0.38091,-0.15186080000000002,0.698642,9.8835548,31.030668834000004,121.443432016,16.092,351439.53792477207,3434041.2452593893,183.45792477205396,261.83525938913226,-0.34,-0.15,0.0,0.009247667806681015,0.37150300219532184,50,5,188
1675214342870.0,2023-02-01 09:19:02:904539,202.37,-0.45,-0.72,3.5320227772446766,-0.00785398156722886,-0.012566370507566177,0.05697000000000001,0.127,-0.36124,-0.16702140000000001,0.7025815999999999,9.860495400000001,31.030668805,121.443431942,16.092,351439.5308162854,3434041.2421438317,183.450816285389,261.83214383153245,-0.35000000000000003,-0.15,0.0,0.0055066451185691034,0.3807488369772627,50,5,188
1675214342890.0,2023-02-01 09:19:02:924848,202.37,-0.45,-0.72,3.5320227772446766,-0.00785398156722886,-0.012566370507566177,0.14121,0.17991000000000001,-0.36032000000000003,-0.1848378,0.6837166,9.8338688,31.030668776000002,121.44343186500001,16.092,351439.52342144464,3434041.2390322853,183.4434214446228,261.82903228513896,-0.37,-0.16,0.0,0.007142375477165452,0.4030496079548313,50,5,188
1675214342910.0,2023-02-01 09:19:02:944834,202.35999999999999,-0.44,-0.71,3.53184824432096,-0.0076794486435126635,-0.01239183758384998,0.18827000000000002,0.22742,-0.31317,-0.20627040000000002,0.6649986000000001,9.816415,31.030668747000004,121.443431786,16.092,351439.51583569637,3434041.2359234127,183.4358356963494,261.8259234125726,-0.38,-0.16,0.0,0.0034084727856504016,0.41229647380649465,50,5,188
1675214342930.0,2023-02-01 09:19:02:964735,202.35,-0.44,-0.71,3.5316737113972443,-0.0076794486435126635,-0.01239183758384998,0.21201,0.28816,-0.30277000000000004,-0.2172268,0.6327272,9.8138866,31.030668716,121.44343170500001,16.092,351439.5080559399,3434041.2325955243,183.42805593990488,261.822595524136,-0.39,-0.16,0.0,-0.0003222018073635591,0.4215446550319377,50,5,188
1675214342950.0,2023-02-01 09:19:02:984817,202.35,-0.44,-0.7000000000000001,3.5316737113972443,-0.0076794486435126635,-0.012217304660133784,0.23343000000000003,0.23788,-0.29335,-0.2126796,0.6030136,9.7994512,31.030668686000002,121.443431621,16.092,351439.4999913798,3434041.2293824926,183.41999137977837,261.81938249245286,-0.4,-0.17,0.0,0.005123946738685742,0.43459607127747846,50,5,188
1675214342970.0,2023-02-01 09:19:03:004846,202.34,-0.43,-0.7000000000000001,3.531499178473528,-0.007504915719796466,-0.012217304660133784,0.12890000000000001,0.12767,-0.24459000000000003,-0.1928542,0.6017102,9.773481199999999,31.030668655000003,121.443431536,16.092,351439.49182981555,3434041.226059952,183.4118298155372,261.81605995167047,-0.41000000000000003,-0.17,0.0,0.0013987784084099342,0.44384461630052946,50,5,188
1675214342990.0,2023-02-01 09:19:03:024838,202.34,-0.43,-0.7000000000000001,3.531499178473528,-0.007504915719796466,-0.012217304660133784,0.14661000000000002,0.07496000000000001,-0.23890000000000003,-0.15606499999999998,0.6184094,9.730567,31.030668623,121.44343144800001,16.092,351439.483380342,3434041.2226305795,183.4033803420025,261.8126305793412,-0.42,-0.17,0.0,-0.0024022411663942034,0.45309406224025767,50,5,188
1675214343010.0,2023-02-01 09:19:03:044827,202.32999999999998,-0.43,-0.7000000000000001,3.5313246455498115,-0.007504915719796466,-0.012217304660133784,0.028350000000000004,-0.00591,-0.25483,-0.107408,0.6230938,9.732154600000001,31.03066859,121.44343135800001,16.092,351439.4747384108,3434041.2190930354,183.39473841077415,261.8090930352919,-0.43,-0.18,0.0,0.0031275427190243232,0.4661439889953969,50,5,188
1675214343030.0,2023-02-01 09:19:03:064738,202.32,-0.43,-0.7000000000000001,3.5311501126260953,-0.007504915719796466,-0.012217304660133784,0.00962,-0.06866,-0.28940000000000005,-0.07800800000000001,0.605346,9.750353200000001,31.030668561000002,121.44343123700001,16.093,351439.46314367454,3434041.2160403216,183.38314367452404,261.80604032147676,-0.44,-0.18,0.0,-0.0005888905333649996,0.4753942082187579,50,5,188
1675214343050.0,2023-02-01 09:19:03:084822,202.32,-0.43,-0.7000000000000001,3.5311501126260953,-0.007504915719796466,-0.012217304660133784,-0.014150000000000001,-0.023430000000000003,-0.27331,-0.0524398,0.5899110000000001,9.764435800000001,31.030668527000003,121.44343114200001,16.093,351439.4540229314,3434041.212398617,183.3740229313844,261.8023986169137,-0.45,-0.19,0.0,0.004864090971333723,0.48844277107868284,50,5,188
1675214343070.0,2023-02-01 09:19:03:104829,202.31,-0.43,-0.7000000000000001,3.5309755797023796,-0.007504915719796466,-0.012217304660133784,0.03364,0.024880000000000003,-0.30838000000000004,-0.0329672,0.5796602000000001,9.784026,31.030668492,121.443431046,16.093,351439.4448051817,3434041.208647406,183.36480518168537,261.79864740604535,-0.46,-0.19,0.0,0.0011531641862586317,0.49769334957618183,50,5,188
1675214343090.0,2023-02-01 09:19:03:124834,202.29999999999998,-0.43,-0.6900000000000001,3.530801046778663,-0.007504915719796466,-0.012042771736417587,0.07195,0.15902000000000002,-0.35650000000000004,-0.038612,0.5930078,9.792620600000001,31.030668455,121.44343094800001,16.093,351439.4353934239,3434041.2046771785,183.35539342387347,261.7946771783754,-0.47000000000000003,-0.2,0.0,0.006697564023713853,0.5107397993461527,50,5,188
1675214343110.0,2023-02-01 09:19:03:144812,202.29999999999998,-0.42,-0.6900000000000001,3.530801046778663,-0.007330382796080269,-0.012042771736417587,0.08310000000000001,0.26754,-0.36757,-0.0488824,0.6180664,9.8018424,31.030668418,121.443430848,16.093,351439.42579075857,3434041.200709627,183.34579075855436,261.7907096268609,-0.48,-0.21,0.0,0.012155100003757913,0.5237864579615424,50,5,188
1675214343130.0,2023-02-01 09:19:03:164817,202.29,-0.42,-0.68,3.530626513854947,-0.007330382796080269,-0.01186823881270139,0.15266000000000002,0.33508000000000004,-0.33981,-0.0812322,0.6069140000000001,9.8162288,31.03066838,121.44343074700001,16.093,351439.4160910915,3434041.196632566,183.33609109150711,261.7866325657815,-0.49,-0.21,0.0,0.008453571335777288,0.5330370879513647,50,5,188
1675214343150.0,2023-02-01 09:19:03:184735,202.28,-0.42,-0.68,3.5304519809312307,-0.007330382796080269,-0.01186823881270139,0.19960000000000003,0.33418000000000003,-0.39797000000000005,-0.1308594,0.5791996,9.8242452,31.030668341000002,121.44343064300001,16.093,351439.4061035153,3434041.192448672,183.32610351528274,261.7824486717582,-0.49,-0.21,0.0,0.008546603727959012,0.5330356044062321,50,5,188
1675214343170.0,2023-02-01 09:19:03:204812,202.26999999999998,-0.41000000000000003,-0.67,3.5302774480075145,-0.007155849872364073,-0.011693705888985193,0.22538000000000002,0.27915,-0.37366000000000005,-0.188846,0.601622,9.795835,31.030668301000002,121.44343053700001,16.093,351439.39592348126,3434041.188156607,183.31592348124832,261.77815660694614,-0.51,-0.22,0.0,0.010314285894871295,0.5553319867488986,50,5,188
1675214343190.0,2023-02-01 09:19:03:224767,202.26999999999998,-0.41000000000000003,-0.67,3.5302774480075145,-0.007155849872364073,-0.011693705888985193,0.21271,0.10257000000000001,-0.34897,-0.2178932,0.6244069999999999,9.756223400000001,31.030668261000002,121.44343042800001,16.093,351439.3854570907,3434041.1838685544,183.30545709066791,261.77386855427176,-0.52,-0.22,0.0,0.006524569483902953,0.5645860696059103,50,5,188
1675214343210.0,2023-02-01 09:19:03:244832,202.26,-0.41000000000000003,-0.67,3.5301029150837984,-0.007155849872364073,-0.011693705888985193,0.18121,-0.11304000000000002,-0.2548,-0.2336222,0.6091778,9.7273428,31.030668229000003,121.44343029100001,16.093,351439.37233046256,3434041.1805046983,183.29233046254376,261.7705046981573,-0.53,-0.22,0.0,0.002835007030327019,0.5738396664009364,50,5,188
1675214343230.0,2023-02-01 09:19:03:264766,202.26,-0.4,-0.67,3.5301029150837984,-0.006981316948647876,-0.011693705888985193,0.12964,-0.26898,-0.21019000000000002,-0.2288986,0.613823,9.719865400000002,31.030668204,121.443430168,16.093,351439.36055103206,3434041.177898038,183.2805510320468,261.76789803802967,-0.54,-0.22,0.0,-0.0009530941807915083,0.5830944105472824,50,5,188
1675214343250.0,2023-02-01 09:19:03:284872,202.26,-0.4,-0.68,3.5301029150837984,-0.006981316948647876,-0.01186823881270139,0.03844,-0.37873,-0.13872,-0.19806780000000002,0.6080704,9.7194342,31.030668162,121.44343005300001,16.092,351439.3495088256,3434041.1733963173,183.26950882555684,261.76339631713927,-0.55,-0.23,0.0,0.0045135487544358255,0.5961372559047466,50,5,188
1675214343270.0,2023-02-01 09:19:03:304768,202.25,-0.4,-0.6900000000000001,3.529928382160082,-0.006981316948647876,-0.012042771736417587,-0.050420000000000006,-0.35947,-0.09134,-0.1432172,0.6073746,9.7214236,31.030668121,121.44342993500001,16.092,351439.3381818129,3434041.1690094536,183.25818181288196,261.759009453468,-0.56,-0.23,0.0,0.000831108367494976,0.6053918642159651,50,5,188
1675214343290.0,2023-02-01 09:19:03:324825,202.25,-0.4,-0.6900000000000001,3.529928382160082,-0.006981316948647876,-0.012042771736417587,-0.036410000000000005,-0.20338,-0.061970000000000004,-0.10801559999999999,0.6119414000000001,9.7294008,31.030668078,121.443429816,16.092,351439.32675624103,3434041.164402235,183.24675624101656,261.7544022346847,-0.5700000000000001,-0.23,0.0,-0.0029553775283815698,0.6146472693697295,50,5,188
1675214343310.0,2023-02-01 09:19:03:344818,202.25,-0.4,-0.6900000000000001,3.529928382160082,-0.006981316948647876,-0.012042771736417587,-0.029120000000000004,-0.0673,-0.08241000000000001,-0.0931392,0.5752404000000001,9.758056,31.030668035,121.443429694,16.092,351439.31504431507,3434041.1597990296,183.2350443150499,261.74979902943596,-0.58,-0.24,0.0,0.0025135417295063245,0.6276891604193703,50,5,188
1675214343330.0,2023-02-01 09:19:03:364764,202.25,-0.4,-0.6900000000000001,3.529928382160082,-0.006981316948647876,-0.012042771736417587,-0.04419000000000001,0.13486,-0.059890000000000006,-0.0798896,0.5752501999999999,9.7839182,31.03066799,121.44342957100001,16.092,351439.3032338323,3434041.1549754706,183.22323383227922,261.7449754704721,-0.59,-0.24,0.0,-0.0012729441663702212,0.6369445655731346,50,5,188
1675214343350.0,2023-02-01 09:19:03:384815,202.25,-0.41000000000000003,-0.6900000000000001,3.529928382160082,-0.007155849872364073,-0.012042771736417587,-0.03458,0.24512000000000003,-0.16361,-0.090062,0.598682,9.777293400000001,31.030667945,121.443429445,16.092,351439.29113699065,3434041.150155923,183.21113699063426,261.7401559227146,-0.6,-0.25,0.0,0.004195975091517645,0.6499864566227757,50,5,188
1675214343370.0,2023-02-01 09:19:03:404810,202.23999999999998,-0.4,-0.68,3.5297538492363656,-0.006981316948647876,-0.01186823881270139,0.01812,0.20870000000000002,-0.12379000000000001,-0.11516960000000001,0.5672828000000001,9.797893,31.030667899,121.44342931800001,16.092,351439.2789431473,3434041.1452268683,183.19894314726116,261.73522686818615,-0.61,-0.25,0.0,0.0005245485983923215,0.6592417802663663,50,5,188
1675214343390.0,2023-02-01 09:19:03:424786,202.23999999999998,-0.4,-0.68,3.5297538492363656,-0.006981316948647876,-0.01186823881270139,0.0582,0.14132,-0.14697000000000002,-0.1175216,0.5505738,9.8052136,31.030667853,121.44342918900001,16.092,351439.26655839646,3434041.1403004862,183.18655839643907,261.7303004860878,-0.62,-0.26,0.0,0.005995744012347898,0.672282716610905,50,5,188
1675214343410.0,2023-02-01 09:19:03:444817,202.23999999999998,-0.4,-0.68,3.5297538492363656,-0.006981316948647876,-0.01186823881270139,0.04582000000000001,-0.021120000000000003,-0.20672000000000001,-0.12721380000000002,0.5669692,9.800588,31.030667812,121.44342903,16.092,351439.25131784705,3434041.1359684435,183.17131784703815,261.7259684433229,-0.63,-0.26,0.0,0.0022108735470562912,0.6815387824901521,50,5,188
1675214343430.0,2023-02-01 09:19:03:464828,202.23,-0.4,-0.68,3.52957931631265,-0.006981316948647876,-0.01186823881270139,0.06047,-0.13172,-0.20090000000000002,-0.1332506,0.5629414,9.7959232,31.030667779,121.44342889600001,16.092,351439.2384760225,3434041.132489733,183.1584760224796,261.7224897327833,-0.63,-0.26,0.0,0.002329824469112507,0.681538386239501,50,5,188
1675214343450.0,2023-02-01 09:19:03:484800,202.23,-0.4,-0.6900000000000001,3.52957931631265,-0.006981316948647876,-0.012042771736417587,0.043890000000000005,-0.2953,-0.24779,-0.11760000000000001,0.5398526,9.7731676,31.03066773,121.443428761,16.091,351439.22551390296,3434041.1272388394,183.14551390294218,261.71723883925006,-0.64,-0.27,0.0,0.0078032958724736645,0.694578367481688,50,5,188
1675214343470.0,2023-02-01 09:19:03:504721,202.22,-0.4,-0.6900000000000001,3.5294047833889337,-0.006981316948647876,-0.012042771736417587,0.06656000000000001,-0.25068,-0.26854,-0.1007048,0.5376476,9.7488636,31.030667681,121.443428624,16.091,351439.21236087824,3434041.1219906197,183.13236087822588,261.71199061954394,-0.65,-0.27,0.0,0.004142883287944099,0.7038343814549433,50,5,188
1675214343490.0,2023-02-01 09:19:03:524732,202.22,-0.4,-0.7000000000000001,3.5294047833889337,-0.006981316948647876,-0.012217304660133784,-0.035070000000000004,-0.20636000000000002,-0.30652,-0.1047424,0.562716,9.716896,31.030667631000004,121.44342848500001,16.091,351439.1990153957,3434041.1166342306,183.11901539569953,261.70663423044607,-0.66,-0.27,0.0,0.0003612440296544006,0.7130917679392682,50,5,188
1675214343510.0,2023-02-01 09:19:03:544719,202.21,-0.4,-0.7000000000000001,3.5292302504652175,-0.006981316948647876,-0.012217304660133784,-0.0685,-0.08791,-0.34682,-0.11838399999999999,0.5776022000000001,9.6689936,31.030667580000003,121.44342834400001,16.091,351439.1854774577,3434041.1111696702,183.10547745769145,261.7011696700938,-0.67,-0.28,-0.01,0.005963724896565437,0.7261297638751342,50,5,188
1675214343530.0,2023-02-01 09:19:03:564709,202.2,-0.4,-0.7000000000000001,3.529055717541501,-0.006981316948647876,-0.012217304660133784,-0.17136,-0.036140000000000005,-0.2979,-0.135632,0.576632,9.6591446,31.030667529000002,121.443428202,16.091,351439.17184406595,3434041.1057064463,183.09184406592976,261.69570644618943,-0.68,-0.28,-0.01,0.0023120507652695244,0.7353874179106268,50,5,188
1675214343550.0,2023-02-01 09:19:03:584723,202.2,-0.41000000000000003,-0.7000000000000001,3.529055717541501,-0.007155849872364073,-0.012217304660133784,-0.21846000000000002,0.028430000000000004,-0.31322,-0.1515864,0.5929588,9.681371,31.030667477,121.443428057,16.09,351439.15792276734,3434041.100136389,183.07792276731925,261.69013638887554,-0.6900000000000001,-0.29,-0.01,0.007792349136181265,0.7484245314625516,50,5,188
1675214343570.0,2023-02-01 09:19:03:604706,202.19,-0.41000000000000003,-0.7000000000000001,3.528881184617785,-0.007155849872364073,-0.012217304660133784,-0.23203000000000001,0.01719,-0.34507000000000004,-0.14276640000000002,0.6241326,9.7329484,31.030667424,121.44342791000001,16.09,351439.14380901086,3434041.0944581605,183.0638090108405,261.68445816030726,-0.7000000000000001,-0.29,-0.01,0.004146182154545597,0.7576825253188444,50,5,188
1675214343590.0,2023-02-01 09:19:03:624730,202.18,-0.42,-0.7000000000000001,3.528706651694069,-0.007330382796080269,-0.012217304660133784,-0.15765,0.031630000000000005,-0.31360000000000005,-0.1574076,0.6051696,9.8569282,31.030667371000003,121.44342776100001,16.09,351439.1295043493,3434041.0887826085,183.04950434929924,261.67878260836005,-0.71,-0.29,-0.01,0.0005032471747810074,0.7669418144437562,50,5,188
1675214343610.0,2023-02-01 09:19:03:644434,202.18,-0.42,-0.7000000000000001,3.528706651694069,-0.007330382796080269,-0.012217304660133784,-0.12196000000000001,-0.06515,-0.33129000000000003,-0.1817018,0.594615,9.844737,31.030667323000003,121.44342758100001,16.09,351439.1122484355,3434041.083702731,183.03224843548378,261.67370273079723,-0.72,-0.3,-0.01,0.005988096022811584,0.7799770142164585,50,5,188
1675214343630.0,2023-02-01 09:19:03:664800,202.17,-0.42,-0.7000000000000001,3.5285321187703524,-0.007330382796080269,-0.012217304660133784,-0.04700000000000001,-0.10746000000000001,-0.27364000000000005,-0.1511258,0.612206,9.858084600000002,31.030667268000002,121.44342742900001,16.09,351439.0976543119,3434041.0778094972,183.01765431190142,261.66780949709937,-0.73,-0.3,-0.01,0.00235066837391118,0.7892366402785643,50,5,188
1675214343650.0,2023-02-01 09:19:03:684793,202.17,-0.42,-0.7000000000000001,3.5285321187703524,-0.007330382796080269,-0.012217304660133784,-0.0388,-0.17473000000000002,-0.30848000000000003,-0.1387484,0.5681648,9.8068796,31.030667213,121.443427274,16.09,351439.08277383196,3434041.0719202766,183.0027738319477,261.6619202764705,-0.74,-0.3,-0.01,-0.0014228908518171268,0.7984973233403001,50,5,188
1675214343670.0,2023-02-01 09:19:03:704807,202.16,-0.42,-0.71,3.5283575858466363,-0.007330382796080269,-0.01239183758384998,-0.07216,-0.21743,-0.33635000000000004,-0.1240484,0.5626768,9.7638086,31.030667157000003,121.44342711600001,16.09,351439.06760544516,3434041.0659242226,182.98760544514516,261.6559242224321,-0.75,-0.31,-0.01,0.0042058718984065435,0.8115308439249702,50,5,188
1675214343690.0,2023-02-01 09:19:03:724804,202.15,-0.42,-0.71,3.5281830529229206,-0.007330382796080269,-0.01239183758384998,-0.07206,-0.23747000000000001,-0.3214,-0.11244520000000001,0.5633138,9.7073116,31.030667100000002,121.44342695700001,16.09,351439.0523400519,3434041.0598186613,182.97234005189966,261.64981866115704,-0.76,-0.31,-0.01,0.000577184276789211,0.8207920972196983,50,5,188
1675214343710.0,2023-02-01 09:19:03:744817,202.15,-0.43,-0.72,3.5281830529229206,-0.007504915719796466,-0.012566370507566177,-0.13331,-0.20798000000000003,-0.31509000000000004,-0.1278508,0.5204584,9.7656118,31.030667043,121.44342679600001,16.09,351439.03688375343,3434041.0537157725,182.95688375341706,261.64371577231213,-0.77,-0.32,-0.01,0.006068857587239407,0.833824423345578,50,5,188
1675214343730.0,2023-02-01 09:19:03:764799,202.14,-0.43,-0.72,3.528008519999204,-0.007504915719796466,-0.012566370507566177,-0.24759000000000003,-0.10459,-0.34773000000000004,-0.11875640000000001,0.5407836,9.821217,31.030666985000003,121.443426633,16.089,351439.0212349996,3434041.0475047133,182.94123499956913,261.63750471314415,-0.78,-0.32,-0.01,0.0024456774821320915,0.8430860090534379,50,5,188
1675214343750.0,2023-02-01 09:19:03:784805,202.13,-0.44,-0.72,3.527833987075488,-0.0076794486435126635,-0.012566370507566177,-0.22337,0.02075,-0.35246000000000005,-0.11802140000000001,0.5767006,9.84263,31.030666927000002,121.44342646800001,16.089,351439.00539534056,3434041.0412963303,182.9253953405423,261.6312963301316,-0.78,-0.32,-0.01,0.0025928237102395,0.8430855693612647,50,5,188
1675214343770.0,2023-02-01 09:19:03:804801,202.12,-0.44,-0.72,3.5276594541517716,-0.0076794486435126635,-0.012566370507566177,-0.14635,0.030480000000000004,-0.38172,-0.1326332,0.5510246000000001,9.8748622,31.030666867,121.443426301,16.089,351438.9893616709,3434041.03486893,182.90936167089967,261.6248689298518,-0.79,-0.33,-0.01,0.008238466126661403,0.856114552893408,50,5,188
1675214343790.0,2023-02-01 09:19:03:824791,202.12,-0.44,-0.72,3.5276594541517716,-0.0076794486435126635,-0.012566370507566177,-0.20633,0.010360000000000001,-0.3416,-0.1561042,0.6080116000000001,9.831291400000001,31.030666807000003,121.443426133,16.089,351438.97323254996,3434041.028442867,182.89323254994815,261.6184428669512,-0.8,-0.33,0.0,0.004472989807223993,0.8653785254801419,50,5,188
1675214343810.0,2023-02-01 09:19:03:844806,202.10999999999999,-0.45,-0.72,3.5274849212280555,-0.00785398156722886,-0.012566370507566177,-0.15645,-0.013890000000000001,-0.36553,-0.1780562,0.6600888,9.8144354,31.030666755000002,121.44342593200001,16.088,351438.9539659322,3434041.0229476886,182.87396593217272,261.612947688438,-0.8200000000000001,-0.33,0.0,-0.0029036920052438187,0.8839069909061352,50,5,188
1675214343830.0,2023-02-01 09:19:03:864803,202.1,-0.45,-0.72,3.5273103883043393,-0.00785398156722886,-0.012566370507566177,-0.12511,-0.08635000000000001,-0.40332,-0.16550240000000002,0.6344814,9.7992846,31.0306667,121.443425751,16.088,351438.93660369766,3434041.0170932324,182.85660369764082,261.6070932322182,-0.8300000000000001,-0.34,0.0,0.0027536229774552945,0.8969350130084667,50,5,188
1675214343850.0,2023-02-01 09:19:03:884774,202.1,-0.45,-0.72,3.5273103883043393,-0.00785398156722886,-0.012566370507566177,-0.23289,-0.11264,-0.39384,-0.171059,0.7079128,9.800842800000002,31.030666638000003,121.443425575,16.088,351438.91970785306,3434041.0104561765,182.83970785303973,261.6004561763257,-0.84,-0.34,0.0,-0.001008619376200226,0.9062002994299626,50,5,188
1675214343870.0,2023-02-01 09:19:03:904808,202.09,-0.46,-0.72,3.527135855380623,-0.008028514490945058,-0.012566370507566177,-0.14157,-0.04973,-0.41374000000000005,-0.16411080000000003,0.7215544,9.761339,31.030666575,121.44342539600001,16.088,351438.9025241018,3434041.0037122867,182.82252410176443,261.593712286558,-0.85,-0.35000000000000003,0.0,0.004654860142789652,0.9192270297793962,50,5,188
1675214343890.0,2023-02-01 09:19:03:924741,202.07999999999998,-0.46,-0.72,3.5269613224569065,-0.008028514490945058,-0.012566370507566177,-0.14503000000000002,-0.03944,-0.42853,-0.161945,0.7120582000000001,9.811975600000002,31.030666511000003,121.44342521600001,16.087,351438.8852433439,3434040.9968588906,182.80524334387155,261.586858890485,-0.86,-0.35000000000000003,0.0,0.0010562875226883262,0.9284928024797334,50,5,188
1675214343910.0,2023-02-01 09:19:03:944726,202.07,-0.46,-0.72,3.526786789533191,-0.008028514490945058,-0.012566370507566177,-0.17253000000000002,0.0061,-0.42516000000000004,-0.16026920000000003,0.7510622,9.7870738,31.030666447,121.44342503200001,16.087,351438.86758077814,3434040.9900108413,182.7875807781238,261.58001084113494,-0.88,-0.35000000000000003,0.0,-0.006296441021901911,0.9470271140946587,50,5,188
1675214343930.0,2023-02-01 09:19:03:964795,202.06,-0.46,-0.72,3.5266122566094746,-0.008028514490945058,-0.012566370507566177,-0.10568000000000001,0.00068,-0.43783000000000005,-0.163415,0.7457604,9.753891,31.030666382000003,121.44342484600001,16.087,351438.84972575697,3434040.983054622,182.76972575695254,261.57305462192744,-0.89,-0.36,0.0,-0.0006190158589923223,0.9600518823581183,50,5,188
1675214343950.0,2023-02-01 09:19:03:984705,202.04999999999998,-0.47000000000000003,-0.72,3.526437723685758,-0.008203047414661255,-0.012566370507566177,-0.11664000000000001,0.01502,-0.44495,-0.1536836,0.7657818000000001,9.769620000000002,31.030666316,121.44342465700001,16.087,351438.83158282423,3434040.9759915685,182.75158282421762,261.5659915683791,-0.9,-0.36,0.0,-0.004205610622952494,0.9693205418432481,50,5,188
1675214343970.0,2023-02-01 09:19:04:004814,202.04,-0.47000000000000003,-0.72,3.526263190762042,-0.008203047414661255,-0.012566370507566177,-0.07052,-0.01417,-0.42216000000000004,-0.1468824,0.7802858,9.7901804,31.030666249000003,121.44342446600001,16.087,351438.81324743596,3434040.9688203447,182.73324743594276,261.5588203445077,-0.91,-0.37,0.0,0.001480251232511165,0.9823430199560074,50,5,188
1675214343990.0,2023-02-01 09:19:04:024827,202.03,-0.47000000000000003,-0.72,3.526088657838326,-0.008203047414661255,-0.012566370507566177,0.07209,-0.029540000000000004,-0.45992000000000005,-0.1177078,0.7455252000000001,9.862465199999999,31.030666181,121.44342427100001,16.087,351438.7945286847,3434040.9615436243,182.71452868467895,261.5515436241403,-0.93,-0.37,0.0,-0.005850137323470783,1.0008824985448075,50,5,188
1675214344010.0,2023-02-01 09:19:04:044803,202.01999999999998,-0.47000000000000003,-0.72,3.5259141249146095,-0.008203047414661255,-0.012566370507566177,0.01365,0.004600000000000001,-0.48571000000000003,-0.106183,0.7394100000000001,9.871638,31.030666113000002,121.44342407500001,16.086000000000002,351438.77571448206,3434040.9542682413,182.69571448204806,261.54426824115217,-0.9400000000000001,-0.38,0.0,-0.00015422172730250594,1.0139033367218293,50,5,188
1675214344030.0,2023-02-01 09:19:04:064875,202.01,-0.46,-0.72,3.5257395919908934,-0.008028514490945058,-0.012566370507566177,0.11869,0.07148,-0.5073500000000001,-0.16417940000000003,0.7536298,9.841816600000001,31.030666064000002,121.44342384400001,16.086000000000002,351438.75358895765,3434040.9491457115,182.67358895763755,261.53914571134374,-0.9500000000000001,-0.38,0.0,-0.0037249460525355937,1.0231745329008664,50,5,188
1675214344050.0,2023-02-01 09:19:04:084859,202.0,-0.46,-0.71,3.525565059067177,-0.008028514490945058,-0.01239183758384998,0.12493000000000001,0.27903,-0.4791,-0.20051780000000002,0.794829,9.8626906,31.030665993000003,121.44342364200001,16.086000000000002,351438.7341973863,3434040.9415458157,182.65419738629134,261.5315458155237,-0.97,-0.39,0.0,-0.0017666610088281076,1.0454649104149214,50,5,188
1675214344070.0,2023-02-01 09:19:04:104819,201.98999999999998,-0.46,-0.71,3.5253905261434606,-0.008028514490945058,-0.01239183758384998,0.18929,0.29301000000000005,-0.44455000000000006,-0.20786780000000002,0.8622333999999999,9.826528600000001,31.030665922,121.443423436,16.086000000000002,351438.71442400216,3434040.9339512694,182.63442400214262,261.52395126922056,-0.98,-0.39,0.0,-0.0053286402935942,1.0547376951605651,50,5,188
1675214344090.0,2023-02-01 09:19:04:124850,201.98999999999998,-0.45,-0.7000000000000001,3.5253905261434606,-0.00785398156722886,-0.012217304660133784,0.27802000000000004,0.19764,-0.42296000000000006,-0.208789,0.9045302,9.7901804,31.030665850000002,121.44342322800001,16.086000000000002,351438.694458165,3434040.926248552,182.6144581649569,261.516248551663,-1.0,-0.4,0.0,-0.0035450426815297753,1.0770271271757208,50,5,188
1675214344110.0,2023-02-01 09:19:04:144805,201.98,-0.45,-0.7000000000000001,3.525215993219745,-0.00785398156722886,-0.012217304660133784,0.31293000000000004,0.12298,-0.39019000000000004,-0.2463916,0.9548434,9.817934000000001,31.030665777000003,121.44342301600001,16.086000000000002,351438.674108965,3434040.918440338,182.59410896495683,261.50844033807516,-1.01,-0.4,0.0,-0.0070998948810490625,1.0863008752149093,50,5,188
1675214344130.0,2023-02-01 09:19:04:164829,201.97,-0.44,-0.7000000000000001,3.5250414602960287,-0.0076794486435126635,-0.012217304660133784,0.30765000000000003,0.055450000000000006,-0.35437,-0.16459100000000002,1.022581,9.7357218,31.030665703,121.44342280000001,16.086000000000002,351438.6533764018,3434040.9105266277,182.5733764017932,261.5005266275257,-1.03,-0.41000000000000003,0.0,-0.00511892152336868,1.108590905899213,50,5,188
1675214344150.0,2023-02-01 09:19:04:184711,201.96,-0.43,-0.7000000000000001,3.5248669273723126,-0.007504915719796466,-0.012217304660133784,0.25051,0.12593000000000001,-0.29962,-0.0804188,1.0314402,9.722815200000001,31.030665628,121.44342258,16.086000000000002,351438.6322604781,3434040.902507421,182.55226047808537,261.4925074209459,-1.05,-0.42,0.0,-0.0031301677481215817,1.1308802775050366,50,5,188
1675214344170.0,2023-02-01 09:19:04:204725,201.96,-0.43,-0.6900000000000001,3.5248669273723126,-0.007504915719796466,-0.012042771736417587,0.23935,0.20875000000000002,-0.3865,-0.0983234,1.001903,9.6876822,31.030665551000002,121.443422357,16.086000000000002,351438.61085509486,3434040.894270535,182.53085509483935,261.4842705349438,-1.07,-0.42,0.0,-0.010609351307237114,1.1494291807957722,50,5,188
1675214344190.0,2023-02-01 09:19:04:224721,201.95,-0.42,-0.6900000000000001,3.524692394448596,-0.007330382796080269,-0.012042771736417587,0.27485000000000004,0.2785,-0.45896000000000003,-0.1384446,1.001511,9.6389468,31.030665474000003,121.443422131,16.086000000000002,351438.58916335274,3434040.886037661,182.50916335271904,261.4760376610793,-1.08,-0.43,0.0,-0.004871606750590507,1.1624440921814982,50,5,188
1675214344210.0,2023-02-01 09:19:04:244699,201.94,-0.42,-0.68,3.5245178615248802,-0.007330382796080269,-0.01186823881270139,0.19776000000000002,0.19618000000000002,-0.43993000000000004,-0.088886,0.9979437999999999,9.6339096,31.030665399000004,121.44342186700001,16.086000000000002,351438.5638475381,3434040.878077287,182.4838475380675,261.4680772870779,-1.1,-0.44,-0.01,-0.0028656737822172484,1.184732791777865,50,5,188
1675214344230.0,2023-02-01 09:19:04:264708,201.93,-0.41000000000000003,-0.68,3.524343328601164,-0.007155849872364073,-0.01186823881270139,0.20896,0.138,-0.52369,-0.10645740000000001,0.9815680000000001,9.649031,31.030665319,121.44342161700001,16.086000000000002,351438.5398602884,3434040.8695439696,182.45986028836342,261.4595439694822,-1.12,-0.45,-0.01,-0.0008519607933920037,1.207020825902688,50,5,188
1675214344250.0,2023-02-01 09:19:04:284807,201.92,-0.41000000000000003,-0.68,3.5241687956774475,-0.007155849872364073,-0.01186823881270139,0.09276000000000001,0.07784,-0.5470900000000001,-0.1428448,0.9938768,9.6799598,31.030665237,121.44342137900001,16.086000000000002,351438.5170153589,3434040.860772916,182.4370153588825,261.4507729159668,-1.1400000000000001,-0.45,-0.01,-0.00810752806799736,1.2255750764390678,50,5,188
1675214344270.0,2023-02-01 09:19:04:304713,201.91,-0.41000000000000003,-0.68,3.5239942627537313,-0.007155849872364073,-0.01186823881270139,-0.031560000000000005,-0.00088,-0.5674800000000001,-0.11265100000000002,0.9748354,9.7151516,31.030665154,121.443421138,16.086000000000002,351438.4938825178,3434040.851895029,182.4138825177797,261.4418950290419,-1.1500000000000001,-0.46,-0.01,-0.002347410092182145,1.2385856811968479,50,5,188
1675214344290.0,2023-02-01 09:19:04:324749,201.89,-0.41000000000000003,-0.68,3.523645196906299,-0.007155849872364073,-0.01186823881270139,0.014730000000000002,0.014790000000000001,-0.61101,-0.1283604,0.9807448000000001,9.7662978,31.03066507,121.44342089300001,16.085,351438.47036631615,3434040.8429116453,182.3903663161327,261.4329116451554,-1.17,-0.47000000000000003,-0.01,-9.256472440938301e-05,1.2608727102415103,50,5,188
1675214344310.0,2023-02-01 09:19:04:344492,201.88,-0.41000000000000003,-0.68,3.523470663982583,-0.007155849872364073,-0.01186823881270139,-0.057280000000000005,0.03858,-0.60192,-0.1645714,0.9795982,9.7701982,31.030664984,121.443420645,16.085,351438.4465606549,3434040.8337105843,182.36656065488933,261.42371058417484,-1.19,-0.47000000000000003,-0.01,-0.007325778045985387,1.279432035309426,50,5,188
1675214344330.0,2023-02-01 09:19:04:364832,201.87,-0.41000000000000003,-0.67,3.523296131058867,-0.007155849872364073,-0.011693705888985193,0.06992000000000001,0.07171000000000001,-0.5936100000000001,-0.14961660000000002,0.9693082000000001,9.7588498,31.030664898,121.44342039300001,16.085,351438.4223731834,3434040.8245148705,182.34237318340456,261.41451487038285,-1.2,-0.48,-0.01,-0.001547179481242944,1.2924386276476159,50,5,188
1675214344350.0,2023-02-01 09:19:04:384825,201.85999999999999,-0.41000000000000003,-0.67,3.5231215981351505,-0.007155849872364073,-0.011693705888985193,-0.032330000000000005,-0.0004900000000000001,-0.57362,-0.13054580000000002,1.0319302,9.752078000000001,31.03066481,121.443420137,16.084,351438.3978007985,3434040.815102815,182.3178007985116,261.4051028150134,-1.22,-0.49,-0.01,0.0005125597278364258,1.3147242057871016,50,5,188
1675214344370.0,2023-02-01 09:19:04:404845,201.85,-0.41000000000000003,-0.67,3.5229470652114343,-0.007155849872364073,-0.011693705888985193,-0.01812,0.08062000000000001,-0.60045,-0.1492834,1.0005702,9.754557400000001,31.030664721,121.44341987800001,16.084,351438.37294050446,3434040.805583927,182.2929405044415,261.39558392670006,-1.24,-0.49,-0.01,-0.006701536081409554,1.3332873244031644,50,5,188
1675214344390.0,2023-02-01 09:19:04:424885,201.84,-0.41000000000000003,-0.68,3.522772532287718,-0.007155849872364073,-0.01186823881270139,-0.021390000000000003,-0.19619,-0.58509,-0.11368980000000001,0.9070978,9.844599800000001,31.03066463,121.44341961500001,16.083000000000002,351438.3476952945,3434040.7958486974,182.26769529446028,261.3858486972749,-1.25,-0.5,-0.01,-0.0009067291904774066,1.3462908964418407,50,5,188
1675214344410.0,2023-02-01 09:19:04:444841,201.82,-0.42,-0.68,3.522423466440286,-0.007330382796080269,-0.01186823881270139,-0.23103,-0.25001,-0.6583300000000001,-0.12887980000000002,0.9082836000000001,9.773834,31.030664545,121.44341931700001,16.083000000000002,351438.3191185796,3434040.786825337,182.23911857960047,261.37682533683255,-1.27,-0.51,-0.01,0.001412938767551275,1.3685751727998134,50,5,188
1675214344430.0,2023-02-01 09:19:04:464830,201.81,-0.42,-0.6900000000000001,3.5222489335165696,-0.007330382796080269,-0.012042771736417587,-0.18865,-0.25922,-0.60945,-0.1334466,0.8663690000000001,9.7624856,31.030664461,121.443419039,16.083000000000002,351438.29245245643,3434040.7778860796,182.2124524564133,261.3678860794753,-1.29,-0.51,-0.01,-0.005778796897946137,1.387143325509809,50,5,188
1675214344450.0,2023-02-01 09:19:04:484812,201.79999999999998,-0.43,-0.6900000000000001,3.522074400592853,-0.007504915719796466,-0.012042771736417587,-0.29426,-0.27124000000000004,-0.56849,-0.139013,0.8205932000000001,9.8785372,31.030664368000004,121.44341876600001,16.083000000000002,351438.26624962257,3434040.767942532,182.18624962255126,261.35794253181666,-1.3,-0.52,-0.01,3.4485671431161435e-05,1.4001428494302781,50,5,188
1675214344470.0,2023-02-01 09:19:04:504823,201.79,-0.44,-0.7000000000000001,3.521899867669137,-0.0076794486435126635,-0.012217304660133784,-0.46461,-0.33972,-0.54627,-0.1808394,0.9224348000000001,9.822510600000001,31.030664273000003,121.443418491,16.082,351438.2398527757,3434040.7577799684,182.1598527756869,261.3477799682878,-1.32,-0.52,-0.01,-0.007145258320317427,1.418713834881276,50,5,188
1675214344490.0,2023-02-01 09:19:04:524838,201.78,-0.45,-0.71,3.521725334745421,-0.00785398156722886,-0.01239183758384998,-0.39823000000000003,-0.48697,-0.52453,-0.16696260000000002,0.9486498000000001,9.8316148,31.030664178000002,121.44341821200001,16.082,351438.2130741233,3434040.7476227526,182.13307412329596,261.33762275241315,-1.33,-0.53,-0.01,-0.0013219286312171064,1.4317116513127546,50,5,188
1675214344510.0,2023-02-01 09:19:04:544817,201.76999999999998,-0.46,-0.72,3.5215508018217045,-0.008028514490945058,-0.012566370507566177,-0.5405300000000001,-0.39769000000000004,-0.46949,-0.1347794,0.9328228,9.887808,31.030664081,121.443417929,16.082,351438.1859105552,3434040.7372491946,182.10591055516852,261.3272491944954,-1.35,-0.54,-0.01,0.0007971217358540006,1.4539942794237322,50,5,188
1675214344530.0,2023-02-01 09:19:04:564830,201.76,-0.47000000000000003,-0.72,3.5213762688979884,-0.008203047414661255,-0.012566370507566177,-0.46484000000000003,-0.34086000000000005,-0.49046000000000006,-0.1215886,0.9953566,9.8694722,31.030663983,121.443417643,16.082,351438.1584590777,3434040.7267688047,182.07845907768933,261.3167688045651,-1.37,-0.54,-0.01,-0.006363498643319088,1.4725690156610716,50,5,188
1675214344550.0,2023-02-01 09:19:04:584765,201.75,-0.47000000000000003,-0.73,3.521201735974272,-0.008203047414661255,-0.012740903431282374,-0.33535000000000004,-0.28107000000000004,-0.5576500000000001,-0.12830160000000002,0.9728754000000001,9.866385200000002,31.030663884000003,121.443417354,16.081,351438.1307196935,3434040.7161815804,182.05071969347773,261.3061815802939,-1.3800000000000001,-0.55,0.0,-0.0005239652295778718,1.4855637736093454,50,5,188
1675214344570.0,2023-02-01 09:19:04:604811,201.73999999999998,-0.48,-0.73,3.521027203050556,-0.00837758033837745,-0.012740903431282374,-0.23861000000000002,-0.28881,-0.57857,-0.1153166,0.9667308,9.8956578,31.030663783,121.443417061,16.081,351438.10259539343,3434040.705378016,182.0225953934132,261.2953780158423,-1.4000000000000001,-0.56,0.0,0.0016161508841989747,1.5078452798799749,50,5,188
1675214344590.0,2023-02-01 09:19:04:624446,201.72,-0.48,-0.74,3.5206781372031237,-0.00837758033837745,-0.012915436354998571,-0.097,-0.28831,-0.54152,-0.15990659999999998,0.9694356000000001,9.795786,31.030663682000004,121.44341676500001,16.081,351438.0741847368,3434040.6945784623,181.9941847368027,261.2845784621313,-1.41,-0.56,0.0,-0.0015582222884987784,1.517134658474092,50,5,188
1675214344610.0,2023-02-01 09:19:04:644790,201.71,-0.48,-0.75,3.5205036042794076,-0.00837758033837745,-0.013089969278714768,0.07583000000000001,-0.38526000000000005,-0.60677,-0.1629642,0.9615466,9.877821800000001,31.030663585000003,121.443416435,16.081,351438.04253491864,3434040.684267751,181.96253491862444,261.2742677507922,-1.43,-0.5700000000000001,0.0,0.0005990702747554755,1.5394153569179454,50,5,188
1675214344630.0,2023-02-01 09:19:04:664787,201.7,-0.47000000000000003,-0.76,3.5203290713556914,-0.008203047414661255,-0.013264502202430964,0.18825000000000003,-0.5042300000000001,-0.64617,-0.138964,0.909293,9.903635000000001,31.030663497000003,121.443416134,16.080000000000002,351438.013667186,3434040.674915867,181.93366718600737,261.2649158667773,-1.45,-0.5700000000000001,0.0,-0.006527185662218327,1.5579978805657377,50,5,188
1675214344650.0,2023-02-01 09:19:04:684717,201.69,-0.47000000000000003,-0.77,3.5201545384319752,-0.008203047414661255,-0.01343903512614716,0.2962,-0.6006,-0.7187600000000001,-0.11241580000000001,0.8989932,9.8390334,31.030663392,121.44341582800001,16.080000000000002,351437.9842957975,3434040.6636863044,181.90429579745978,261.25368630420417,-1.46,-0.58,0.0,-0.0006591382209311103,1.570986812655283,50,5,188
1675214344670.0,2023-02-01 09:19:04:704818,201.67,-0.46,-0.78,3.5198054725845425,-0.008028514490945058,-0.013613568049863358,0.26270000000000004,-0.66995,-0.7651300000000001,-0.131271,0.9420152,9.6715906,31.030663286000003,121.44341551800001,16.080000000000002,351437.9545410484,3434040.652351246,181.87454104836797,261.2423512460664,-1.48,-0.59,0.0,0.0017972964699854987,1.593266069972432,50,5,188
1675214344690.0,2023-02-01 09:19:04:724817,201.65,-0.46,-0.79,3.5194564067371106,-0.008028514490945058,-0.013788100973579555,0.29649000000000003,-0.64609,-0.7697400000000001,-0.1640912,0.9365958,9.7598004,31.030663178,121.44341520500001,16.079,351437.92449683475,3434040.6407985096,181.84449683473213,261.2307985094376,-1.49,-0.59,0.0,-0.0013359065565079487,1.6025598944668722,50,5,188
1675214344710.0,2023-02-01 09:19:04:744804,201.64,-0.45,-0.8,3.519281873813394,-0.00785398156722886,-0.013962633897295752,0.19016000000000002,-0.5018600000000001,-0.7819600000000001,-0.1766058,0.9273642,9.7189834,31.030663070000003,121.44341488900001,16.079,351437.894166267,3434040.629249784,181.81416626699502,261.2192497840151,-1.51,-0.6,0.0,0.0008635148043728558,1.6248382240525308,50,5,188
1675214344730.0,2023-02-01 09:19:04:764816,201.62,-0.45,-0.81,3.518932807965962,-0.00785398156722886,-0.014137166821011949,0.08722,-0.46578,-0.7628400000000001,-0.1918252,0.9635948000000001,9.626108799999999,31.030662961,121.44341456900001,16.079,351437.8634523362,3434040.617595561,181.78345233621076,261.2075955606997,-1.53,-0.61,0.0,0.003358188564020592,1.6471152730059815,50,5,188
1675214344750.0,2023-02-01 09:19:04:784797,201.60999999999999,-0.45,-0.8200000000000001,3.5187582750422455,-0.00785398156722886,-0.014311699744728146,0.02417,-0.35876,-0.7568100000000001,-0.2014978,0.958979,9.6035786,31.030662850000002,121.443414246,16.079,351437.8324489434,3434040.6057236614,181.7524489433854,261.19572366122156,-1.54,-0.61,-0.01,-3.720360314296567e-05,1.6564117841333694,50,5,188
