gps_time,utc_time,heading,pitch,roll,heading_radians,pitch_radians,roll_radians,gyroX,gyroY,gyroZ,accX,accY,accZ,latitude,longitude,altitude,utm_x_position,utm_y_position,local_x,local_y,east_speed,north_speed,vertical_speed,vehicle_lat_speed,vehicle_lon_speed,position_type,GNSS_info1,GNSS_info2
1676425967925.0,2023-02-15 09:52:47:913199,197.37,0.65,0.9500000000000001,3.444756315386578,0.011344640041552799,0.016580627753038705,-0.018410000000000003,0.010620000000000001,0.02324,0.1613766,-0.121324,9.787799,31.030693069,121.44346275900001,16.323,351442.51003895886,3434043.890480616,186.43003895884613,264.4804806159809,0.0,0.0,0.0,0.0,-0.0,50,0,188
1676425967945.0,2023-02-15 09:52:47:929170,197.37,0.65,0.9500000000000001,3.444756315386578,0.011344640041552799,0.016580627753038705,0.00487,0.010230000000000001,-0.01853,0.1625526,-0.1205302,9.789612,31.030693069,121.44346275900001,16.323,351442.51003895886,3434043.890480616,186.43003895884613,264.4804806159809,0.0,0.0,0.0,0.0,-0.0,50,0,188
1676425967965.0,2023-02-15 09:52:47:949166,197.37,0.65,0.9500000000000001,3.444756315386578,0.011344640041552799,0.016580627753038705,0.01644,0.00918,-0.0049900000000000005,0.1630328,-0.121618,9.787211000000001,31.030693069,121.44346275900001,16.323,351442.51003895886,3434043.890480616,186.43003895884613,264.4804806159809,0.0,0.0,0.0,0.0,-0.0,50,0,188
1676425967985.0,2023-02-15 09:52:47:969163,197.37,0.65,0.9500000000000001,3.444756315386578,0.011344640041552799,0.016580627753038705,0.01306,-0.025820000000000003,-0.00238,0.1642284,-0.1191582,9.7872894,31.030693069,121.44346275900001,16.323,351442.51003895886,3434043.890480616,186.43003895884613,264.4804806159809,0.0,0.0,0.0,0.0,-0.0,50,0,188
1676425968005.0,2023-02-15 09:52:47:989168,197.37,0.65,0.9500000000000001,3.444756315386578,0.011344640041552799,0.016580627753038705,-0.01161,-0.029570000000000003,-0.012220000000000002,0.1659826,-0.12060860000000001,9.7882988,31.030693069,121.44346275900001,16.323,351442.51003895886,3434043.890480616,186.43003895884613,264.4804806159809,0.0,0.0,0.0,0.0,-0.0,50,0,188
1676425968025.0,2023-02-15 09:52:48:009170,197.38,0.65,0.9500000000000001,3.4449308483102943,0.011344640041552799,0.016580627753038705,0.03364,-0.00871,-0.0046700000000000005,0.16971640000000002,-0.1215788,9.790935,31.030693068,121.443462757,16.323,351442.50984650105,3434043.8903724444,186.42984650103608,264.48037244426087,0.0,0.0,0.0,0.0,-0.0,50,0,188
1676425968045.0,2023-02-15 09:52:48:029156,197.38,0.65,0.9500000000000001,3.4449308483102943,0.011344640041552799,0.016580627753038705,0.04968,-0.020610000000000003,0.004730000000000001,0.1698144,-0.12262740000000001,9.7861624,31.030693068,121.443462757,16.323,351442.50984650105,3434043.8903724444,186.42984650103608,264.48037244426087,0.0,0.0,0.0,0.0,-0.0,50,0,188
1676425968065.0,2023-02-15 09:52:48:049196,197.38,0.65,0.9500000000000001,3.4449308483102943,0.011344640041552799,0.016580627753038705,0.0018100000000000002,0.02569,-0.02187,0.1680798,-0.1205106,9.7903862,31.030693068,121.443462757,16.323,351442.50984650105,3434043.8903724444,186.42984650103608,264.48037244426087,0.0,0.0,0.0,0.0,-0.0,50,0,188
1676425968085.0,2023-02-15 09:52:48:069173,197.38,0.65,0.9500000000000001,3.4449308483102943,0.011344640041552799,0.016580627753038705,0.0035,0.022830000000000003,0.012700000000000001,0.1663354,-0.1202362,9.7898178,31.030693068,121.443462757,16.323,351442.50984650105,3434043.8903724444,186.42984650103608,264.48037244426087,0.0,0.0,0.0,0.0,-0.0,50,0,188
1676425968105.0,2023-02-15 09:52:48:089166,197.38,0.65,0.9500000000000001,3.4449308483102943,0.011344640041552799,0.016580627753038705,0.011630000000000001,0.01238,0.039810000000000005,0.16312100000000002,-0.1193346,9.7922874,31.030693068,121.443462757,16.323,351442.50984650105,3434043.8903724444,186.42984650103608,264.48037244426087,0.0,0.0,0.0,0.0,-0.0,50,0,188
1676425968125.0,2023-02-15 09:52:48:109155,197.38,0.65,0.9500000000000001,3.4449308483102943,0.011344640041552799,0.016580627753038705,0.01633,0.050760000000000007,0.0056500000000000005,0.16310139999999998,-0.11943260000000001,9.7904842,31.030693068,121.443462757,16.323,351442.50984650105,3434043.8903724444,186.42984650103608,264.48037244426087,0.0,0.0,0.0,0.0,-0.0,50,0,188
1676425968145.0,2023-02-15 09:52:48:129159,197.38,0.65,0.9500000000000001,3.4449308483102943,0.011344640041552799,0.016580627753038705,-0.02177,-0.005110000000000001,0.012100000000000001,0.1644244,-0.11404260000000001,9.7895336,31.030693068,121.443462757,16.323,351442.50984650105,3434043.8903724444,186.42984650103608,264.48037244426087,0.0,0.0,0.0,0.0,-0.0,50,0,188
1676425968165.0,2023-02-15 09:52:48:149149,197.38,0.65,0.9500000000000001,3.4449308483102943,0.011344640041552799,0.016580627753038705,-0.012790000000000001,-0.013420000000000001,0.03409,0.16526720000000003,-0.11435619999999999,9.7856626,31.030693068,121.443462757,16.323,351442.50984650105,3434043.8903724444,186.42984650103608,264.48037244426087,0.0,0.0,0.0,0.0,-0.0,50,0,188
1676425968185.0,2023-02-15 09:52:48:169161,197.38,0.65,0.9500000000000001,3.4449308483102943,0.011344640041552799,0.016580627753038705,-0.034010000000000006,0.02186,-0.0011400000000000002,0.1651398,-0.116326,9.7872012,31.030693068,121.443462757,16.323,351442.50984650105,3434043.8903724444,186.42984650103608,264.48037244426087,0.0,0.0,0.0,0.0,-0.0,50,0,188
1676425968205.0,2023-02-15 09:52:48:189156,197.38,0.65,0.9500000000000001,3.4449308483102943,0.011344640041552799,0.016580627753038705,-0.031170000000000003,0.004690000000000001,0.00615,0.1671194,-0.1214514,9.7900138,31.030693068,121.443462757,16.323,351442.50984650105,3434043.8903724444,186.42984650103608,264.48037244426087,0.0,0.0,0.0,0.0,-0.0,50,0,188
1676425968225.0,2023-02-15 09:52:48:209155,197.38,0.65,0.9500000000000001,3.4449308483102943,0.011344640041552799,0.016580627753038705,0.028860000000000004,0.02086,-0.010220000000000002,0.1661296,-0.12403860000000001,9.7903862,31.030693067,121.44346275500001,16.323,351442.50965404575,3434043.890264273,186.42965404572897,264.48026427300647,0.0,0.0,0.0,0.0,-0.0,50,0,188
1676425968245.0,2023-02-15 09:52:48:229162,197.38,0.65,0.9500000000000001,3.4449308483102943,0.011344640041552799,0.016580627753038705,0.04186,-0.011670000000000002,0.008520000000000002,0.1728328,-0.12691,9.785986,31.030693067,121.44346275500001,16.323,351442.50965404575,3434043.890264273,186.42965404572897,264.48026427300647,0.0,0.0,0.0,0.0,-0.0,50,0,188
1676425968265.0,2023-02-15 09:52:48:249160,197.38,0.65,0.9500000000000001,3.4449308483102943,0.011344640041552799,0.016580627753038705,0.0037800000000000004,-0.005860000000000001,0.01497,0.176106,-0.1313592,9.7892004,31.030693067,121.44346275500001,16.323,351442.50965404575,3434043.890264273,186.42965404572897,264.48026427300647,0.0,0.0,0.0,0.0,-0.0,50,0,188
1676425968285.0,2023-02-15 09:52:48:269161,197.38,0.65,0.9500000000000001,3.4449308483102943,0.011344640041552799,0.016580627753038705,-0.00461,-0.0011300000000000001,0.02466,0.172921,-0.1333094,9.787730400000001,31.030693067,121.44346275500001,16.323,351442.50965404575,3434043.890264273,186.42965404572897,264.48026427300647,0.0,0.0,0.0,0.0,-0.0,50,0,188
1676425968305.0,2023-02-15 09:52:48:289155,197.38,0.65,0.9500000000000001,3.4449308483102943,0.011344640041552799,0.016580627753038705,-0.037700000000000004,0.00999,0.05349,0.1701868,-0.1285956,9.790151,31.030693067,121.44346275500001,16.323,351442.50965404575,3434043.890264273,186.42965404572897,264.48026427300647,0.0,0.0,0.0,0.0,-0.0,50,0,188
1676425968325.0,2023-02-15 09:52:48:309136,197.38,0.65,0.9500000000000001,3.4449308483102943,0.011344640041552799,0.016580627753038705,-0.0848,0.019370000000000002,0.019200000000000002,0.1605436,-0.1188054,9.7899844,31.030693067,121.44346275500001,16.323,351442.50965404575,3434043.890264273,186.42965404572897,264.48026427300647,0.0,0.0,0.0,0.0,-0.0,50,0,188
1676425968345.0,2023-02-15 09:52:48:329148,197.38,0.65,0.9500000000000001,3.4449308483102943,0.011344640041552799,0.016580627753038705,-0.047150000000000004,-0.0059900000000000005,0.02297,0.1518706,-0.110103,9.790601800000001,31.030693067,121.44346275500001,16.323,351442.50965404575,3434043.890264273,186.42965404572897,264.48026427300647,0.0,0.0,0.0,0.0,-0.0,50,0,188
1676425968365.0,2023-02-15 09:52:48:349146,197.38,0.65,0.9500000000000001,3.4449308483102943,0.011344640041552799,0.016580627753038705,0.049170000000000005,0.01247,0.03332,0.146951,-0.1045268,9.7899158,31.030693067,121.44346275500001,16.323,351442.50965404575,3434043.890264273,186.42965404572897,264.48026427300647,0.0,0.0,0.0,0.0,-0.0,50,0,188
1676425968385.0,2023-02-15 09:52:48:369159,197.38,0.65,0.9500000000000001,3.4449308483102943,0.011344640041552799,0.016580627753038705,-0.03252,0.029890000000000003,-0.017320000000000002,0.1442658,-0.09967580000000001,9.788710400000001,31.030693067,121.44346275500001,16.323,351442.50965404575,3434043.890264273,186.42965404572897,264.48026427300647,0.0,0.0,0.0,0.0,-0.0,50,0,188
1676425968405.0,2023-02-15 09:52:48:389135,197.38,0.65,0.9500000000000001,3.4449308483102943,0.011344640041552799,0.016580627753038705,-0.013590000000000001,-0.010350000000000002,-0.0388,0.1520274,-0.0989604,9.7903666,31.030693067,121.44346275500001,16.323,351442.50965404575,3434043.890264273,186.42965404572897,264.48026427300647,0.0,0.0,0.0,0.0,-0.0,50,0,188
1676425968425.0,2023-02-15 09:52:48:409150,197.38,0.65,0.9500000000000001,3.4449308483102943,0.011344640041552799,0.016580627753038705,-0.00269,0.014940000000000002,-0.025560000000000003,0.1576232,-0.1060654,9.788710400000001,31.030693067,121.44346275400001,16.323,351442.509558592,3434043.890265611,186.42955859197536,264.48026561085135,0.0,0.0,0.0,0.0,-0.0,50,0,188
1676425968445.0,2023-02-15 09:52:48:429152,197.38,0.65,0.9500000000000001,3.4449308483102943,0.011344640041552799,0.016580627753038705,0.011670000000000002,-0.0022500000000000003,-0.04054000000000001,0.1692166,-0.1190896,9.7905626,31.030693067,121.44346275400001,16.323,351442.509558592,3434043.890265611,186.42955859197536,264.48026561085135,0.0,0.0,0.0,0.0,-0.0,50,0,188
1676425968465.0,2023-02-15 09:52:48:449155,197.38,0.65,0.9500000000000001,3.4449308483102943,0.011344640041552799,0.016580627753038705,-0.017040000000000003,0.023440000000000003,-0.04336,0.1690794,-0.1142582,9.7850354,31.030693067,121.44346275400001,16.323,351442.509558592,3434043.890265611,186.42955859197536,264.48026561085135,0.0,0.0,0.0,0.0,-0.0,50,0,188
1676425968485.0,2023-02-15 09:52:48:469144,197.38,0.65,0.9500000000000001,3.4449308483102943,0.011344640041552799,0.016580627753038705,0.016970000000000002,0.034350000000000006,-0.004090000000000001,0.1824956,-0.1268316,9.783683,31.030693067,121.44346275400001,16.323,351442.509558592,3434043.890265611,186.42955859197536,264.48026561085135,0.0,0.0,0.0,0.0,-0.0,50,0,188
1676425968505.0,2023-02-15 09:52:48:489158,197.38,0.65,0.9500000000000001,3.4449308483102943,0.011344640041552799,0.016580627753038705,-0.014270000000000001,0.00177,-0.0008900000000000001,0.19820500000000002,-0.1449812,9.7957272,31.030693067,121.44346275400001,16.323,351442.509558592,3434043.890265611,186.42955859197536,264.48026561085135,0.0,0.0,0.0,0.0,-0.0,50,0,188
1676425968525.0,2023-02-15 09:52:48:509171,197.38,0.65,0.9500000000000001,3.4449308483102943,0.011344640041552799,0.016580627753038705,-0.030350000000000002,0.01762,0.01659,0.1992438,-0.1520568,9.8036064,31.030693067,121.44346275400001,16.323,351442.509558592,3434043.890265611,186.42955859197536,264.48026561085135,0.0,0.0,0.0,0.0,-0.0,50,0,188
1676425968545.0,2023-02-15 09:52:48:529164,197.38,0.65,0.9500000000000001,3.4449308483102943,0.011344640041552799,0.016580627753038705,-0.055850000000000004,-0.12129000000000001,0.04433,0.1977542,-0.1346226,9.783585,31.030693067,121.44346275400001,16.323,351442.509558592,3434043.890265611,186.42955859197536,264.48026561085135,0.0,0.0,0.0,0.0,-0.0,50,0,188
1676425968565.0,2023-02-15 09:52:48:549159,197.38,0.65,0.9500000000000001,3.4449308483102943,0.011344640041552799,0.016580627753038705,-0.00406,-0.032400000000000005,0.07,0.1692264,-0.1227744,9.767464,31.030693067,121.44346275400001,16.323,351442.509558592,3434043.890265611,186.42955859197536,264.48026561085135,0.0,0.0,0.0,0.0,-0.0,50,0,188
1676425968585.0,2023-02-15 09:52:48:569156,197.38,0.65,0.9500000000000001,3.4449308483102943,0.011344640041552799,0.016580627753038705,0.025370000000000004,-0.07392,0.017980000000000003,0.1509984,-0.1219022,9.7837124,31.030693067,121.44346275400001,16.323,351442.509558592,3434043.890265611,186.42955859197536,264.48026561085135,0.0,0.0,0.0,0.0,-0.0,50,0,188
1676425968605.0,2023-02-15 09:52:48:589157,197.38,0.65,0.9500000000000001,3.4449308483102943,0.011344640041552799,0.016580627753038705,-0.02654,-0.03232,0.03978,0.1439718,-0.1214122,9.807546,31.030693067,121.44346275400001,16.323,351442.509558592,3434043.890265611,186.42955859197536,264.48026561085135,0.0,0.0,0.0,0.0,-0.0,50,0,188
1676425968625.0,2023-02-15 09:52:48:609104,197.38,0.65,0.9400000000000001,3.4449308483102943,0.011344640041552799,0.01640609482932251,-0.08738000000000001,-0.026080000000000002,0.0064600000000000005,0.1385916,-0.11000499999999999,9.8004508,31.030693067,121.443462752,16.323,351442.50936768693,3434043.890268285,186.42936768691288,264.48026828467846,0.0,0.0,0.0,0.0,-0.0,50,0,188
1676425968645.0,2023-02-15 09:52:48:629223,197.38,0.65,0.9400000000000001,3.4449308483102943,0.011344640041552799,0.01640609482932251,-0.02298,-0.021310000000000003,-0.00023,0.13765080000000002,-0.0972944,9.775598,31.030693067,121.443462752,16.323,351442.50936768693,3434043.890268285,186.42936768691288,264.48026828467846,0.0,0.0,0.0,0.0,-0.0,50,0,188
1676425968665.0,2023-02-15 09:52:48:649159,197.38,0.65,0.9400000000000001,3.4449308483102943,0.011344640041552799,0.01640609482932251,0.04152,-0.01906,-0.05399,0.1324862,-0.0959812,9.7730108,31.030693067,121.443462752,16.323,351442.50936768693,3434043.890268285,186.42936768691288,264.48026828467846,0.0,0.0,0.0,0.0,-0.0,50,0,188
1676425968685.0,2023-02-15 09:52:48:669156,197.38,0.65,0.9500000000000001,3.4449308483102943,0.011344640041552799,0.016580627753038705,0.07446000000000001,0.06992000000000001,-0.039450000000000006,0.1468432,-0.1130822,9.7957076,31.030693067,121.443462752,16.323,351442.50936768693,3434043.890268285,186.42936768691288,264.48026828467846,0.0,0.0,0.0,0.0,-0.0,50,0,188
1676425968705.0,2023-02-15 09:52:48:689145,197.38,0.65,0.9500000000000001,3.4449308483102943,0.011344640041552799,0.016580627753038705,-0.03984,0.048330000000000005,-0.00969,0.1685698,-0.1276548,9.804498200000001,31.030693067,121.443462752,16.323,351442.50936768693,3434043.890268285,186.42936768691288,264.48026828467846,0.0,0.0,0.0,0.0,-0.0,50,0,188
1676425968725.0,2023-02-15 09:52:48:709172,197.38,0.65,0.9500000000000001,3.4449308483102943,0.011344640041552799,0.016580627753038705,-0.030270000000000002,0.04655,-0.0064,0.18717019999999998,-0.133035,9.788436,31.030693067,121.443462752,16.323,351442.50936768693,3434043.890268285,186.42936768691288,264.48026828467846,0.0,0.0,0.0,0.0,-0.0,50,0,188
1676425968745.0,2023-02-15 09:52:48:729156,197.38,0.65,0.9500000000000001,3.4449308483102943,0.011344640041552799,0.016580627753038705,0.029490000000000002,-0.00608,-0.022930000000000002,0.1974112,-0.1303988,9.775127600000001,31.030693067,121.443462752,16.323,351442.50936768693,3434043.890268285,186.42936768691288,264.48026828467846,0.0,0.0,0.0,0.0,-0.0,50,0,188
1676425968765.0,2023-02-15 09:52:48:749148,197.38,0.65,0.9500000000000001,3.4449308483102943,0.011344640041552799,0.016580627753038705,0.03615,0.02296,-0.011630000000000001,0.1932266,-0.1336524,9.7868778,31.030693067,121.443462752,16.323,351442.50936768693,3434043.890268285,186.42936768691288,264.48026828467846,0.0,0.0,0.0,0.0,-0.0,50,0,188
1676425968785.0,2023-02-15 09:52:48:769151,197.38,0.65,0.9500000000000001,3.4449308483102943,0.011344640041552799,0.016580627753038705,-0.0393,0.042640000000000004,0.04385000000000001,0.1896594,-0.1387778,9.800548800000001,31.030693067,121.443462752,16.323,351442.50936768693,3434043.890268285,186.42936768691288,264.48026828467846,0.0,0.0,0.0,0.0,-0.0,50,0,188
1676425968805.0,2023-02-15 09:52:48:789145,197.38,0.65,0.9500000000000001,3.4449308483102943,0.011344640041552799,0.016580627753038705,-0.0666,-0.013410000000000002,0.01417,0.1789382,-0.1290562,9.796550400000001,31.030693067,121.443462752,16.323,351442.50936768693,3434043.890268285,186.42936768691288,264.48026828467846,0.0,0.0,0.0,0.0,-0.0,50,0,188
1676425968825.0,2023-02-15 09:52:48:809143,197.38,0.65,0.9500000000000001,3.4449308483102943,0.011344640041552799,0.016580627753038705,-0.00282,-0.0063300000000000006,0.01948,0.16716840000000002,-0.1125922,9.7786654,31.030693066,121.44346275000001,16.322,351442.50917523156,3434043.890160114,186.42917523154756,264.4801601138897,0.0,0.0,0.0,0.0,-0.0,50,0,188
1676425968845.0,2023-02-15 09:52:48:829148,197.38,0.65,0.9500000000000001,3.4449308483102943,0.011344640041552799,0.016580627753038705,-0.0029200000000000003,-0.03205,0.026500000000000003,0.149009,-0.104272,9.7783616,31.030693066,121.44346275000001,16.322,351442.50917523156,3434043.890160114,186.42917523154756,264.4801601138897,0.0,0.0,0.0,0.0,-0.0,50,0,188
1676425968865.0,2023-02-15 09:52:48:849123,197.38,0.65,0.9500000000000001,3.4449308483102943,0.011344640041552799,0.016580627753038705,-0.02942,0.024020000000000003,0.020810000000000002,0.1341032,-0.10692779999999999,9.7932478,31.030693066,121.44346275000001,16.322,351442.50917523156,3434043.890160114,186.42917523154756,264.4801601138897,0.0,0.0,0.0,0.0,-0.0,50,0,188
1676425968885.0,2023-02-15 09:52:48:869167,197.38,0.65,0.9500000000000001,3.4449308483102943,0.011344640041552799,0.016580627753038705,0.026650000000000004,0.05036,0.00523,0.1339268,-0.111622,9.797922400000001,31.030693066,121.44346275000001,16.322,351442.50917523156,3434043.890160114,186.42917523154756,264.4801601138897,0.0,0.0,0.0,0.0,-0.0,50,0,188
1676425968905.0,2023-02-15 09:52:48:889140,197.38,0.65,0.9500000000000001,3.4449308483102943,0.011344640041552799,0.016580627753038705,-0.027190000000000002,0.08498000000000001,-0.025060000000000002,0.1428448,-0.11077920000000001,9.789768800000001,31.030693066,121.44346275000001,16.322,351442.50917523156,3434043.890160114,186.42917523154756,264.4801601138897,0.0,0.0,0.0,0.0,-0.0,50,0,188
1676425968925.0,2023-02-15 09:52:48:909149,197.38,0.65,0.9500000000000001,3.4449308483102943,0.011344640041552799,0.016580627753038705,0.025910000000000002,0.06180000000000001,0.00093,0.15831900000000002,-0.1145424,9.7819974,31.030693066,121.44346275000001,16.322,351442.50917523156,3434043.890160114,186.42917523154756,264.4801601138897,0.0,0.0,0.0,0.0,-0.0,50,0,188
1676425968945.0,2023-02-15 09:52:48:929143,197.38,0.65,0.9500000000000001,3.4449308483102943,0.011344640041552799,0.016580627753038705,-0.06476000000000001,0.047110000000000006,-0.013560000000000001,0.1739304,-0.1272922,9.7849374,31.030693066,121.44346275000001,16.322,351442.50917523156,3434043.890160114,186.42917523154756,264.4801601138897,0.0,0.0,0.0,0.0,-0.0,50,0,188
1676425968965.0,2023-02-15 09:52:48:949137,197.38,0.65,0.9500000000000001,3.4449308483102943,0.011344640041552799,0.016580627753038705,0.023420000000000003,0.04054000000000001,-0.03391,0.1808394,-0.1368864,9.7959232,31.030693066,121.44346275000001,16.322,351442.50917523156,3434043.890160114,186.42917523154756,264.4801601138897,0.0,0.0,0.0,0.0,-0.0,50,0,188
1676425968985.0,2023-02-15 09:52:48:969151,197.38,0.65,0.9500000000000001,3.4449308483102943,0.011344640041552799,0.016580627753038705,-0.01958,0.010490000000000001,0.018510000000000002,0.18615099999999998,-0.1352988,9.792062,31.030693066,121.44346275000001,16.322,351442.50917523156,3434043.890160114,186.42917523154756,264.4801601138897,0.0,0.0,0.0,0.0,-0.0,50,0,188
1676425969005.0,2023-02-15 09:52:48:989171,197.38,0.65,0.9500000000000001,3.4449308483102943,0.011344640041552799,0.016580627753038705,0.00198,0.02018,0.01327,0.18760140000000003,-0.1231664,9.7821052,31.030693066,121.44346275000001,16.322,351442.50917523156,3434043.890160114,186.42917523154756,264.4801601138897,0.0,0.0,0.0,0.0,-0.0,50,0,188
1676425969025.0,2023-02-15 09:52:49:009189,197.38,0.65,0.9500000000000001,3.4449308483102943,0.011344640041552799,0.016580627753038705,0.0074600000000000005,0.055540000000000006,-0.008400000000000001,0.1941772,-0.1255674,9.7970404,31.030693065,121.443462749,16.322,351442.5090782251,3434043.890050606,186.4290782251046,264.4800506057218,0.0,0.0,0.0,0.0,-0.0,50,0,188
1676425969045.0,2023-02-15 09:52:49:029141,197.38,0.65,0.9500000000000001,3.4449308483102943,0.011344640041552799,0.016580627753038705,0.020700000000000003,0.0077800000000000005,0.053930000000000006,0.165669,-0.1167768,9.8675808,31.030693065,121.443462749,16.322,351442.5090782251,3434043.890050606,186.4290782251046,264.4800506057218,0.0,0.0,0.0,0.0,-0.0,50,0,188
1676425969065.0,2023-02-15 09:52:49:049172,197.38,0.65,0.9500000000000001,3.4449308483102943,0.011344640041552799,0.016580627753038705,-0.03805,-0.024620000000000003,0.04573000000000001,0.1395226,-0.054203799999999996,9.7706,31.030693065,121.443462749,16.322,351442.5090782251,3434043.890050606,186.4290782251046,264.4800506057218,0.0,0.0,0.0,0.0,-0.0,50,0,188
1676425969085.0,2023-02-15 09:52:49:069156,197.39,0.65,0.96,3.4451053812340104,0.011344640041552799,0.0167551606767549,-0.13326000000000002,0.19968000000000002,0.21315,0.17041219999999999,0.14392280000000002,9.784418,31.030693065,121.443462749,16.322,351442.5090782251,3434043.890050606,186.4290782251046,264.4800506057218,0.0,0.0,0.0,0.0,-0.0,50,0,188
1676425969105.0,2023-02-15 09:52:49:089170,197.4,0.65,0.96,3.445279914157727,0.011344640041552799,0.0167551606767549,-0.05992000000000001,0.17618,0.51195,0.2080246,0.197421,9.885652,31.030693065,121.443462749,16.322,351442.5090782251,3434043.890050606,186.4290782251046,264.4800506057218,0.0,0.0,0.0,0.0,-0.0,50,0,188
1676425969125.0,2023-02-15 09:52:49:109169,197.41,0.65,0.96,3.4454544470814428,0.011344640041552799,0.0167551606767549,0.14965,-0.09670000000000001,0.6303500000000001,0.2690296,0.0672476,9.7475602,31.030693064,121.44346274600001,16.322,351442.5087903185,3434043.889943772,186.4287903184886,264.4799437718466,-0.01,0.0,0.0,-0.0029920730611730285,0.00954188130279363,50,0,188
1676425969145.0,2023-02-15 09:52:49:129170,197.42,0.65,0.9500000000000001,3.445628980005159,0.011344640041552799,0.016580627753038705,0.16309,-0.26919000000000004,0.44004000000000004,0.3657262,-0.050254400000000005,9.6872902,31.030693062,121.443462744,16.322,351442.508596308,3434043.889724756,186.4285963079892,264.47972475597635,-0.01,-0.01,0.0,0.006547620554171557,0.012535097330240007,50,0,188
1676425969165.0,2023-02-15 09:52:49:149167,197.42,0.65,0.9500000000000001,3.445628980005159,0.011344640041552799,0.016580627753038705,-0.07970000000000001,-0.24825000000000003,0.18993000000000002,0.1428938,-0.015591800000000001,9.8511952,31.030693059,121.443462741,16.322,351442.50830529357,3434043.889396233,186.42830529354978,264.4793962328695,-0.01,-0.01,0.0,0.006547620554171557,0.012535097330240007,50,0,188
1676425969185.0,2023-02-15 09:52:49:169117,197.42,0.65,0.9500000000000001,3.445628980005159,0.011344640041552799,0.016580627753038705,-0.13241,-0.033850000000000005,0.13593000000000002,0.019717600000000002,0.081193,9.9038016,31.030693057,121.44346273800001,16.322,351442.5080158318,3434043.8891785545,186.4280158317997,264.47917855437845,-0.01,-0.01,0.0,0.006547620554171557,0.012535097330240007,50,0,188
1676425969205.0,2023-02-15 09:52:49:189139,197.43,0.65,0.9500000000000001,3.4458035129288755,0.011344640041552799,0.016580627753038705,-0.0029700000000000004,0.22102000000000002,0.34552000000000005,0.099617,0.1417864,9.7443752,31.030693055,121.443462733,16.322,351442.50753546495,3434043.888963549,186.42753546492895,264.4789635487832,-0.02,-0.01,0.0,0.0035500290435696415,0.02207707620564399,50,0,188
1676425969225.0,2023-02-15 09:52:49:209166,197.45,0.65,0.96,3.4461525787763074,0.011344640041552799,0.0167551606767549,0.10722000000000001,0.23118000000000002,0.7568600000000001,0.169442,0.1645616,9.690779,31.030693050000004,121.443462725,16.322,351442.506764086,3434043.8884200207,186.42676408600528,264.47842002054676,-0.02,-0.01,0.0,0.003542322474131469,0.022078314054502966,50,0,188
1676425969245.0,2023-02-15 09:52:49:229104,197.47,0.65,0.96,3.44650164462374,0.011344640041552799,0.0167551606767549,0.15472000000000002,0.042,1.0878,0.2676478,0.150577,9.820874,31.030693047000003,121.44346271900001,16.322,351442.5061867152,3434043.8880955097,186.4261867151945,264.47809550957754,-0.03,-0.01,0.0,0.0005325518196635706,0.03161829199307535,50,0,188
1676425969265.0,2023-02-15 09:52:49:249165,197.48999999999998,0.65,0.9500000000000001,3.446850710471172,0.011344640041552799,0.016580627753038705,0.062470000000000005,-0.23498000000000002,1.25059,0.2591708,0.0945504,9.868257,31.030693044000003,121.44346271100001,16.322,351442.5054184393,3434043.8877736707,186.425418439263,264.4777736705728,-0.03,-0.02,0.0,0.010059209202437478,0.034623869082203926,50,0,188
1676425969285.0,2023-02-15 09:52:49:269180,197.51999999999998,0.65,0.9500000000000001,3.447374309242321,0.011344640041552799,0.016580627753038705,-0.01238,-0.17444,1.27376,0.287238,0.10860360000000001,9.796364200000001,31.030693040000003,121.44346270300001,16.322,351442.50464861304,3434043.887340988,186.4246486130287,264.4773409878835,-0.04,-0.02,0.0,0.007030692176486704,0.04416525067878013,50,0,188
1676425969305.0,2023-02-15 09:52:49:289156,197.54,0.65,0.9500000000000001,3.4477233750897534,0.011344640041552799,0.016580627753038705,0.035460000000000005,0.06515,1.23956,0.285082,0.1989792,9.742826800000001,31.030693035000002,121.443462693,16.322,351442.5036863268,3434043.8868001336,186.42368632677244,264.47680013347417,-0.04,-0.02,0.0,0.0070152751678102775,0.044167702162552044,50,0,188
1676425969325.0,2023-02-15 09:52:49:309136,197.57,0.66,0.96,3.448246973860902,0.011519172965268996,0.0167551606767549,0.08173000000000001,0.14255,1.35731,0.2473128,0.27196960000000003,9.7752844,31.030693030000002,121.443462683,16.322,351442.50272404274,3434043.88625928,186.42272404272808,264.47625927999616,-0.05,-0.03,0.0,0.01350692939818977,0.0567235652813918,50,0,188
1676425969345.0,2023-02-15 09:52:49:329166,197.6,0.66,0.96,3.448770572632051,0.011519172965268996,0.0167551606767549,0.15663000000000002,-0.055220000000000005,1.5674100000000002,0.3172456,0.22982960000000002,9.8215894,31.030693023,121.443462671,16.322,351442.5015677484,3434043.885499409,186.42156774835894,264.47549940878525,-0.05,-0.03,0.0,0.013477227158969717,0.05673062971716011,50,0,188
1676425969365.0,2023-02-15 09:52:49:349137,197.64,0.66,0.9500000000000001,3.4494687043269154,0.011519172965268996,0.016580627753038705,0.08883,-0.31007,1.7232,0.2970086,0.17829140000000002,9.8269794,31.030693016,121.443462658,16.322,351442.50031600264,3434043.8847408774,186.4203160026227,264.4747408772819,-0.06,-0.04,0.0,0.01993705951423448,0.06930017069189565,50,0,188
1676425969385.0,2023-02-15 09:52:49:369171,197.67,0.66,0.9400000000000001,3.449992303098064,0.011519172965268996,0.01640609482932251,0.00026000000000000003,-0.48780000000000007,1.8246900000000001,0.20813240000000002,0.1919722,9.7835262,31.030693008000004,121.443462643,16.322,351442.49887179915,3434043.883874175,186.41887179913465,264.47387417498976,-0.07,-0.04,0.0,0.016865429509238104,0.07883880572071676,50,0,188
1676425969405.0,2023-02-15 09:52:49:389168,197.71,0.66,0.93,3.450690434792929,0.011519172965268996,0.01623156190560631,0.04190000000000001,-0.35263000000000005,1.9566200000000002,0.1227254,0.2549862,9.758546,31.030693000000003,121.443462628,16.322,351442.4974275981,3434043.883007471,186.4174275980913,264.473007470835,-0.07,-0.04,0.0,0.016810385534647466,0.07885056079811048,50,0,188
1676425969425.0,2023-02-15 09:52:49:409169,197.75,0.66,0.93,3.4513885664877937,0.011519172965268996,0.01623156190560631,0.16359,-0.12466,2.1204400000000003,0.10486000000000001,0.28334739999999997,9.7892788,31.030692991000002,121.443462608,16.322,351442.49550458044,3434043.8820366077,186.41550458042184,264.4720366075635,-0.08,-0.04,0.0,0.013706690655946336,0.0883862355305519,50,0,188
1676425969445.0,2023-02-15 09:52:49:429163,197.79999999999998,0.67,0.93,3.4522612311063745,0.011693705888985193,0.01623156190560631,0.22212,-0.025560000000000003,2.2124300000000003,0.19583340000000002,0.2639042,9.820472200000001,31.030692982,121.443462589,16.322,351442.4936770166,3434043.881064407,186.41367701656418,264.4710644069128,-0.09,-0.05,0.0,0.020093895152914692,0.1009764100054249,50,0,188
1676425969465.0,2023-02-15 09:52:49:449163,197.85,0.67,0.93,3.4531338957249553,0.011693705888985193,0.01623156190560631,0.16862000000000002,-0.11326000000000001,2.37774,0.2399432,0.2562798,9.8116522,31.030692973,121.443462569,16.322,351442.49175400136,3434043.880093544,186.41175400133943,264.47009354364127,-0.1,-0.05,0.0,0.016940508470941057,0.110512529483068,50,0,188
1676425969485.0,2023-02-15 09:52:49:469137,197.89,0.67,0.92,3.45383202741982,0.011693705888985193,0.016057028981890115,0.10392000000000001,-0.25565000000000004,2.4308400000000003,0.22143100000000002,0.2706172,9.7868778,31.030692963000003,121.44346254700001,16.322,351442.4896385284,3434043.87901451,186.40963852836285,264.4690145100467,-0.1,-0.05,0.0,0.016863352049397498,0.11052432925676628,50,0,188
1676425969505.0,2023-02-15 09:52:49:489161,197.94,0.67,0.92,3.4547046920384012,0.011693705888985193,0.016057028981890115,0.12618000000000001,-0.30866000000000005,2.49257,0.2011254,0.2880808,9.7663174,31.030692952000003,121.44346252400001,16.322,351442.4874260514,3434043.877825969,186.40742605138803,264.4678259687498,-0.11,-0.06,0.0,0.02320048249402825,0.12313300780880929,50,0,188
1676425969525.0,2023-02-15 09:52:49:509162,197.98999999999998,0.67,0.92,3.455577356656982,0.011693705888985193,0.016057028981890115,0.11039000000000002,-0.232,2.54306,0.17651760000000002,0.280574,9.793581,31.030692941,121.443462499,16.322,351442.48502266686,3434043.876640101,186.4050226668478,264.4666401008144,-0.12,-0.06,0.0,0.020004510143659324,0.1326643116060692,50,0,188
1676425969545.0,2023-02-15 09:52:49:529146,198.04999999999998,0.68,0.91,3.456624554199279,0.01186823881270139,0.01588249605817392,0.14651,-0.14799,2.59748,0.1964214,0.288267,9.8116522,31.03069293,121.44346247300001,16.322,351442.4825238335,3434043.8754555704,186.40252383350162,264.4654555702582,-0.13,-0.06,0.0,0.01676710543874816,0.14219305248571712,50,0,188
1676425969565.0,2023-02-15 09:52:49:549130,198.1,0.68,0.91,3.4574972188178603,0.01186823881270139,0.01588249605817392,0.09527000000000001,-0.13408,2.6655100000000003,0.21509040000000001,0.30016420000000005,9.805341,31.030692917000003,121.44346244500001,16.323,351442.47983098973,3434043.8740520254,186.39983098971425,264.46405202522874,-0.13,-0.07,0.0,0.02614816963170901,0.14531439441745395,50,0,188
1676425969585.0,2023-02-15 09:52:49:569159,198.15,0.68,0.91,3.4583698834364416,0.01186823881270139,0.01588249605817392,0.15166000000000002,-0.21261000000000002,2.669,0.19936140000000002,0.2928142,9.7953842,31.030692904000002,121.44346241500001,16.323,351442.4769472432,3434043.872651153,186.3969472431927,264.4626511526294,-0.14,-0.07,0.0,0.022906291313180477,0.154839600290997,50,0,188
1676425969605.0,2023-02-15 09:52:49:589158,198.21,0.68,0.9,3.459417080978739,0.01186823881270139,0.01570796313445772,0.13055,-0.33758000000000005,2.7541900000000004,0.20348719999999998,0.3038784,9.7736772,31.030692891,121.44346238300001,16.323,351442.4738725893,3434043.871252954,186.39387258928036,264.4612529538572,-0.15,-0.07,0.0,0.019619124261878625,0.16436267813344052,50,0,188
1676425969625.0,2023-02-15 09:52:49:609158,198.26,0.68,0.9,3.4602897455973194,0.01186823881270139,0.01570796313445772,0.12733,-0.31064,2.8240100000000004,0.17029460000000002,0.31227699999999997,9.791434800000001,31.030692878000004,121.44346234800001,16.322,351442.4705115814,3434043.869858769,186.39051158138318,264.4598587686196,-0.16,-0.07,0.0,0.016342388040314876,0.17387618109775638,50,0,188
1676425969645.0,2023-02-15 09:52:49:629142,198.32,0.6900000000000001,0.89,3.461336943139617,0.012042771736417587,0.015533430210741524,0.17464000000000002,-0.27627,2.85922,0.1232448,0.29615600000000003,9.809937199999998,31.030692863000002,121.44346231300001,16.322,351442.4671474681,3434043.868242891,186.3871474681073,264.4582428908907,-0.17,-0.08,0.0,0.022510216444227585,0.1865295959241697,50,0,188
1676425969665.0,2023-02-15 09:52:49:649179,198.38,0.6900000000000001,0.89,3.462384140681914,0.012042771736417587,0.015533430210741524,0.24163,-0.20311,2.94078,0.1287034,0.3146878,9.7761076,31.030692848,121.443462276,16.322,351442.4635924498,3434043.8666296895,186.3835924497689,264.4566296893172,-0.17,-0.08,0.0,0.02231487080290534,0.18655306628691376,50,0,188
1676425969685.0,2023-02-15 09:52:49:669162,198.44,0.6900000000000001,0.88,3.4634313382242112,0.012042771736417587,0.015358897287025327,0.25004000000000004,-0.13294,3.0868900000000004,0.1383662,0.26225780000000004,9.767905,31.030692833000003,121.44346223800001,16.322,351442.45994197996,3434043.865017824,186.37994197994703,264.45501782372594,-0.18,-0.08,0.0,0.01895638696585856,0.19606288632273225,50,0,188
1676425969705.0,2023-02-15 09:52:49:689166,198.51,0.7000000000000001,0.88,3.4646530686902244,0.012217304660133784,0.015358897287025327,0.22171000000000002,-0.043480000000000005,3.2161000000000004,0.1453144,0.2444904,9.77256,31.030692817000002,121.443462198,16.322,351442.45609905256,3434043.8632977875,186.37609905254794,264.45329778734595,-0.19,-0.08,0.0,0.015542135503058656,0.20556858228825864,50,0,188
1676425969725.0,2023-02-15 09:52:49:709160,198.57,0.7000000000000001,0.89,3.465700266232522,0.012217304660133784,0.015533430210741524,0.17724,-0.02824,3.3549100000000003,0.189973,0.24343199999999998,9.7736674,31.030692801,121.44346215700001,16.322,351442.45216067386,3434043.8615790885,186.37216067383997,264.45157908834517,-0.2,-0.09,0.0,0.021621579194999616,0.2182487280904848,50,0,188
1676425969745.0,2023-02-15 09:52:49:729163,198.64,0.7000000000000001,0.89,3.466921996698535,0.012217304660133784,0.015533430210741524,0.19449000000000002,0.019340000000000003,3.5430400000000004,0.202272,0.24209920000000001,9.7890338,31.030692785000003,121.44346211400001,16.322,351442.44803138997,3434043.859863063,186.3680313899531,264.44986306270584,-0.2,-0.09,0.0,0.021354922004599,0.21827498094416936,50,0,188
1676425969765.0,2023-02-15 09:52:49:749160,198.72,0.71,0.89,3.4683182600882647,0.01239183758384998,0.015533430210741524,0.21900000000000003,-0.005410000000000001,3.65553,0.247891,0.20613320000000002,9.782928400000001,31.030692767,121.44346207000001,16.322,351442.44380354945,3434043.8579266854,186.36380354943685,264.44792668521404,-0.21,-0.09,0.0,0.01784069610366759,0.2277755684056931,50,0,188
1676425969785.0,2023-02-15 09:52:49:769163,198.79,0.71,0.89,3.469539990554278,0.01239183758384998,0.015533430210741524,0.23133,-0.024110000000000003,3.69077,0.2713816,0.176792,9.746149,31.030692749000004,121.443462025,16.322,351442.4394802551,3434043.8559916453,186.3594802551088,264.44599164510146,-0.21,-0.1,0.0,0.02702945751851324,0.23101819933991108,50,0,188
1676425969805.0,2023-02-15 09:52:49:789157,198.85999999999999,0.71,0.89,3.4707617210202915,0.01239183758384998,0.015533430210741524,0.13009,-0.13185000000000002,3.68333,0.2696862,0.136416,9.7700218,31.030692730000002,121.443461979,16.322,351442.43505995686,3434043.853947098,186.3550599568407,264.44394709775224,-0.22,-0.1,0.0,0.023514627251741776,0.24051416237970613,50,0,188
1676425969825.0,2023-02-15 09:52:49:809158,198.94,0.71,0.88,3.472157984410021,0.01239183758384998,0.015358897287025327,0.08374000000000001,-0.161,3.64583,0.287532,0.10674159999999999,9.8229418,31.030692712,121.44346193000001,16.322,351442.43035485724,3434043.852017404,186.35035485721892,264.4420174038969,-0.22,-0.11,0.0,0.03263737332823263,0.24379253856964855,50,0,188
1676425969845.0,2023-02-15 09:52:49:829158,199.01,0.71,0.88,3.4733797148760344,0.01239183758384998,0.015358897287025327,0.12985000000000002,-0.26238,3.5390300000000003,0.23648380000000002,0.1171296,9.803145800000001,31.030692692000002,121.44346188200001,16.322,351442.42574210116,3434043.8498646864,186.3457421011408,264.4398646862246,-0.22,-0.11,0.0,0.032339500272889427,0.24383223068761803,50,0,188
1676425969865.0,2023-02-15 09:52:49:849155,199.07999999999998,0.72,0.87,3.4746014453420475,0.012566370507566177,0.01518436436330913,0.16277000000000003,-0.3946,3.4592600000000004,0.17892840000000002,0.1306732,9.7822522,31.030692671,121.443461833,16.322,351442.42103234096,3434043.8476024587,186.341032340948,264.4376024585217,-0.23,-0.11,0.0,0.028772698929306242,0.25332218970379106,50,0,188
1676425969885.0,2023-02-15 09:52:49:869119,199.15,0.72,0.87,3.475823175808061,0.012566370507566177,0.01518436436330913,0.18070000000000003,-0.34484000000000004,3.4302,0.1201676,0.0554876,9.7857802,31.030692650000002,121.443461783,16.322,351442.41622712964,3434043.8453415693,186.33622712962097,264.4353415691294,-0.23,-0.11,0.0,0.028463186095993312,0.2533571531203823,50,0,188
1676425969905.0,2023-02-15 09:52:49:889158,199.21,0.72,0.86,3.4768703733503585,0.012566370507566177,0.015009831439592933,0.11333000000000001,-0.2876,3.4436500000000003,0.026342400000000002,0.0149254,9.8060662,31.03069263,121.443461733,16.322,351442.41142347327,3434043.843191522,186.33142347325338,264.4331915220246,-0.24,-0.11,0.0,0.024907541163758443,0.26283001045005433,50,0,188
1676425969925.0,2023-02-15 09:52:49:909158,199.28,0.72,0.86,3.4780921038163717,0.012566370507566177,0.015009831439592933,0.062180000000000006,-0.21150000000000002,3.4023800000000004,0.045197600000000004,0.0073598,9.7790966,31.030692609000003,121.443461682,16.322,351442.40652280813,3434043.8409319706,186.32652280811453,264.4309319704771,-0.24,-0.11,0.0,0.024586415223680103,0.2628602445910161,50,0,188
1676425969945.0,2023-02-15 09:52:49:929157,199.35,0.72,0.86,3.4793138342823853,0.012566370507566177,0.015009831439592933,0.06889,-0.08939000000000001,3.3475200000000003,0.0175616,0.009898,9.754782800000001,31.030692589,121.44346163,16.322,351442.4015282444,3434043.838784599,186.32152824435616,264.42878459906206,-0.24,-0.11,0.0,0.024265252585300046,0.26289008638016687,50,0,188
1676425969965.0,2023-02-15 09:52:49:949115,199.41,0.72,0.86,3.4803610318246823,0.012566370507566177,0.015009831439592933,0.060160000000000005,0.038160000000000006,3.2310800000000004,0.055546399999999996,-0.0536942,9.793385,31.030692569000003,121.44346157800001,16.322,351442.396533683,3434043.836637229,186.3165336829843,264.426637229044,-0.25,-0.11,0.0,0.02066668425498079,0.2723469995463598,50,0,188
1676425969985.0,2023-02-15 09:52:49:969151,199.48,0.72,0.86,3.4815827622906954,0.012566370507566177,0.015009831439592933,0.06819,0.04542,3.1343300000000003,0.1216866,-0.0290668,9.7708548,31.030692549,121.443461525,16.322,351442.3914436679,3434043.8344911947,186.31144366785884,264.4244911945425,-0.25,-0.11,0.0,0.020333934287276118,0.27237204540187443,50,0,188
1676425970005.0,2023-02-15 09:52:49:989215,199.54,0.72,0.86,3.482629959832993,0.012566370507566177,0.015009831439592933,0.10529000000000001,0.058640000000000005,2.9718500000000003,0.1133272,0.023177,9.809574600000001,31.030692529000003,121.443461471,16.322,351442.386258199,3434043.8323464985,186.30625819897978,264.42234649835154,-0.25,-0.11,0.0,0.020048695853546003,0.2723931896993242,50,0,188
1676425970025.0,2023-02-15 09:52:50:009154,199.6,0.73,0.86,3.48367715737529,0.012740903431282374,0.015009831439592933,0.16193000000000002,0.09278,2.8318100000000004,0.1559572,-0.029958600000000002,9.817375400000001,31.030692507,121.443461415,16.321,351442.38087872206,3434043.829982785,186.30087872204604,264.41998278489336,-0.25,-0.11,0.0,0.019763435433963195,0.2724140352842481,50,0,188
1676425970045.0,2023-02-15 09:52:50:029116,199.65,0.73,0.86,3.484549821993871,0.012740903431282374,0.015009831439592933,0.14891000000000001,0.014770000000000002,2.76072,0.1741754,-0.0581826,9.7998334,31.030692487000003,121.443461361,16.321,351442.3756932557,3434043.8278380902,186.2956932556699,264.4178380900994,-0.25,-0.11,0.0,0.01952570184858103,0.2724311784053366,50,0,188
1676425970065.0,2023-02-15 09:52:50:049159,199.7,0.73,0.87,3.485422486612452,0.012740903431282374,0.01518436436330913,0.18488000000000002,0.020470000000000002,2.6739400000000004,0.136024,-0.0962458,9.7630442,31.030692467,121.443461307,16.321,351442.37050778925,3434043.8256933927,186.29050778923556,264.41569339251146,-0.26,-0.11,0.0,0.01591700108816277,0.28186281960620385,50,0,188
1676425970085.0,2023-02-15 09:52:50:069156,199.76,0.73,0.87,3.486469684154749,0.012740903431282374,0.01518436436330913,0.11440000000000002,0.0027900000000000004,2.6433400000000002,0.13214320000000002,-0.127547,9.7640928,31.030692446000003,121.443461252,16.321,351442.3652253164,3434043.823439187,186.28522531635826,264.41343918675557,-0.26,-0.11,0.0,0.015621826362682376,0.2818793332990097,50,0,188
1676425970105.0,2023-02-15 09:52:50:089155,199.81,0.73,0.87,3.48734234877333,0.012740903431282374,0.01518436436330913,0.03203,0.06875,2.7106000000000003,0.1188446,-0.1158066,9.8014308,31.030692426,121.443461197,16.321,351442.3599443985,3434043.821295827,186.27994439849863,264.4112958270125,-0.26,-0.11,0.0,0.0153758343246745,0.28189285858073837,50,0,188
1676425970125.0,2023-02-15 09:52:50:109110,199.85999999999999,0.73,0.87,3.488215013391911,0.012740903431282374,0.01518436436330913,0.013790000000000002,0.08063000000000001,2.6416500000000003,0.1251852,-0.08825880000000001,9.791425,31.030692406000004,121.443461142,16.321,351442.3546634783,3434043.819152468,186.27466347831069,264.4091524677351,-0.26,-0.11,0.0,0.01512983057730026,0.28190616918879624,50,0,188
1676425970145.0,2023-02-15 09:52:50:129158,199.91,0.73,0.87,3.4890876780104922,0.012740903431282374,0.01518436436330913,0.060910000000000006,0.0776,2.42911,0.1528016,-0.0337316,9.7636126,31.030692386000002,121.443461087,16.321,351442.34938255814,3434043.8170091086,186.26938255812274,264.4070091084577,-0.26,-0.11,0.0,0.01488381530790192,0.2819192651130466,50,0,188
1676425970165.0,2023-02-15 09:52:50:149142,199.96,0.74,0.87,3.4899603426290735,0.012915436354998571,0.01518436436330913,0.14717000000000002,0.01848,2.1926400000000004,0.1593088,-0.0810362,9.76129,31.030692365,121.443461032,16.321,351442.3441000852,3434043.814754904,186.26410008518724,264.40475490363315,-0.26,-0.11,0.0,0.014637788703830978,0.28193214634351654,50,0,188
1676425970185.0,2023-02-15 09:52:50:169143,200.0,0.74,0.87,3.490658474323938,0.012915436354998571,0.01518436436330913,0.16225,-0.042530000000000005,1.9564000000000001,0.1342992,-0.1182958,9.793512400000001,31.030692345000002,121.44346097600001,16.321,351442.3387237162,3434043.81261288,186.25872371619334,264.4026128798723,-0.26,-0.11,0.0,0.014440959385515623,0.28194229674177285,50,0,188
1676425970205.0,2023-02-15 09:52:50:189119,200.03,0.74,0.87,3.4911820730950867,0.012915436354998571,0.01518436436330913,0.1683,-0.07951000000000001,1.6240400000000002,0.106526,-0.0896406,9.796423,31.030692325,121.44346092,16.321,351442.33334734465,3434043.810470858,186.2533473446383,264.40047085797414,-0.26,-0.11,0.0,0.014293332772616782,0.2819498193619766,50,0,188
1676425970225.0,2023-02-15 09:52:50:209157,200.06,0.75,0.87,3.491705671866235,0.013089969278714768,0.01518436436330913,0.20707,0.01302,1.43307,0.057839600000000005,-0.0147686,9.766974,31.030692305000002,121.44346086300001,16.321,351442.32787552185,3434043.8083301727,186.2478755218326,264.39833017252386,-0.26,-0.11,0.0,0.014145702241119745,0.2819572646840396,50,0,188
1676425970245.0,2023-02-15 09:52:50:229144,200.07999999999998,0.75,0.88,3.492054737713667,0.013089969278714768,0.015358897287025327,0.29039000000000004,0.15416000000000002,1.24685,-0.0040572,-0.1376312,9.8003528,31.030692285,121.44346080700001,16.32,351442.3224991503,3434043.80618815,186.24249915027758,264.39618814969435,-0.27,-0.1,0.0,0.001221819679968733,0.28792100853649016,50,0,188
1676425970265.0,2023-02-15 09:52:50:249147,200.10999999999999,0.75,0.88,3.492578336484816,0.013089969278714768,0.015358897287025327,0.10036,0.31403000000000003,1.1948,-0.0072226,-0.2354842,9.9029196,31.030692265000003,121.443460751,16.32,351442.31712277635,3434043.8040461275,186.23712277633604,264.3940461273305,-0.26,-0.1,0.0,0.004509300076573991,0.27853126613150525,50,0,188
1676425970285.0,2023-02-15 09:52:50:269124,200.13,0.75,0.89,3.4929274023322483,0.013089969278714768,0.015533430210741524,-0.12288000000000002,0.39191000000000004,1.13094,0.0155036,-0.21805980000000003,9.853400200000001,31.030692247,121.44346069400001,16.32,351442.31165405887,3434043.802127133,186.23165405885084,264.39212713297457,-0.26,-0.1,0.0,0.0044120740513775986,0.2785328232050312,50,0,188
1676425970305.0,2023-02-15 09:52:50:289160,200.15,0.75,0.9,3.493276468179681,0.013089969278714768,0.01570796313445772,-0.17587000000000003,0.41887,1.1214300000000001,0.060769800000000006,-0.12118680000000001,9.7597416,31.030692229000003,121.443460638,16.32,351442.3062807927,3434043.8002068,186.22628079267452,264.3902067998424,-0.26,-0.1,0.0,0.004314847488583212,0.27853434634017804,50,0,188
1676425970325.0,2023-02-15 09:52:50:309177,200.17,0.75,0.91,3.493625534027113,0.013089969278714768,0.01588249605817392,-0.05280000000000001,0.40964000000000006,1.03888,0.1402968,-0.216874,9.715475000000001,31.030692211,121.44346058100001,16.32,351442.30081207526,3434043.7982878033,186.22081207524752,264.38828780315816,-0.26,-0.09,0.0,-0.005169116620524036,0.27508776823654557,50,0,188
1676425970345.0,2023-02-15 09:52:50:329105,200.19,0.74,0.91,3.4939745998745457,0.012915436354998571,0.01588249605817392,-0.05673,0.30969,0.8837800000000001,0.149891,-0.2963912,9.7951882,31.030692193000004,121.443460525,16.32,351442.29543880915,3434043.7963674716,186.2154388091294,264.386367471423,-0.26,-0.09,0.0,-0.005265140048591299,0.27508594711520384,50,0,188
1676425970365.0,2023-02-15 09:52:50:349141,200.2,0.74,0.92,3.494149132798262,0.012915436354998571,0.016057028981890115,-0.25414000000000003,0.26464000000000004,0.72362,0.2128168,-0.257789,9.847735799999999,31.030692175000002,121.44346047,16.32,351442.29016099434,3434043.794445802,186.21016099432018,264.38444580184296,-0.26,-0.09,0.0,-0.0053131515227781145,0.2750850239851236,50,0,188
1676425970385.0,2023-02-15 09:52:50:369142,200.21,0.73,0.92,3.494323665721978,0.012740903431282374,0.016057028981890115,-0.30405000000000004,0.20321000000000003,0.5207200000000001,0.1995476,-0.1704906,9.8285376,31.030692158,121.443460415,16.32,351442.2848847346,3434043.7926349766,186.2048847345868,264.3826349764131,-0.26,-0.09,0.0,-0.005361162835117103,0.27508409247547444,50,0,188
1676425970405.0,2023-02-15 09:52:50:389145,200.22,0.73,0.93,3.494498198645694,0.012740903431282374,0.01623156190560631,-0.20664000000000002,0.29138000000000003,0.37010000000000004,0.14366800000000002,-0.1976366,9.755507999999999,31.030692140000003,121.44346036,16.32,351442.27960691985,3434043.7907133074,186.1996069198358,264.3807133072987,-0.26,-0.09,0.0,-0.005409173984145713,0.2750831525862848,50,0,188
1676425970425.0,2023-02-15 09:52:50:409167,200.23,0.72,0.9400000000000001,3.4946727315694104,0.012566370507566177,0.01640609482932251,-0.29108,0.39518000000000003,0.26834,0.1438346,-0.241423,9.773393,31.030692123,121.44346030400001,16.319,351442.27423520637,3434043.788903819,186.19423520634882,264.3789038187824,-0.25,-0.09,0.0,-0.001999289792659481,0.2656990832508177,50,0,188
1676425970445.0,2023-02-15 09:52:50:429129,200.23,0.71,0.9400000000000001,3.4946727315694104,0.01239183758384998,0.01640609482932251,-0.52281,0.33419000000000004,0.19561,0.13029100000000002,-0.060152399999999995,9.8079184,31.030692106000004,121.44346025,16.319,351442.269054398,3434043.7870916585,186.18905439798255,264.37709165830165,-0.26,-0.09,0.0,-0.005457184968401474,0.2750822043175833,50,0,188
1676425970465.0,2023-02-15 09:52:50:449151,200.23,0.7000000000000001,0.9500000000000001,3.4946727315694104,0.012217304660133784,0.016580627753038705,-0.48447000000000007,0.20448000000000002,0.11376000000000001,0.1533014,0.1672958,9.7590458,31.030692089000002,121.44346019500001,16.319,351442.2637781359,3434043.785280833,186.18377813586267,264.3752808328718,-0.26,-0.09,0.0,-0.005457184968401474,0.2750822043175833,50,0,188
1676425970485.0,2023-02-15 09:52:50:469171,200.23,0.7000000000000001,0.9500000000000001,3.4946727315694104,0.012217304660133784,0.016580627753038705,-0.15849000000000002,0.16514,0.02406,0.113239,0.20507480000000003,9.6884858,31.030692071,121.443460138,16.319,351442.2583094184,3434043.7833618363,186.17830941837747,264.37336183618754,-0.27,-0.09,0.0,-0.008915080144143467,0.2844653253843489,50,0,188
1676425970505.0,2023-02-15 09:52:50:489102,200.23,0.7000000000000001,0.96,3.4946727315694104,0.012217304660133784,0.0167551606767549,-0.15384,0.20832,-0.12602000000000002,0.062524,0.1195992,9.7300084,31.030692053000003,121.44346008100001,16.319,351442.2528407009,3434043.7814428415,186.17284070089227,264.37144284136593,-0.27,-0.09,0.0,-0.008915080144143467,0.2844653253843489,50,0,188
1676425970525.0,2023-02-15 09:52:50:509151,200.22,0.6900000000000001,0.96,3.494498198645694,0.012042771736417587,0.0167551606767549,-0.46215000000000006,0.30034000000000005,-0.28363000000000005,0.083986,0.16601200000000002,9.868110000000001,31.030692035,121.44346002200001,16.319,351442.24718107836,3434043.7795265187,186.16718107834458,264.3695265185088,-0.28,-0.1,0.0,-0.0029379644628017426,0.29730685892662373,50,0,188
1676425970545.0,2023-02-15 09:52:50:529151,200.21,0.68,0.97,3.494323665721978,0.01186823881270139,0.0169296936004711,-0.5112500000000001,0.36015,-0.45767,0.0919828,0.3071418,9.853214000000001,31.030692017000003,121.443459961,16.319,351442.2413305508,3434043.777612874,186.16133055079263,264.3676128736697,-0.29,-0.1,0.0,-0.006340694221022847,0.3066916946981047,50,0,188
1676425970565.0,2023-02-15 09:52:50:549175,200.2,0.67,0.98,3.494149132798262,0.011693705888985193,0.017104226524187294,-0.17239000000000002,0.43434000000000006,-0.49895000000000006,0.09394279999999999,0.4128544,9.744757400000001,31.030691998,121.443459899,16.319,351442.2353830192,3434043.7755897185,186.15538301918423,264.3655897183344,-0.3,-0.1,0.0,-0.009740148037870794,0.3160777270169481,50,0,188
1676425970585.0,2023-02-15 09:52:50:569132,200.19,0.68,0.99,3.4939745998745457,0.01186823881270139,0.017278759447903493,0.05845,0.5253800000000001,-0.55059,0.07007000000000001,0.30794540000000004,9.6810868,31.030691979,121.44345983400001,16.319,351442.2291491311,3434043.773570573,186.14914913108805,264.3635705728084,-0.31,-0.1,0.0,-0.013136325599374707,0.32546495502549455,50,0,188
1676425970605.0,2023-02-15 09:52:50:589167,200.18,0.68,1.0,3.4938000669508296,0.01186823881270139,0.01745329237161969,-0.052410000000000005,0.61978,-0.5064700000000001,0.0439824,0.225792,9.8359562,31.030691961000002,121.44345976800001,16.319,351442.2228213445,3434043.7716636118,186.14282134448877,264.36166361160576,-0.31,-0.1,0.0,-0.013079521049417689,0.32546724278968203,50,0,188
1676425970625.0,2023-02-15 09:52:50:609164,200.17,0.67,1.01,3.493625534027113,0.011693705888985193,0.017627825295335887,-0.23886000000000002,0.65642,-0.5364000000000001,0.10927,0.2445688,9.915787,31.030691942,121.443459699,16.318,351442.2162056488,3434043.7696498157,186.13620564877056,264.35964981559664,-0.32,-0.1,0.0,-0.01647078340125023,0.33485625766013255,50,0,188
1676425970645.0,2023-02-15 09:52:50:629149,200.16,0.67,1.03,3.4934510011033972,0.011693705888985193,0.01797689114276828,-0.07662000000000001,0.67434,-0.5272100000000001,0.19141360000000002,0.3680292,9.8555268,31.030691922000003,121.443459629,16.318,351442.2094929466,3434043.7675265125,186.1294929466094,264.3575265123509,-0.33,-0.1,0.0,-0.019858768662058268,0.34424646593280644,50,0,188
1676425970665.0,2023-02-15 09:52:50:649138,200.15,0.67,1.04,3.493276468179681,0.011693705888985193,0.018151424066484477,0.21823,0.64768,-0.63787,0.2834356,0.28618940000000004,9.707644799999999,31.030691902,121.443459558,16.318,351442.20268479316,3434043.7654045466,186.12268479313934,264.35540454648435,-0.34,-0.11,0.0,-0.013855536467419993,0.3570826572506708,50,0,188
1676425970685.0,2023-02-15 09:52:50:669151,200.13,0.68,1.05,3.4929274023322483,0.01186823881270139,0.018325956990200676,0.05731000000000001,0.42024000000000006,-0.7796500000000001,0.33748259999999997,0.2214408,9.7905136,31.030691881000003,121.443459485,16.318,351442.19568418426,3434043.76317441,186.11568418424577,264.3531744098291,-0.34,-0.11,0.0,-0.013730890265466963,0.3570874719904323,50,0,188
1676425970705.0,2023-02-15 09:52:50:689148,200.10999999999999,0.67,1.05,3.492578336484816,0.011693705888985193,0.018325956990200676,-0.11097000000000001,0.15903,-0.9418700000000001,0.345597,0.2455978,9.8943838,31.030691859,121.443459411,16.318,351442.18858657137,3434043.7608347647,186.10858657135395,264.3508347645402,-0.35000000000000003,-0.12,0.0,-0.007654135353255154,0.36992082154427863,50,0,188
1676425970725.0,2023-02-15 09:52:50:709166,200.09,0.68,1.05,3.4922292706373836,0.01186823881270139,0.018325956990200676,0.13786,0.06155000000000001,-1.08675,0.2921674,0.3668728,9.8878178,31.030691836000003,121.443459336,16.318,351442.18139194965,3434043.758385612,186.10139194963267,264.3483856120147,-0.36,-0.13,0.0,-0.001568423471463895,0.38274997066990635,50,0,188
1676425970745.0,2023-02-15 09:52:50:729173,200.07,0.6900000000000001,1.05,3.4918802047899513,0.012042771736417587,0.018325956990200676,0.35285000000000005,0.05734,-1.1612200000000001,0.1984304,0.2842294,9.7519506,31.030691813,121.44345925900001,16.318,351442.1740064277,3434043.755939133,186.09400642768014,264.3459391328506,-0.37,-0.13,0.0,-0.004866497546020046,0.3921432355678657,50,0,188
1676425970765.0,2023-02-15 09:52:50:749172,200.04,0.6900000000000001,1.06,3.491356606018803,0.012042771736417587,0.01850048991391687,0.23728000000000002,0.17928000000000002,-1.18978,0.1992634,0.2361898,9.7094088,31.030691788000002,121.44345918100001,16.318,351442.1665223466,3434043.753272302,186.0865223465953,264.3432723018341,-0.37,-0.13,0.0,-0.004661171172055459,0.3921457299057389,50,0,188
1676425970785.0,2023-02-15 09:52:50:769166,200.01999999999998,0.6900000000000001,1.06,3.49100754017137,0.012042771736417587,0.01850048991391687,0.15024,0.039020000000000006,-1.19439,0.2379734,0.301203,9.7532834,31.030691764,121.443459101,16.318,351442.15884891315,3434043.7507189894,186.07884891313734,264.3407189892605,-0.38,-0.13,0.0,-0.007947767301441533,0.40154306493192254,50,0,188
1676425970805.0,2023-02-15 09:52:50:789161,200.0,0.7000000000000001,1.05,3.490658474323938,0.012217304660133784,0.018325956990200676,0.15829000000000001,-0.14973,-1.2615200000000002,0.2263506,0.37668260000000003,9.8588686,31.030691738,121.443459019,16.318,351442.15098147164,3434043.7479466614,186.0709814716247,264.33794666128233,-0.39,-0.14,0.0,-0.0018308766950225486,0.4143629422264105,50,0,188
1676425970825.0,2023-02-15 09:52:50:809163,199.97,0.7000000000000001,1.05,3.4901348755527892,0.012217304660133784,0.018325956990200676,0.1582,-0.31783,-1.34579,0.1606808,0.3718022,9.8408954,31.030691713000003,121.44345893600001,16.318,351442.14302012906,3434043.745286515,186.0630201290478,264.33528651483357,-0.4,-0.14,0.0,-0.00502919699342641,0.4237625599054279,50,0,188
1676425970845.0,2023-02-15 09:52:50:829162,199.94,0.71,1.04,3.4896112767816407,0.01239183758384998,0.018151424066484477,0.16455,-0.24433000000000002,-1.46371,0.0104468,0.3909612,9.7675522,31.030691687,121.44345885000001,16.318,351442.1347708799,3434043.742519536,186.0547708798549,264.3325195359066,-0.41000000000000003,-0.14,0.0,-0.008217673601374959,0.4331656378806857,50,0,188
1676425970865.0,2023-02-15 09:52:50:849157,199.91,0.71,1.04,3.4890876780104922,0.01239183758384998,0.018151424066484477,0.26865,-0.0024700000000000004,-1.5329400000000002,-0.0057428,0.3823862,9.7125742,31.030691660000002,121.443458762,16.318,351442.1263291704,3434043.739644385,186.04632917040726,264.32964438479394,-0.42,-0.14,0.0,-0.011396303773441363,0.44257216842036445,50,0,188
1676425970885.0,2023-02-15 09:52:50:869156,199.88,0.72,1.04,3.4885640792393433,0.012566370507566177,0.018151424066484477,0.17419,0.23576000000000003,-1.6076300000000001,0.0086926,0.41743100000000005,9.7522936,31.030691634000004,121.443458671,16.318,351442.1176026597,3434043.73688409,186.03760265966412,264.3268840899691,-0.43,-0.14,0.0,-0.014565084769597059,0.45198214379071927,50,0,188
1676425970905.0,2023-02-15 09:52:50:889120,199.84,0.72,1.05,3.4878659475444787,0.012566370507566177,0.018325956990200676,0.27487,0.36807,-1.6961100000000002,0.09086559999999999,0.3836014,9.827077399999999,31.030691607,121.443458578,16.318,351442.10868369124,3434043.7340156254,186.02868369122734,264.32401562528685,-0.44,-0.14,0.0,-0.017643484870247417,0.4613986426525693,50,0,188
1676425970925.0,2023-02-15 09:52:50:909158,199.79999999999998,0.73,1.06,3.4871678158496136,0.012740903431282374,0.01850048991391687,0.22327000000000002,0.35983000000000004,-1.8882700000000001,0.09823520000000001,0.31994059999999996,9.9373764,31.030691580000003,121.443458483,16.318,351442.09957382013,3434043.731149835,186.0195738201146,264.32114983489737,-0.45,-0.15,0.0,-0.01129993471409485,0.4742070344010696,50,0,188
1676425970945.0,2023-02-15 09:52:50:929158,199.76999999999998,0.73,1.06,3.486644217078465,0.012740903431282374,0.01850048991391687,0.00979,0.31757,-1.95398,0.079429,0.36766660000000007,9.863053200000001,31.030691553,121.443458387,16.318,351442.09036849526,3434043.7282853797,186.01036849524826,264.3182853795588,-0.46,-0.15,0.0,-0.01443409097530321,0.48362346615700597,50,0,188
1676425970965.0,2023-02-15 09:52:50:949156,199.73,0.73,1.07,3.4859460853836004,0.012740903431282374,0.01867502283763307,0.11248000000000001,0.39532,-2.00815,0.09653980000000001,0.4539262,9.6998832,31.030691526000002,121.44345828700001,16.318,351442.0807813627,3434043.725426275,186.00078136270167,264.3154262746684,-0.47000000000000003,-0.15,0.0,-0.017472335986437548,0.49304636442750194,50,0,188
1676425970985.0,2023-02-15 09:52:50:969128,199.69,0.74,1.08,3.4852479536887357,0.012915436354998571,0.018849555761349265,0.34497000000000005,0.5038100000000001,-2.0209,0.1450596,0.4134326,9.639672000000001,31.030691498000003,121.443458186,16.318,351442.0710972237,3434043.7224576618,185.99109722371213,264.3124576616101,-0.48,-0.15,0.0,-0.020497429540397294,0.5024737360123775,50,0,188
1676425971005.0,2023-02-15 09:52:50:989160,199.64,0.75,1.09,3.4843752890701545,0.013089969278714768,0.019024088685065464,0.33411,0.5637000000000001,-2.09483,0.22437100000000001,0.34562640000000006,9.787554,31.030691469,121.443458082,16.318,351442.061125178,3434043.7193822144,185.98112517799018,264.3093822142109,-0.49,-0.16,0.0,-0.014001791704246952,0.5152707539042662,50,0,188
1676425971025.0,2023-02-15 09:52:51:009158,199.6,0.75,1.1,3.48367715737529,0.013089969278714768,0.01919862160878166,0.18252000000000002,0.41413000000000005,-2.12449,0.233779,0.2874438,9.983877399999999,31.030691439,121.44345798100001,16.318,351442.051437936,3434043.7161919107,185.97143793600844,264.3061919105239,-0.5,-0.16,0.0,-0.016996576895181886,0.5247009780568798,50,0,188
1676425971045.0,2023-02-15 09:52:51:029164,199.56,0.75,1.1,3.482979025680425,0.013089969278714768,0.01919862160878166,0.038810000000000004,0.30716000000000004,-2.0625400000000003,0.2275658,0.3731644,9.918286,31.030691409000003,121.443457874,16.318,351442.04117797886,3434043.7130096313,185.96117797883926,264.3030096311122,-0.51,-0.16,0.0,-0.019978200199798207,0.5341356302633038,50,0,188
